日期,地点名称,经度,纬度,区域,类型,时间段,情绪值
2024-08-01,桓台实验学校,118.082203,36.967572,其他,学校,深夜,4.44
2024-08-01,海棠居(农广大厦店),118.01476,36.829155,其他,餐饮,中午,6.31
2024-08-01,稷下学宫遗址(不对外开放),118.332365,36.853936,其他,旅游景点,深夜,4.07
2024-08-01,稷下学宫遗址(不对外开放),118.332365,36.853936,其他,旅游景点,上午,5.52
2024-08-01,齐鲁石化公司党委党校,118.284505,36.817216,其他,学校,上午,6.57
2024-08-01,齐鲁石化公司党委党校,118.284505,36.817216,其他,学校,晚上,6.82
2024-08-01,仟佰汇,117.962278,36.646522,其他,商场,深夜,3.44
2024-08-01,仟佰汇,117.962278,36.646522,其他,商场,傍晚,5.66
2024-08-01,大红门(淄博张店区),118.030367,36.807949,其他,餐饮,傍晚,5.06
2024-08-01,山东工业职业学院北区,118.081257,36.886581,其他,学校,凌晨,6.24
2024-08-01,沂源县历山中学,118.161848,36.191321,其他,学校,下午,6.56
2024-08-01,沂源县历山中学,118.161848,36.191321,其他,学校,傍晚,4.41
2024-08-01,高青县实验中学,117.819735,37.165726,其他,学校,深夜,4.48
2024-08-01,高青县实验中学,117.819735,37.165726,其他,学校,上午,4.74
2024-08-01,金陵寺-伽蓝殿,118.20056,36.925468,其他,旅游景点,深夜,5.49
2024-08-01,张店区中医院,118.049972,36.800925,其他,医院,傍晚,3.79
2024-08-01,张店区中医院,118.049972,36.800925,其他,医院,凌晨,3.88
2024-08-01,十六台球器材,118.284746,36.814537,其他,体育场馆,傍晚,4.66
2024-08-01,十六台球器材,118.284746,36.814537,其他,体育场馆,晚上,2.97
2024-08-01,权记洋行,118.061074,36.80042,其他,旅游景点,深夜,5.17
2024-08-01,黄桑别院,118.025778,36.812851,其他,餐饮,深夜,3.36
2024-08-01,黄桑别院,118.025778,36.812851,其他,餐饮,中午,6.53
2024-08-01,淄博市美达菲双语高级中学,117.966026,36.815861,其他,学校,傍晚,5.55
2024-08-01,淄博市美达菲双语高级中学,117.966026,36.815861,其他,学校,深夜,6.58
2024-08-01,安澜湾,117.896269,37.260744,其他,旅游景点,上午,7.4
2024-08-01,安澜湾,117.896269,37.260744,其他,旅游景点,中午,6.83
2024-08-01,博山区道德主题公园,117.855662,36.495119,其他,公园,凌晨,3.7
2024-08-01,博山区道德主题公园,117.855662,36.495119,其他,公园,傍晚,5.89
2024-08-01,奎樱古寺,117.908429,36.553642,其他,旅游景点,傍晚,6.52
2024-08-01,稷下文化园,118.274123,36.81748,其他,公园,傍晚,7.07
2024-08-01,稷下文化园,118.274123,36.81748,其他,公园,晚上,5.67
2024-08-01,张店儿童公园,118.071556,36.801765,其他,公园,晚上,4.83
2024-08-01,山东理工大学大学生艺术广场,117.999815,36.812747,其他,公园,凌晨,5.56
2024-08-01,山东理工大学大学生艺术广场,117.999815,36.812747,其他,公园,中午,4.35
2024-08-01,典雅服装商场,117.988939,36.74058,其他,商场,上午,5.49
2024-08-01,山东新星集团新星商厦,118.023088,36.78131,其他,商场,深夜,4.67
2024-08-01,山东新星集团新星商厦,118.023088,36.78131,其他,商场,下午,7.92
2024-08-01,方和茂,118.300029,36.81432,其他,商场,深夜,5.01
2024-08-01,方和茂,118.300029,36.81432,其他,商场,晚上,4.0
2024-08-01,莲池法治文化公园,118.03423,36.823497,其他,公园,凌晨,3.22
2024-08-01,莲池法治文化公园,118.03423,36.823497,其他,公园,上午,7.42
2024-08-01,张店市民公园,118.021792,36.804554,其他,公园,深夜,5.58
2024-08-01,张店市民公园,118.021792,36.804554,其他,公园,傍晚,6.71
2024-08-01,淄博市张店区傅家镇卫生院,118.000376,36.761537,其他,医院,深夜,5.72
2024-08-01,淄博市张店区傅家镇卫生院,118.000376,36.761537,其他,医院,下午,4.41
2024-08-01,博山区博山镇中心卫生院,117.963515,36.382327,其他,医院,傍晚,6.33
2024-08-01,博山区博山镇中心卫生院,117.963515,36.382327,其他,医院,凌晨,2.55
2024-08-01,九级村新时代文化广场,118.021111,36.817354,其他,公园,晚上,4.25
2024-08-01,云川羽毛球俱乐部,118.096937,36.936719,其他,体育场馆,下午,7.32
2024-08-01,云川羽毛球俱乐部,118.096937,36.936719,其他,体育场馆,晚上,6.27
2024-08-01,沁园社区卫生服务站,118.045357,36.814004,其他,医院,深夜,4.55
2024-08-01,银座中心店2期,118.049828,36.804971,其他,商场,晚上,4.21
2024-08-01,淄博北站南广场,118.02671,36.893317,其他,公园,傍晚,5.17
2024-08-01,淄博北站南广场,118.02671,36.893317,其他,公园,中午,7.51
2024-08-01,博山区中医院-门诊住院,117.826869,36.489714,其他,医院,深夜,5.5
2024-08-01,刘煜拳击馆,117.987399,36.814711,其他,体育场馆,凌晨,4.64
2024-08-01,刘煜拳击馆,117.987399,36.814711,其他,体育场馆,傍晚,6.62
2024-08-01,潮庭健身(欧丽洛雅店),118.011354,36.828545,其他,体育场馆,下午,4.65
2024-08-01,潮庭健身(欧丽洛雅店),118.011354,36.828545,其他,体育场馆,深夜,4.1
2024-08-01,凤凰山广场,117.832022,36.741644,其他,公园,下午,6.81
2024-08-01,凤凰山广场,117.832022,36.741644,其他,公园,凌晨,5.03
2024-08-01,周村区正阳路小学,117.863684,36.819077,其他,学校,下午,5.86
2024-08-01,周村区正阳路小学,117.863684,36.819077,其他,学校,凌晨,4.27
2024-08-01,沂源振华实验学校,118.182272,36.210307,其他,文化场馆,凌晨,4.78
2024-08-01,沂源振华实验学校,118.182272,36.210307,其他,文化场馆,傍晚,6.66
2024-08-01,海洋王国,118.296117,36.817556,其他,公园,中午,4.67
2024-08-01,汇达台球俱乐部,118.006687,36.816106,其他,体育场馆,中午,6.01
2024-08-01,盛华尚都广场,118.309909,36.811202,其他,商场,晚上,5.77
2024-08-01,金太阳商场,118.166734,36.185648,其他,商场,上午,7.27
2024-08-01,茂业百货(时代店),118.296056,36.817538,其他,商场,傍晚,5.24
2024-08-01,茂业百货(时代店),118.296056,36.817538,其他,商场,凌晨,4.58
2024-08-01,王渔洋故里景区,117.940854,36.950247,其他,旅游景点,深夜,6.61
2024-08-01,萌山公园,117.894094,36.713084,其他,公园,晚上,4.82
2024-08-01,淄博市中医医院(院总部)(装修中),117.934625,36.802749,其他,医院,上午,5.69
2024-08-01,淄博市中医医院(院总部)(装修中),117.934625,36.802749,其他,医院,傍晚,5.43
2024-08-01,串说(淄博桓台县),118.057524,36.954619,其他,餐饮,深夜,4.8
2024-08-01,乌河入湖口湿地公园,118.106519,36.944644,其他,公园,上午,7.63
2024-08-01,般阳中学,117.915619,36.656604,其他,学校,傍晚,5.73
2024-08-01,般阳中学,117.915619,36.656604,其他,学校,深夜,6.02
2024-08-01,天清·栖溪源休闲旅游区,118.185972,36.11547,其他,旅游景点,中午,3.57
2024-08-01,天清·栖溪源休闲旅游区,118.185972,36.11547,其他,旅游景点,上午,7.39
2024-08-01,进无止境台球俱乐部,117.99665,36.7996,其他,体育场馆,下午,6.06
2024-08-01,进无止境台球俱乐部,117.99665,36.7996,其他,体育场馆,中午,5.7
2024-08-01,马桥公园,117.917491,37.04194,其他,公园,上午,4.92
2024-08-01,马桥公园,117.917491,37.04194,其他,公园,深夜,4.24
2024-08-01,淄博高新华庚医院,118.06279,36.843618,其他,医院,晚上,6.64
2024-08-01,淄博高新华庚医院,118.06279,36.843618,其他,医院,下午,6.09
2024-08-01,响袋24h无人自助台球(吾悦广场店),118.023236,36.784281,其他,体育场馆,凌晨,3.52
2024-08-01,优购商城,118.330515,36.805331,其他,商场,上午,4.31
2024-08-01,博山陶瓷琉璃艺术博物馆,117.859607,36.499158,其他,文化场馆,上午,7.29
2024-08-01,博山陶瓷琉璃艺术博物馆,117.859607,36.499158,其他,文化场馆,傍晚,6.85
2024-08-01,沂河沂源源头水保护区,118.116224,36.167737,其他,旅游景点,中午,6.08
2024-08-01,动力100游泳健身(荣盛广场店),117.999996,36.825192,其他,体育场馆,上午,5.69
2024-08-01,动力100游泳健身(荣盛广场店),117.999996,36.825192,其他,体育场馆,深夜,5.97
2024-08-01,旭阳灶台鱼,118.02153,36.765224,其他,餐饮,傍晚,5.79
2024-08-01,旭阳灶台鱼,118.02153,36.765224,其他,餐饮,中午,5.25
2024-08-01,北大医疗鲁中医院(胜利分院),118.26391,36.767573,其他,医院,傍晚,4.46
2024-08-01,北大医疗鲁中医院(胜利分院),118.26391,36.767573,其他,医院,中午,5.45
2024-08-01,索镇卫生院,118.116856,36.958313,其他,医院,晚上,4.76
2024-08-01,索镇卫生院,118.116856,36.958313,其他,医院,上午,5.42
2024-08-01,红樱桃时尚购物广场(振华商厦店),118.055728,36.802018,其他,商场,傍晚,6.83
2024-08-01,淄博市高新区第一中学,118.036423,36.855487,其他,学校,中午,7.21
2024-08-01,淄川齐梦乐华梓潼山滑雪场,118.029397,36.667973,其他,体育场馆,中午,3.74
2024-08-01,易达广场,117.837451,36.497742,其他,商场,上午,5.29
2024-08-01,易达广场,117.837451,36.497742,其他,商场,中午,5.35
2024-08-01,六禾烧烤(尹家湾),117.844345,36.804193,其他,餐饮,中午,7.11
2024-08-01,六禾烧烤(尹家湾),117.844345,36.804193,其他,餐饮,深夜,4.05
2024-08-01,明德志愿服务主题公园,117.847624,36.795251,其他,公园,下午,5.5
2024-08-01,明德志愿服务主题公园,117.847624,36.795251,其他,公园,中午,4.69
2024-08-01,玉兰广场,117.965491,36.80035,其他,公园,傍晚,5.64
2024-08-01,玉兰广场,117.965491,36.80035,其他,公园,凌晨,5.62
2024-08-01,高青县第二人民医院,117.797966,37.178006,其他,医院,下午,6.02
2024-08-01,杏园社区卫生服务中心,118.080025,36.785047,其他,医院,下午,4.5
2024-08-01,淄博田敏乒乓球俱乐部,118.061296,36.820468,其他,体育场馆,中午,6.79
2024-08-01,碧霞元君行宫,117.969073,36.608908,其他,旅游景点,上午,6.86
2024-08-01,碧霞元君行宫,117.969073,36.608908,其他,旅游景点,中午,4.27
2024-08-01,富源商城,118.19445,36.189208,其他,商场,凌晨,4.27
2024-08-01,沂源县大张庄中学,118.031824,36.045896,其他,学校,傍晚,6.96
2024-08-01,沂源县大张庄中学,118.031824,36.045896,其他,学校,晚上,5.08
2024-08-01,淄博鑫马吾悦广场,118.001652,36.824664,其他,商场,凌晨,3.89
2024-08-01,淄博鑫马吾悦广场,118.001652,36.824664,其他,商场,中午,4.24
2024-08-01,四砂医院,118.028215,36.730963,其他,医院,深夜,5.84
2024-08-01,四砂医院,118.028215,36.730963,其他,医院,傍晚,7.2
2024-08-01,月湖湿地公园,118.002886,36.718887,其他,公园,下午,6.39
2024-08-01,月湖湿地公园,118.002886,36.718887,其他,公园,中午,5.72
2024-08-01,八陡老街,117.931293,36.455814,其他,公园,晚上,3.27
2024-08-01,八陡老街,117.931293,36.455814,其他,公园,傍晚,4.66
2024-08-01,银座商城(高青店),117.840226,37.164654,其他,商场,中午,5.59
2024-08-01,银座商城(高青店),117.840226,37.164654,其他,商场,傍晚,7.58
2024-08-02,牛山禅寺,118.351095,36.791842,其他,旅游景点,凌晨,4.71
2024-08-02,TULIPS MAPLE(齐园绿城店),118.288425,36.809494,其他,商场,晚上,6.27
2024-08-02,淄博市育才中学,117.969795,36.641159,其他,学校,晚上,3.37
2024-08-02,周村区市南路小学,117.854538,36.788305,其他,学校,下午,7.63
2024-08-02,周村区市南路小学,117.854538,36.788305,其他,学校,中午,4.74
2024-08-02,玉兰广场,117.965491,36.80035,其他,公园,上午,6.21
2024-08-02,傅山自然地质博物馆,118.132336,36.878484,其他,文化场馆,深夜,3.61
2024-08-02,复兴庵,117.900718,36.842181,其他,旅游景点,傍晚,3.64
2024-08-02,红宝龙购物商场(东里店),118.362609,36.018054,其他,商场,深夜,4.62
2024-08-02,红宝龙购物商场(东里店),118.362609,36.018054,其他,商场,中午,6.78
2024-08-02,沐羽高端羽毛球俱乐部,118.058909,36.878093,其他,体育场馆,上午,7.36
2024-08-02,沐羽高端羽毛球俱乐部,118.058909,36.878093,其他,体育场馆,晚上,4.79
2024-08-02,旗胜足球场,118.024355,36.773073,其他,体育场馆,晚上,5.32
2024-08-02,旗胜足球场,118.024355,36.773073,其他,体育场馆,凌晨,4.04
2024-08-02,老潍县菜馆(颐和花园店),118.066589,36.832173,其他,餐饮,中午,7.41
2024-08-02,钱记小院,117.854785,36.48077,其他,餐饮,下午,6.69
2024-08-02,威灵格桌球(利民大厦店),118.043439,36.813846,其他,体育场馆,深夜,5.19
2024-08-02,威灵格桌球(利民大厦店),118.043439,36.813846,其他,体育场馆,上午,5.69
2024-08-02,重庆饭店(华光路店),118.058445,36.819347,其他,餐饮,深夜,4.21
2024-08-02,重庆饭店(华光路店),118.058445,36.819347,其他,餐饮,凌晨,5.16
2024-08-02,山东理工大学东校区,118.039887,36.811417,其他,学校,凌晨,3.86
2024-08-02,抡8台球俱乐部,118.10774,36.962169,其他,体育场馆,晚上,2.68
2024-08-02,抡8台球俱乐部,118.10774,36.962169,其他,体育场馆,深夜,4.0
2024-08-02,颜山公园,117.849791,36.488876,其他,公园,深夜,4.07
2024-08-02,淄博东方双语学校,118.071636,36.808338,其他,学校,中午,6.29
2024-08-02,腾勃台球俱乐部,118.082624,36.950303,其他,体育场馆,深夜,4.63
2024-08-02,腾勃台球俱乐部,118.082624,36.950303,其他,体育场馆,傍晚,6.45
2024-08-02,齐乐梦华嬉雪乐园,118.028288,36.665735,其他,体育场馆,中午,5.72
2024-08-02,平安殿,117.855097,36.542447,其他,旅游景点,凌晨,5.03
2024-08-02,平安殿,117.855097,36.542447,其他,旅游景点,中午,5.32
2024-08-02,鲁山国家森林公园-大雄宝殿,118.072669,36.297529,其他,旅游景点,下午,6.53
2024-08-02,临淄御马苑马术俱乐部,118.368429,36.802627,其他,体育场馆,深夜,3.76
2024-08-02,临淄御马苑马术俱乐部,118.368429,36.802627,其他,体育场馆,凌晨,5.57
2024-08-02,张店区第九中学,118.022021,36.815689,其他,学校,傍晚,4.81
2024-08-02,张店区第九中学,118.022021,36.815689,其他,学校,凌晨,3.64
2024-08-02,茂业百货(泰客荣店),118.302802,36.813754,其他,商场,中午,5.05
2024-08-02,玻璃桥广场,118.215201,36.498281,其他,公园,凌晨,2.05
2024-08-02,玻璃桥广场,118.215201,36.498281,其他,公园,深夜,3.78
2024-08-02,西张游园,118.085153,36.796736,其他,公园,下午,8.01
2024-08-02,西张游园,118.085153,36.796736,其他,公园,中午,6.61
2024-08-02,玉龙商场,118.295926,36.814766,其他,商场,中午,3.99
2024-08-02,海洋王国,118.296117,36.817556,其他,公园,深夜,3.5
2024-08-02,茂业百货(商城店),118.319772,36.811152,其他,商场,下午,7.01
2024-08-02,茂业百货(商城店),118.319772,36.811152,其他,商场,中午,4.74
2024-08-02,灵芝洞,118.079323,36.267212,其他,旅游景点,傍晚,5.16
2024-08-02,明德志愿服务主题公园,117.847624,36.795251,其他,公园,上午,7.34
2024-08-02,磁村卫生院,117.847857,36.619271,其他,医院,傍晚,5.43
2024-08-02,磁村卫生院,117.847857,36.619271,其他,医院,上午,6.51
2024-08-02,马踏湖鲜鱼馆香和院,118.059533,37.062755,其他,餐饮,中午,3.76
2024-08-02,齐德学校,117.989599,36.803053,其他,学校,下午,5.38
2024-08-02,淄博市中心医院(西院区),117.975134,36.810239,其他,医院,深夜,6.85
2024-08-02,淄博市中心医院(西院区),117.975134,36.810239,其他,医院,傍晚,6.07
2024-08-02,淄博市中心医院门诊部,118.053567,36.806576,其他,医院,中午,5.68
2024-08-02,阿喆私房菜(西五路店),118.037651,36.84572,其他,餐饮,凌晨,5.95
2024-08-02,阿喆私房菜(西五路店),118.037651,36.84572,其他,餐饮,傍晚,5.93
2024-08-02,奎樱古寺,117.908429,36.553642,其他,旅游景点,深夜,4.25
2024-08-02,雪乡灶台鱼(瑞泉阳光店),118.337229,36.808301,其他,餐饮,凌晨,4.74
2024-08-02,福记小馆(朝阳花苑凯旋城店),117.871797,36.811256,其他,餐饮,中午,4.59
2024-08-02,张店区重庆路中学,118.008215,36.844799,其他,文化场馆,中午,6.18
2024-08-02,山东省桓台世纪中学,118.108796,36.959324,其他,学校,上午,4.32
2024-08-02,山东省桓台世纪中学,118.108796,36.959324,其他,学校,凌晨,4.92
2024-08-02,淄博市综合训练基地,117.832393,36.743439,其他,文化场馆,傍晚,5.21
2024-08-02,淄博市综合训练基地,117.832393,36.743439,其他,文化场馆,下午,5.26
2024-08-02,佳美果蔬商行(鑫城公寓东区店),118.018,36.801909,其他,餐饮,下午,4.21
2024-08-02,张店区大拿乔氏台球厅,118.035919,36.830971,其他,体育场馆,下午,6.61
2024-08-02,石佛寺,117.862538,36.675462,其他,旅游景点,凌晨,4.6
2024-08-02,石佛寺,117.862538,36.675462,其他,旅游景点,晚上,5.76
2024-08-02,东里滨水运动公园,118.364645,36.014678,其他,公园,上午,4.59
2024-08-02,湖田考场,118.11584,36.795345,其他,文化场馆,上午,7.63
2024-08-02,湖田考场,118.11584,36.795345,其他,文化场馆,深夜,3.74
2024-08-02,山东水利技师学院,117.893721,36.654078,其他,学校,傍晚,5.39
2024-08-02,TT台球俱乐部,117.97484,36.639349,其他,体育场馆,凌晨,4.35
2024-08-02,米村拌饭(张店区华光路大润发店),118.041565,36.821656,其他,餐饮,傍晚,4.49
2024-08-02,米村拌饭(张店区华光路大润发店),118.041565,36.821656,其他,餐饮,上午,7.26
2024-08-02,淄博博苑实验幼儿园,117.999673,36.819831,其他,学校,傍晚,3.9
2024-08-02,淄博博苑实验幼儿园,117.999673,36.819831,其他,学校,深夜,3.98
2024-08-02,淄川齐梦乐华梓潼山滑雪场,118.029397,36.667973,其他,体育场馆,傍晚,5.96
2024-08-02,柒月·普拉提·塑形(居然之家店),118.05623,36.841163,其他,体育场馆,中午,5.11
2024-08-02,柒月·普拉提·塑形(居然之家店),118.05623,36.841163,其他,体育场馆,深夜,3.33
2024-08-02,典雅服装商场,117.988939,36.74058,其他,商场,下午,5.63
2024-08-02,典雅服装商场,117.988939,36.74058,其他,商场,上午,6.84
2024-08-02,利群时代(柳泉路店),118.047509,36.801921,其他,商场,上午,4.5
2024-08-02,桓台县第二小学,118.093883,36.955014,其他,学校,晚上,5.49
2024-08-02,桓台县第二小学,118.093883,36.955014,其他,学校,深夜,4.41
2024-08-02,高青县第四中学,117.812928,37.172148,其他,学校,中午,6.19
2024-08-02,周村季掌门牛骨馆(信誉楼百货店),117.851567,36.807758,其他,餐饮,中午,7.21
2024-08-02,雪宫台,118.396235,36.896256,其他,旅游景点,晚上,5.54
2024-08-02,雪宫台,118.396235,36.896256,其他,旅游景点,凌晨,3.66
2024-08-02,怡康游园,118.190152,36.796997,其他,公园,中午,6.74
2024-08-02,怡康游园,118.190152,36.796997,其他,公园,傍晚,6.75
2024-08-02,淄博市张店区实验中学,118.025832,36.799455,其他,学校,凌晨,4.69
2024-08-02,蝴蝶峪,117.781106,36.513231,其他,旅游景点,中午,5.88
2024-08-02,世博高新医院,118.105384,36.829265,其他,医院,深夜,5.33
2024-08-02,世博高新医院,118.105384,36.829265,其他,医院,中午,6.57
2024-08-02,过桥缘过桥米线(水晶街店),118.003476,36.816582,其他,餐饮,傍晚,5.81
2024-08-02,凡尔赛篮球运动中心,118.051511,36.854882,其他,体育场馆,凌晨,5.64
2024-08-02,味老香菜馆(万象汇店),118.063505,36.801539,其他,餐饮,傍晚,7.06
2024-08-02,味老香菜馆(万象汇店),118.063505,36.801539,其他,餐饮,凌晨,4.91
2024-08-02,优壹佳健身(和平店),118.043127,36.796625,其他,体育场馆,晚上,6.17
2024-08-02,优壹佳健身(和平店),118.043127,36.796625,其他,体育场馆,凌晨,2.1
2024-08-02,影私空间(淄博王府井广场店),118.051466,36.8059,其他,餐饮,晚上,4.25
2024-08-02,银座商城(高青店),117.840226,37.164654,其他,商场,傍晚,5.77
2024-08-02,银座商城(高青店),117.840226,37.164654,其他,商场,上午,7.74
2024-08-02,张店城中小学,118.052446,36.801953,其他,学校,晚上,4.31
2024-08-02,张店城中小学,118.052446,36.801953,其他,学校,傍晚,5.89
2024-08-02,山东农业工程学院(淄博校区),117.934861,36.845859,其他,学校,晚上,3.55
2024-08-02,齐文化博物馆,118.364788,36.813558,其他,文化场馆,上午,5.42
2024-08-02,颜山商城,117.862649,36.496325,其他,商场,晚上,6.25
2024-08-02,颜山商城,117.862649,36.496325,其他,商场,下午,4.89
2024-08-03,猪龙河生态公园,118.04949,36.804743,其他,公园,晚上,5.6
2024-08-03,观德射箭馆(利群时代广场店),118.047589,36.802083,其他,体育场馆,上午,7.62
2024-08-03,观德射箭馆(利群时代广场店),118.047589,36.802083,其他,体育场馆,下午,5.75
2024-08-03,小乔豆腐(富瑞特城市广场店),117.851204,36.807558,其他,餐饮,中午,5.24
2024-08-03,小乔豆腐(富瑞特城市广场店),117.851204,36.807558,其他,餐饮,傍晚,4.89
2024-08-03,淄博沂源唐山佛雕文化园,118.377407,36.004463,其他,旅游景点,下午,7.26
2024-08-03,高青唐坊供销社,117.960948,37.183155,其他,商场,傍晚,5.77
2024-08-03,金山镇文体公园,118.244215,36.735747,其他,公园,中午,7.18
2024-08-03,金山镇文体公园,118.244215,36.735747,其他,公园,下午,7.96
2024-08-03,昆山社区文化广场,117.918647,36.593856,其他,公园,晚上,5.75
2024-08-03,昆山社区文化广场,117.918647,36.593856,其他,公园,中午,5.3
2024-08-03,淄博震中中医院,118.032777,36.755912,其他,医院,上午,8.71
2024-08-03,淄博震中中医院,118.032777,36.755912,其他,医院,中午,7.93
2024-08-03,高青双语学校,117.860078,37.158281,其他,学校,傍晚,5.03
2024-08-03,老鸭汤,118.022446,36.76349,其他,餐饮,中午,6.3
2024-08-03,银泰·金街/时代广场,118.035034,36.849708,其他,商场,上午,7.46
2024-08-03,银泰·金街/时代广场,118.035034,36.849708,其他,商场,深夜,4.3
2024-08-03,南定镇崔军纪念堂,118.049097,36.739534,其他,旅游景点,上午,6.11
2024-08-03,起凤中心卫生院,118.117231,37.056594,其他,医院,傍晚,6.03
2024-08-03,起凤中心卫生院,118.117231,37.056594,其他,医院,晚上,6.09
2024-08-03,幸运咖(周村店),117.852673,36.80738,其他,餐饮,傍晚,5.83
2024-08-03,幸运咖(周村店),117.852673,36.80738,其他,餐饮,上午,6.27
2024-08-03,小牛一杆台球俱乐部,117.86223,36.497585,其他,体育场馆,傍晚,6.3
2024-08-03,金沙游泳健身(万象汇店),118.060989,36.803223,其他,体育场馆,傍晚,5.03
2024-08-03,白云湖湿地公园,117.831422,36.782527,其他,公园,下午,6.35
2024-08-03,白云湖湿地公园,117.831422,36.782527,其他,公园,深夜,6.42
2024-08-03,张店区文苑学校,118.057396,36.770116,其他,学校,傍晚,7.41
2024-08-03,张店区文苑学校,118.057396,36.770116,其他,学校,凌晨,5.96
2024-08-03,星动重塑女性健身,118.024703,36.825757,其他,体育场馆,中午,5.39
2024-08-03,星动重塑女性健身,118.024703,36.825757,其他,体育场馆,深夜,3.31
2024-08-03,淄博淄川,117.961309,36.643502,其他,商场,下午,7.05
2024-08-03,淄博淄川,117.961309,36.643502,其他,商场,上午,8.6
2024-08-03,桓台县周家中学,117.982346,36.905885,其他,学校,下午,7.54
2024-08-03,山东工业职业学院北区,118.081257,36.886581,其他,学校,凌晨,2.93
2024-08-03,山东工业职业学院北区,118.081257,36.886581,其他,学校,晚上,5.95
2024-08-03,石炊百味云南蒸汽石锅鱼,118.01485,36.791229,其他,餐饮,深夜,5.39
2024-08-03,石炊百味云南蒸汽石锅鱼,118.01485,36.791229,其他,餐饮,傍晚,6.44
2024-08-03,齐都体育城,118.300503,36.827581,其他,体育场馆,中午,7.95
2024-08-03,齐都体育城,118.300503,36.827581,其他,体育场馆,晚上,5.94
2024-08-03,张店区第八中学,117.996954,36.825344,其他,学校,中午,6.4
2024-08-03,唐山镇卫生院,118.046475,36.95804,其他,医院,上午,8.35
2024-08-03,佳美果蔬商行(鑫城公寓东区店),118.018,36.801909,其他,餐饮,下午,8.02
2024-08-03,佳美果蔬商行(鑫城公寓东区店),118.018,36.801909,其他,餐饮,上午,6.54
2024-08-03,立碑山游园,117.851301,36.507937,其他,旅游景点,上午,6.12
2024-08-03,立碑山游园,117.851301,36.507937,其他,旅游景点,晚上,5.49
2024-08-03,心福烤鱼店,118.014583,36.791268,其他,餐饮,凌晨,5.06
2024-08-03,心福烤鱼店,118.014583,36.791268,其他,餐饮,深夜,4.38
2024-08-03,思迈健身会所(山东新星集团新星商厦店),118.023065,36.781464,其他,体育场馆,凌晨,6.28
2024-08-03,聚合购物,118.102169,36.819988,其他,商场,下午,7.03
2024-08-03,联通路169号红星欧丽洛雅商场,118.010594,36.829104,其他,商场,傍晚,4.14
2024-08-03,联通路169号红星欧丽洛雅商场,118.010594,36.829104,其他,商场,上午,6.54
2024-08-03,响袋24h无人自助台球(吾悦广场店),118.023236,36.784281,其他,体育场馆,上午,6.85
2024-08-03,莲池利群购物广场,118.036154,36.831436,其他,商场,下午,8.02
2024-08-03,辛店街道中体体育公园,118.309062,36.798078,其他,公园,晚上,6.68
2024-08-03,辛店街道中体体育公园,118.309062,36.798078,其他,公园,傍晚,7.43
2024-08-03,奎三广场,117.937206,36.563022,其他,公园,凌晨,2.93
2024-08-03,奎三广场,117.937206,36.563022,其他,公园,中午,7.29
2024-08-03,山东理工大学大学生艺术广场,117.999815,36.812747,其他,公园,上午,7.99
2024-08-03,萌山公园,117.894094,36.713084,其他,公园,深夜,6.43
2024-08-03,萌山公园,117.894094,36.713084,其他,公园,上午,6.49
2024-08-03,墨羽羽毛球馆,117.975839,36.868265,其他,体育场馆,晚上,7.02
2024-08-03,墨羽羽毛球馆,117.975839,36.868265,其他,体育场馆,傍晚,4.58
2024-08-03,奥华购物中心,118.233796,36.737202,其他,商场,傍晚,4.46
2024-08-03,奥华购物中心,118.233796,36.737202,其他,商场,上午,8.31
2024-08-03,茂岭公园,117.914827,36.480506,其他,公园,上午,5.68
2024-08-03,九顶莲花山弥陀寺,118.377441,36.004485,其他,旅游景点,中午,5.35
2024-08-03,淄博延强医院,117.944326,36.665657,其他,医院,上午,5.19
2024-08-03,淄博延强医院,117.944326,36.665657,其他,医院,深夜,6.25
2024-08-03,大张商贸城,118.225645,36.823116,其他,商场,深夜,4.54
2024-08-03,大张商贸城,118.225645,36.823116,其他,商场,上午,8.08
2024-08-03,沂源县普安禅寺,118.126756,36.195465,其他,旅游景点,凌晨,5.79
2024-08-03,沂源县普安禅寺,118.126756,36.195465,其他,旅游景点,傍晚,6.99
2024-08-03,淄博市黉山风景名胜旅游区,118.033871,36.659632,其他,旅游景点,下午,6.82
2024-08-03,淄博市黉山风景名胜旅游区,118.033871,36.659632,其他,旅游景点,中午,4.93
2024-08-03,沂源县大张庄中学,118.031824,36.045896,其他,学校,傍晚,5.76
2024-08-03,蓝溪国际滑雪场(暂停营业),118.358638,36.781914,其他,体育场馆,傍晚,6.12
2024-08-03,大染坊口腔,117.847775,36.791389,其他,医院,晚上,4.98
2024-08-03,大染坊口腔,117.847775,36.791389,其他,医院,凌晨,5.77
2024-08-03,淄川南部森林公园,117.967431,36.620843,其他,公园,上午,6.51
2024-08-03,淄川南部森林公园,117.967431,36.620843,其他,公园,傍晚,5.0
2024-08-03,谈小娱24h自助台球棋牌(莲池店),118.036283,36.831241,其他,体育场馆,凌晨,4.1
2024-08-03,银座(天齐店),118.331189,36.813099,其他,商场,中午,6.81
2024-08-03,银座(天齐店),118.331189,36.813099,其他,商场,晚上,3.88
2024-08-03,北大医疗鲁中医院(胜利分院),118.26391,36.767573,其他,医院,上午,6.16
2024-08-03,淄博高新区外国语学校,118.124979,36.830867,其他,学校,傍晚,5.51
2024-08-03,淄博高新区外国语学校,118.124979,36.830867,其他,学校,深夜,4.66
2024-08-03,临淄区圃田园,118.304575,36.811855,其他,公园,傍晚,4.67
2024-08-03,孙廷铨故居,117.856617,36.49113,其他,旅游景点,傍晚,6.07
2024-08-03,山东煤炭技术学院,117.985255,36.635242,其他,学校,傍晚,6.79
2024-08-03,青年公园,118.040537,36.760851,其他,公园,傍晚,5.96
2024-08-03,火刻北京烤鸭(明清街店),118.043785,36.833541,其他,餐饮,深夜,5.3
2024-08-03,淄博和平学校,117.824973,36.791633,其他,学校,上午,8.79
2024-08-03,淄博和平学校,117.824973,36.791633,其他,学校,傍晚,6.63
2024-08-03,张店区南定镇卫生院,118.04596,36.745646,其他,医院,中午,5.19
2024-08-03,望春山,118.078956,36.949125,其他,旅游景点,上午,4.62
2024-08-03,望春山,118.078956,36.949125,其他,旅游景点,下午,4.83
2024-08-03,加一桌,117.851289,36.776556,其他,餐饮,凌晨,4.79
2024-08-03,海岱楼钟书阁,117.98889,36.841714,其他,旅游景点,深夜,5.47
2024-08-03,海岱楼钟书阁,117.98889,36.841714,其他,旅游景点,中午,7.27
2024-08-03,淄博矿业集团公司双山医院,117.853711,36.498469,其他,医院,晚上,7.19
2024-08-03,张店区齐润小学,118.002303,36.81991,其他,学校,上午,6.23
2024-08-03,张店区齐润小学,118.002303,36.81991,其他,学校,凌晨,3.9
2024-08-03,淄博高新区第二小学,118.071541,36.876427,其他,学校,傍晚,6.54
2024-08-03,临淄区道德主题公园,118.303875,36.819506,其他,公园,下午,5.98
2024-08-03,临淄区道德主题公园,118.303875,36.819506,其他,公园,上午,7.98
2024-08-03,西寨煎饼-猪头肉(西寨小区店),117.855764,36.499442,其他,餐饮,中午,6.34
2024-08-03,西寨煎饼-猪头肉(西寨小区店),117.855764,36.499442,其他,餐饮,上午,6.63
2024-08-03,学伟烧烤火锅(天齐路),118.329326,36.805318,其他,餐饮,晚上,5.82
2024-08-03,朱台中心卫生院,118.257061,36.940575,其他,医院,中午,6.08
2024-08-03,孝妇河骑行公园,118.003375,36.747467,其他,公园,上午,7.79
2024-08-03,孝妇河骑行公园,118.003375,36.747467,其他,公园,凌晨,5.47
2024-08-03,胜炼公园,118.259219,36.771678,其他,公园,中午,6.6
2024-08-03,胜炼公园,118.259219,36.771678,其他,公园,深夜,5.59
2024-08-03,城标广场,118.100016,36.949576,其他,公园,中午,7.39
2024-08-04,北大医疗鲁中医院(胜利分院),118.26391,36.767573,其他,医院,凌晨,6.46
2024-08-04,WIN体能私教工作室,118.032,36.810034,其他,体育场馆,凌晨,4.29
2024-08-04,奎三广场,117.937206,36.563022,其他,公园,下午,6.56
2024-08-04,SOS台球俱乐部,118.029034,36.80782,其他,体育场馆,凌晨,3.21
2024-08-04,老鸭汤,118.022446,36.76349,其他,餐饮,晚上,5.75
2024-08-04,老鸭汤,118.022446,36.76349,其他,餐饮,傍晚,4.2
2024-08-04,边敏购物商场,118.360844,36.016546,其他,商场,凌晨,5.26
2024-08-04,边敏购物商场,118.360844,36.016546,其他,商场,深夜,4.65
2024-08-04,动力100游泳健身(荣盛广场店),117.999996,36.825192,其他,体育场馆,晚上,6.43
2024-08-04,崔家烤羊(中润·华侨城店),118.027231,36.841427,其他,餐饮,下午,6.27
2024-08-04,淄博实验中学,118.008153,36.801282,其他,学校,上午,6.25
2024-08-04,东泰广场(茂业百货店),118.296674,36.81926,其他,商场,傍晚,5.25
2024-08-04,东泰广场(茂业百货店),118.296674,36.81926,其他,商场,中午,7.42
2024-08-04,朱台镇新时代文明实践广场,118.260278,36.938944,其他,公园,深夜,4.84
2024-08-04,竹林寺,118.11276,36.55198,其他,旅游景点,深夜,4.95
2024-08-04,竹林寺,118.11276,36.55198,其他,旅游景点,傍晚,5.97
2024-08-04,加能健身,118.038489,36.84893,其他,体育场馆,凌晨,4.29
2024-08-04,加能健身,118.038489,36.84893,其他,体育场馆,傍晚,7.96
2024-08-04,峨庄国家森林公园,118.150576,36.503571,其他,公园,凌晨,6.97
2024-08-04,峨庄国家森林公园,118.150576,36.503571,其他,公园,下午,5.5
2024-08-04,唐山医院,118.046553,36.958095,其他,医院,下午,6.54
2024-08-04,唐山医院,118.046553,36.958095,其他,医院,中午,7.26
2024-08-04,银座·奥特莱斯(柳泉路店),118.056075,36.834419,其他,商场,下午,5.57
2024-08-04,东良进口商品(桓台店),118.093213,36.952988,其他,商场,晚上,6.34
2024-08-04,东良进口商品(桓台店),118.093213,36.952988,其他,商场,上午,5.83
2024-08-04,玉龙湖湿地公园,118.036436,36.876983,其他,公园,深夜,4.51
2024-08-04,玉龙湖湿地公园,118.036436,36.876983,其他,公园,下午,7.56
2024-08-04,桉树披萨(淄川店),117.976008,36.644428,其他,餐饮,下午,8.12
2024-08-04,张店区特殊教育中心学校,118.052517,36.797538,其他,学校,凌晨,5.77
2024-08-04,张店区特殊教育中心学校,118.052517,36.797538,其他,学校,深夜,2.94
2024-08-04,淄博天齐渊公园,118.336561,36.795289,其他,公园,中午,6.74
2024-08-04,淄博天齐渊公园,118.336561,36.795289,其他,公园,晚上,5.59
2024-08-04,三玉炒鸡,118.075633,36.873203,其他,餐饮,傍晚,6.63
2024-08-04,周家医院,117.987118,36.910093,其他,医院,凌晨,6.03
2024-08-04,周家医院,117.987118,36.910093,其他,医院,深夜,4.38
2024-08-04,焦裕禄精神教学基地,117.991743,36.438656,其他,学校,傍晚,8.12
2024-08-04,淄博市第一医院总院,117.86452,36.490278,其他,医院,深夜,4.87
2024-08-04,淄博市第一医院总院,117.86452,36.490278,其他,医院,下午,7.49
2024-08-04,临淄实验小学,118.30152,36.810601,其他,学校,傍晚,7.35
2024-08-04,公社炒鸡老菜馆(八大局店),118.075206,36.808527,其他,餐饮,凌晨,5.84
2024-08-04,国良烧烤,117.903396,37.04802,其他,餐饮,傍晚,6.13
2024-08-04,国良烧烤,117.903396,37.04802,其他,餐饮,凌晨,2.97
2024-08-04,清正源饭店,118.210065,36.799794,其他,餐饮,深夜,4.03
2024-08-04,清正源饭店,118.210065,36.799794,其他,餐饮,傍晚,4.43
2024-08-04,淄博动物园-东北虎园区,118.149612,36.808627,其他,公园,下午,5.95
2024-08-04,淄博动物园-东北虎园区,118.149612,36.808627,其他,公园,晚上,6.85
2024-08-04,淄川普安寺,117.884049,36.62809,其他,旅游景点,中午,7.22
2024-08-04,野香蕉团课健身,118.078014,36.816783,其他,体育场馆,晚上,5.3
2024-08-04,拿铁计划健身馆,117.928208,36.835469,其他,体育场馆,凌晨,4.08
2024-08-04,齐山风景区,118.199833,36.5147,其他,旅游景点,中午,6.56
2024-08-04,齐山风景区,118.199833,36.5147,其他,旅游景点,上午,6.27
2024-08-04,博山区博山镇中心卫生院,117.963515,36.382327,其他,医院,傍晚,7.2
2024-08-04,博山区博山镇中心卫生院,117.963515,36.382327,其他,医院,凌晨,5.04
2024-08-04,鲁村中心卫生院,118.048379,36.195733,其他,医院,凌晨,3.37
2024-08-04,鲁村中心卫生院,118.048379,36.195733,其他,医院,中午,6.95
2024-08-04,华齐私教健身中心(华侨店),117.992958,36.819546,其他,体育场馆,上午,7.06
2024-08-04,漫巴台球,117.926954,36.83419,其他,体育场馆,晚上,5.92
2024-08-04,开元溶洞,118.040406,36.40641,其他,旅游景点,下午,7.78
2024-08-04,开元溶洞,118.040406,36.40641,其他,旅游景点,深夜,5.65
2024-08-04,山东省淄博第十八中学,118.055517,36.818262,其他,学校,上午,8.14
2024-08-04,海岱楼钟书阁,117.98889,36.841714,其他,旅游景点,中午,6.0
2024-08-04,海岱楼钟书阁,117.98889,36.841714,其他,旅游景点,晚上,5.24
2024-08-04,友谊商场,118.168712,36.183769,其他,商场,深夜,5.08
2024-08-04,友谊商场,118.168712,36.183769,其他,商场,晚上,6.39
2024-08-04,董家灵泉公园,117.98105,36.694829,其他,公园,凌晨,5.82
2024-08-04,美博·嘉汇文具,118.00206,36.804644,其他,文化场馆,深夜,4.3
2024-08-04,美博·嘉汇文具,118.00206,36.804644,其他,文化场馆,晚上,5.69
2024-08-04,汇达台球俱乐部,118.006687,36.816106,其他,体育场馆,凌晨,4.86
2024-08-04,汇达台球俱乐部,118.006687,36.816106,其他,体育场馆,深夜,5.8
2024-08-04,华光国瓷文化艺术中心,118.04781,36.848143,其他,旅游景点,上午,7.3
2024-08-04,淄博长城医院,118.030906,36.797646,其他,医院,上午,6.77
2024-08-04,淄博长城医院,118.030906,36.797646,其他,医院,凌晨,4.46
2024-08-04,中威中医院,117.949276,36.645747,其他,医院,傍晚,6.25
2024-08-04,中威中医院,117.949276,36.645747,其他,医院,晚上,6.23
2024-08-04,淄博市周村夏源商贸有限公司,117.85205,36.798008,其他,商场,傍晚,7.98
2024-08-04,淄博市周村夏源商贸有限公司,117.85205,36.798008,其他,商场,凌晨,4.79
2024-08-04,怡康游园,118.190152,36.796997,其他,公园,下午,8.31
2024-08-04,颜文姜祠,117.855514,36.481729,其他,旅游景点,下午,5.68
2024-08-04,孝妇河湿地公园,117.966585,36.799996,其他,公园,深夜,4.41
2024-08-04,流苏园,117.918142,36.823744,其他,公园,凌晨,5.65
2024-08-04,茶百道(义乌店),118.022182,36.82295,其他,餐饮,傍晚,7.64
2024-08-04,淄博市周村区第一中学(东校区),117.838026,36.791925,其他,学校,下午,5.75
2024-08-04,淄博市周村区第一中学(东校区),117.838026,36.791925,其他,学校,凌晨,5.28
2024-08-04,大张商贸城,118.225645,36.823116,其他,商场,傍晚,5.52
2024-08-04,淄博市市级机关医院(人民西路),118.047769,36.814238,其他,医院,中午,6.59
2024-08-04,淄博市市级机关医院(人民西路),118.047769,36.814238,其他,医院,晚上,5.2
2024-08-04,欧麦滋蛋糕花艺坊(芦湖小区店),117.84188,37.168743,其他,餐饮,晚上,6.94
2024-08-04,欧麦滋蛋糕花艺坊(芦湖小区店),117.84188,37.168743,其他,餐饮,上午,6.51
2024-08-04,沂源第一中学,118.202762,36.204404,其他,学校,下午,4.73
2024-08-04,沂源第一中学,118.202762,36.204404,其他,学校,晚上,4.04
2024-08-04,卫固医院,118.144778,36.867143,其他,医院,深夜,3.36
2024-08-04,梁荣贵台球俱乐部锐胜旗舰店(齐纳店),118.331847,36.813853,其他,体育场馆,中午,6.92
2024-08-04,梁荣贵台球俱乐部锐胜旗舰店(齐纳店),118.331847,36.813853,其他,体育场馆,凌晨,3.87
2024-08-04,淄博高新区石桥中心医院,118.045962,36.886421,其他,医院,晚上,4.35
2024-08-04,老朱烧烤,118.072546,36.856499,其他,餐饮,凌晨,4.64
2024-08-05,张店区盛湖小学,117.983951,36.845121,其他,学校,傍晚,4.04
2024-08-05,张店区盛湖小学,117.983951,36.845121,其他,学校,中午,6.15
2024-08-05,太公植物园,118.36359,36.811137,其他,公园,中午,5.49
2024-08-05,华润实验小学,118.064116,36.801975,其他,学校,上午,4.93
2024-08-05,华润实验小学,118.064116,36.801975,其他,学校,下午,6.47
2024-08-05,寇氏游泳健身馆,118.339486,36.814335,其他,体育场馆,晚上,3.91
2024-08-05,寇氏游泳健身馆,118.339486,36.814335,其他,体育场馆,傍晚,6.0
2024-08-05,兴隆灌汤蒸包(东关店),117.97786,36.647169,其他,餐饮,下午,4.39
2024-08-05,兴隆灌汤蒸包(东关店),117.97786,36.647169,其他,餐饮,傍晚,7.48
2024-08-05,张店区实验小学,118.016861,36.801754,其他,学校,下午,6.84
2024-08-05,茂业百货(商城店),118.319772,36.811152,其他,商场,傍晚,5.78
2024-08-05,留仙湖公园-淄川健康主题公园,117.956814,36.634343,其他,公园,中午,6.35
2024-08-05,留仙湖公园-淄川健康主题公园,117.956814,36.634343,其他,公园,晚上,5.59
2024-08-05,齐悦实验小学,117.980875,36.813464,其他,学校,中午,4.81
2024-08-05,华岩寺,117.842443,36.613711,其他,旅游景点,傍晚,6.67
2024-08-05,凡尔赛篮球公园,118.076607,36.820241,其他,体育场馆,上午,6.37
2024-08-05,东泰广场(茂业百货店),118.296674,36.81926,其他,商场,下午,6.04
2024-08-05,白石洞旅游风景区,117.819342,36.515991,其他,旅游景点,深夜,4.65
2024-08-05,华严胜境,117.978841,37.001051,其他,旅游景点,中午,5.78
2024-08-05,北岭古窑,117.867789,36.494568,其他,旅游景点,上午,4.32
2024-08-05,北岭古窑,117.867789,36.494568,其他,旅游景点,凌晨,3.79
2024-08-05,立碑山游园,117.851301,36.507937,其他,旅游景点,晚上,4.69
2024-08-05,618战备电台旧址,118.001624,36.229969,其他,旅游景点,深夜,3.29
2024-08-05,悦城公园,117.861436,36.815855,其他,公园,晚上,6.18
2024-08-05,以马内利,118.027782,36.763214,其他,旅游景点,深夜,4.05
2024-08-05,以马内利,118.027782,36.763214,其他,旅游景点,晚上,4.33
2024-08-05,良乡体育运动公园,118.073226,36.777487,其他,公园,凌晨,5.2
2024-08-05,良乡体育运动公园,118.073226,36.777487,其他,公园,下午,7.01
2024-08-05,涝淄河公园,118.071893,36.87101,其他,公园,中午,4.21
2024-08-05,王士禛纪念馆,117.943453,36.9516,其他,旅游景点,深夜,4.48
2024-08-05,王士禛纪念馆,117.943453,36.9516,其他,旅游景点,下午,7.02
2024-08-05,张店区莲池学校,118.031351,36.830007,其他,学校,深夜,5.8
2024-08-05,岳庄医院,117.950743,36.448765,其他,医院,深夜,2.87
2024-08-05,金三角亿峰台球,118.297741,36.821013,其他,体育场馆,下午,6.08
2024-08-05,金三角亿峰台球,118.297741,36.821013,其他,体育场馆,上午,7.07
2024-08-05,张店区人民医院(南院区),118.059541,36.791552,其他,医院,傍晚,5.28
2024-08-05,张店区人民医院(南院区),118.059541,36.791552,其他,医院,凌晨,4.14
2024-08-05,王渔洋故里景区,117.940854,36.950247,其他,旅游景点,晚上,6.25
2024-08-05,王渔洋故里景区,117.940854,36.950247,其他,旅游景点,中午,5.64
2024-08-05,天玑阁,117.945775,37.186481,其他,旅游景点,中午,5.91
2024-08-05,淄博信息工程学校,118.067903,36.805023,其他,学校,凌晨,3.89
2024-08-05,哈尼家(大顺城市广场店),118.290283,36.814852,其他,餐饮,下午,6.05
2024-08-05,哈尼家(大顺城市广场店),118.290283,36.814852,其他,餐饮,傍晚,6.86
2024-08-05,周村基督教堂,117.847822,36.797957,其他,旅游景点,傍晚,5.51
2024-08-05,周村基督教堂,117.847822,36.797957,其他,旅游景点,深夜,3.28
2024-08-05,巩本明鱼屋子,118.083466,37.056576,其他,餐饮,上午,4.58
2024-08-05,幽幽谷,118.080758,36.323183,其他,旅游景点,中午,6.53
2024-08-05,幽幽谷,118.080758,36.323183,其他,旅游景点,凌晨,3.35
2024-08-05,动力100游泳健身(荣盛广场店),117.999996,36.825192,其他,体育场馆,下午,5.43
2024-08-05,临淄区闻韶银山百货商场(方正2009小区店),118.331701,36.817583,其他,商场,中午,4.14
2024-08-05,TT台球俱乐部,117.97484,36.639349,其他,体育场馆,中午,7.04
2024-08-05,TT台球俱乐部,117.97484,36.639349,其他,体育场馆,下午,5.49
2024-08-05,奎樱古寺,117.908429,36.553642,其他,旅游景点,深夜,4.23
2024-08-05,淄博光正公司医院,117.947288,36.6059,其他,医院,深夜,4.28
2024-08-05,张店区中医院肛肠楼,118.052541,36.800414,其他,医院,下午,5.43
2024-08-05,零度台球,118.300082,36.813906,其他,体育场馆,傍晚,5.46
2024-08-05,零度台球,118.300082,36.813906,其他,体育场馆,上午,6.72
2024-08-05,临淄区圃田园,118.304575,36.811855,其他,公园,傍晚,6.15
2024-08-05,圣洋游泳(淄博恒大翡翠华庭店),118.039832,36.848593,其他,体育场馆,下午,5.29
2024-08-05,圣洋游泳(淄博恒大翡翠华庭店),118.039832,36.848593,其他,体育场馆,傍晚,7.24
2024-08-05,沂河源,118.150174,36.196341,其他,公园,中午,6.62
2024-08-05,沂河源,118.150174,36.196341,其他,公园,凌晨,4.94
2024-08-05,陈庄公园,117.917705,37.008687,其他,公园,晚上,6.3
2024-08-05,陈庄公园,117.917705,37.008687,其他,公园,深夜,6.02
2024-08-05,颜神古镇,117.869314,36.471163,其他,旅游景点,凌晨,3.51
2024-08-05,颜神古镇,117.869314,36.471163,其他,旅游景点,下午,6.65
2024-08-05,博山区博山镇中心卫生院,117.963515,36.382327,其他,医院,凌晨,3.81
2024-08-05,博山区博山镇中心卫生院,117.963515,36.382327,其他,医院,傍晚,4.05
2024-08-05,金惠丽百货,118.065748,37.06301,其他,商场,晚上,3.76
2024-08-05,金惠丽百货,118.065748,37.06301,其他,商场,凌晨,3.68
2024-08-05,淄川经济开发区西山联校,117.926897,36.649915,其他,学校,上午,5.47
2024-08-05,山东省淄博第十七中学,118.035689,36.810219,其他,学校,深夜,2.17
2024-08-05,山东省淄博第十七中学,118.035689,36.810219,其他,学校,上午,7.3
2024-08-05,响袋24h无人自助台球(吾悦广场店),118.023236,36.784281,其他,体育场馆,深夜,5.37
2024-08-05,牛山郊野公园,118.351994,36.781567,其他,公园,晚上,3.74
2024-08-05,牛山郊野公园,118.351994,36.781567,其他,公园,中午,6.57
2024-08-05,周村区第二中学,117.859542,36.803863,其他,学校,深夜,2.5
2024-08-05,朱台中心卫生院,118.257061,36.940575,其他,医院,下午,5.84
2024-08-05,山东新华制药股份有限公司职工培训中心技工学校,118.063076,36.794698,其他,学校,晚上,4.93
2024-08-05,山东新华制药股份有限公司职工培训中心技工学校,118.063076,36.794698,其他,学校,中午,6.97
2024-08-05,淄川体育公园东区,117.978905,36.629127,其他,公园,深夜,5.76
2024-08-06,九顶莲花山弥陀寺,118.377441,36.004485,其他,旅游景点,傍晚,6.24
2024-08-06,广凯久久鸭脖王,118.103084,36.960928,其他,餐饮,下午,4.32
2024-08-06,高青县中心路小学,117.835773,37.157631,其他,学校,傍晚,6.22
2024-08-06,高青县中心路小学,117.835773,37.157631,其他,学校,晚上,5.81
2024-08-06,朱台中心卫生院,118.257061,36.940575,其他,医院,下午,5.72
2024-08-06,山铝植物园,118.04532,36.754336,其他,公园,凌晨,5.38
2024-08-06,山铝植物园,118.04532,36.754336,其他,公园,下午,5.62
2024-08-06,凯瑞小学,118.014388,36.810389,其他,学校,晚上,7.07
2024-08-06,张店区中医院康复楼,118.052783,36.800109,其他,医院,下午,7.7
2024-08-06,张店区中医院康复楼,118.052783,36.800109,其他,医院,中午,5.66
2024-08-06,北岭古窑,117.867789,36.494568,其他,旅游景点,下午,6.35
2024-08-06,山东省淄博第六中学(总校区),117.826289,36.799133,其他,学校,深夜,5.24
2024-08-06,奎樱古寺,117.908429,36.553642,其他,旅游景点,下午,4.13
2024-08-06,奎樱古寺,117.908429,36.553642,其他,旅游景点,上午,5.9
2024-08-06,周村城北中学,117.861555,36.842978,其他,学校,中午,5.35
2024-08-06,沐浴阳光.俊辰百货高青店,117.662007,37.103489,其他,商场,上午,5.9
2024-08-06,淄博理工学校,117.984673,36.645065,其他,学校,深夜,4.74
2024-08-06,淄博理工学校,117.984673,36.645065,其他,学校,中午,4.51
2024-08-06,淄建集团医院,118.064021,36.801248,其他,医院,凌晨,2.41
2024-08-06,傅家镇黄家小学,118.006121,36.736265,其他,学校,中午,7.77
2024-08-06,傅家镇黄家小学,118.006121,36.736265,其他,学校,晚上,5.22
2024-08-06,英豪东方明珠大酒店,118.076972,36.816286,其他,餐饮,晚上,6.77
2024-08-06,淄博公园,117.977602,36.785251,其他,公园,凌晨,3.65
2024-08-06,正宗苗山炒鸡,117.834617,36.514924,其他,餐饮,凌晨,4.41
2024-08-06,正宗苗山炒鸡,117.834617,36.514924,其他,餐饮,上午,5.34
2024-08-06,圣洋游泳(淄博恒大翡翠华庭店),118.039832,36.848593,其他,体育场馆,傍晚,6.9
2024-08-06,圣洋游泳(淄博恒大翡翠华庭店),118.039832,36.848593,其他,体育场馆,中午,5.3
2024-08-06,临淄人民广场,118.308885,36.824891,其他,公园,晚上,3.6
2024-08-06,临淄人民广场,118.308885,36.824891,其他,公园,深夜,3.57
2024-08-06,铁锅砖家·正宗东北铁锅炖(名士豪庭店),118.053772,36.85251,其他,餐饮,中午,5.4
2024-08-06,铁锅砖家·正宗东北铁锅炖(名士豪庭店),118.053772,36.85251,其他,餐饮,下午,6.03
2024-08-06,希尔顿国际广场(建设中),117.869006,36.821829,其他,公园,凌晨,3.0
2024-08-06,希尔顿国际广场(建设中),117.869006,36.821829,其他,公园,中午,4.73
2024-08-06,淄博高新华庚医院,118.06279,36.843618,其他,医院,上午,4.92
2024-08-06,淄博高新华庚医院,118.06279,36.843618,其他,医院,中午,4.03
2024-08-06,幸运咖(周村店),117.852673,36.80738,其他,餐饮,晚上,5.36
2024-08-06,幸运咖(周村店),117.852673,36.80738,其他,餐饮,傍晚,6.04
2024-08-06,小维度奶茶店,117.852553,36.800011,其他,餐饮,傍晚,7.11
2024-08-06,金百盛商场,117.854008,36.794975,其他,商场,凌晨,4.85
2024-08-06,金百盛商场,117.854008,36.794975,其他,商场,下午,5.41
2024-08-06,人民公社湘菜馆(联通路),118.045252,36.827996,其他,餐饮,下午,7.55
2024-08-06,沂源县人民医院新院区,118.202406,36.210612,其他,医院,下午,5.37
2024-08-06,沂源县人民医院新院区,118.202406,36.210612,其他,医院,深夜,5.18
2024-08-06,西山公园,117.990818,36.634296,其他,公园,深夜,5.85
2024-08-06,山东淄博鲁才高级中学,117.753424,37.13738,其他,学校,下午,4.42
2024-08-06,山东淄博鲁才高级中学,117.753424,37.13738,其他,学校,上午,6.23
2024-08-06,山铝西山社区卫生服务站,118.037141,36.752962,其他,医院,傍晚,7.21
2024-08-06,万杰朝阳学校,117.852329,36.544411,其他,学校,上午,8.32
2024-08-06,法兰度西餐厅(天齐东路店),118.331778,36.814367,其他,餐饮,晚上,5.64
2024-08-06,临淄齐国故城考古遗址公园,118.344057,36.890173,其他,公园,上午,6.32
2024-08-06,平价商城,117.981678,37.049655,其他,商场,晚上,5.33
2024-08-06,山铝游泳馆,118.042806,36.754588,其他,体育场馆,下午,6.26
2024-08-06,山铝游泳馆,118.042806,36.754588,其他,体育场馆,凌晨,3.47
2024-08-06,盛世·璟点台球,118.031094,36.798846,其他,体育场馆,凌晨,2.8
2024-08-06,盛世·璟点台球,118.031094,36.798846,其他,体育场馆,下午,5.19
2024-08-06,淄博震中中医院,118.032777,36.755912,其他,医院,下午,6.44
2024-08-06,顺河羊肉馆,118.226861,36.20498,其他,餐饮,中午,5.76
2024-08-06,沂源牛郎织女景区,118.260858,36.109421,其他,旅游景点,下午,5.48
2024-08-06,沂源牛郎织女景区,118.260858,36.109421,其他,旅游景点,中午,5.5
2024-08-06,罗村中学,118.073269,36.679739,其他,学校,深夜,4.15
2024-08-06,罗村中学,118.073269,36.679739,其他,学校,凌晨,4.29
2024-08-06,进无止境台球俱乐部,117.99665,36.7996,其他,体育场馆,上午,6.55
2024-08-06,动力100游泳健身会所(银泰城店),118.036422,36.848499,其他,体育场馆,傍晚,5.09
2024-08-06,淄博市烧烤博物馆,118.045243,36.829379,其他,文化场馆,中午,7.05
2024-08-06,淄博市烧烤博物馆,118.045243,36.829379,其他,文化场馆,下午,4.46
2024-08-06,栖真观,118.013277,36.138917,其他,旅游景点,深夜,5.0
2024-08-06,栖真观,118.013277,36.138917,其他,旅游景点,凌晨,3.4
2024-08-06,天后台球,118.052038,36.803252,其他,体育场馆,傍晚,6.33
2024-08-06,锤子女子健身,117.991131,36.847568,其他,体育场馆,凌晨,3.94
2024-08-06,锤子女子健身,117.991131,36.847568,其他,体育场馆,中午,5.39
2024-08-06,黄河楼博物馆,117.889672,37.259592,其他,文化场馆,中午,6.01
2024-08-06,黄河楼博物馆,117.889672,37.259592,其他,文化场馆,下午,3.59
2024-08-06,淄博一四八医院门诊部,117.8529,36.793864,其他,医院,上午,4.81
2024-08-06,大眼妹上海生煎(理工大学店),118.02043,36.812692,其他,餐饮,上午,4.45
2024-08-06,大眼妹上海生煎(理工大学店),118.02043,36.812692,其他,餐饮,中午,6.23
2024-08-06,桓台县陈庄中学,117.916557,37.008159,其他,学校,深夜,4.34
2024-08-06,桓台县陈庄中学,117.916557,37.008159,其他,学校,下午,6.48
2024-08-06,磁村中学,117.83889,36.62076,其他,学校,晚上,5.11
2024-08-06,钱记小院,117.854785,36.48077,其他,餐饮,上午,6.26
2024-08-06,钱记小院,117.854785,36.48077,其他,餐饮,晚上,3.71
2024-08-06,稷山,118.334976,36.769201,其他,旅游景点,晚上,5.31
2024-08-06,周村区王村中学,117.738521,36.684451,其他,学校,中午,6.77
2024-08-06,周村区王村中学,117.738521,36.684451,其他,学校,下午,7.94
2024-08-06,凤凰山广场,117.832022,36.741644,其他,公园,深夜,3.98
2024-08-06,凤凰山广场,117.832022,36.741644,其他,公园,晚上,5.14
2024-08-06,山东省博山电力技工学校,117.85858,36.478547,其他,学校,晚上,5.84
2024-08-06,博弈台球俱乐部天玺淄博旗舰店,118.032176,36.810442,其他,体育场馆,下午,5.5
2024-08-06,博弈台球俱乐部天玺淄博旗舰店,118.032176,36.810442,其他,体育场馆,傍晚,5.6
2024-08-06,董家灵泉公园,117.98105,36.694829,其他,公园,傍晚,3.61
2024-08-06,特色芝香鱼(钟楼店),117.955238,36.667834,其他,餐饮,晚上,4.62
2024-08-06,特色芝香鱼(钟楼店),117.955238,36.667834,其他,餐饮,中午,6.79
2024-08-06,以马内利,118.027782,36.763214,其他,旅游景点,中午,4.48
2024-08-06,博山区博山镇中心卫生院,117.963515,36.382327,其他,医院,中午,5.87
2024-08-06,邱氏瓜子干果老店(城里大街店),117.964129,36.646437,其他,餐饮,深夜,4.07
2024-08-06,邱氏瓜子干果老店(城里大街店),117.964129,36.646437,其他,餐饮,下午,3.65
2024-08-06,齐长城一线天,118.143592,36.43048,其他,旅游景点,上午,6.56
2024-08-06,齐长城一线天,118.143592,36.43048,其他,旅游景点,下午,5.31
2024-08-07,红莲湖公园,118.074569,36.934136,其他,公园,晚上,4.16
2024-08-07,红莲湖公园,118.074569,36.934136,其他,公园,傍晚,6.7
2024-08-07,野香蕉团课健身,118.078014,36.816783,其他,体育场馆,上午,6.03
2024-08-07,清真双盛馆,118.196175,36.805724,其他,餐饮,上午,4.85
2024-08-07,清真双盛馆,118.196175,36.805724,其他,餐饮,晚上,4.79
2024-08-07,留仙湖公园,117.957398,36.6373,其他,公园,凌晨,3.62
2024-08-07,留仙湖公园,117.957398,36.6373,其他,公园,上午,4.37
2024-08-07,新星商城,117.98305,36.665048,其他,商场,下午,5.85
2024-08-07,新星商城,117.98305,36.665048,其他,商场,上午,3.89
2024-08-07,进无止境台球俱乐部,117.99665,36.7996,其他,体育场馆,中午,5.52
2024-08-07,淄博市周村区第一中学(东校区),117.838026,36.791925,其他,学校,凌晨,3.06
2024-08-07,淄博市周村区第一中学(东校区),117.838026,36.791925,其他,学校,中午,3.7
2024-08-07,大海商场(欢乐城精品购物广场店),118.023098,36.824572,其他,商场,凌晨,4.78
2024-08-07,大海商场(欢乐城精品购物广场店),118.023098,36.824572,其他,商场,中午,6.24
2024-08-07,淄博高新区黉门文化艺术学校,118.052261,36.856862,其他,学校,凌晨,4.15
2024-08-07,淄博高新区黉门文化艺术学校,118.052261,36.856862,其他,学校,中午,4.16
2024-08-07,茂业百货(泰客荣店),118.302802,36.813754,其他,商场,晚上,5.41
2024-08-07,高青县第三中学,117.83598,37.195713,其他,学校,上午,6.32
2024-08-07,胜炼公园,118.259219,36.771678,其他,公园,下午,5.06
2024-08-07,风云台球俱乐部(汇美·弘域店),118.001339,36.816564,其他,体育场馆,凌晨,3.96
2024-08-07,风云台球俱乐部(汇美·弘域店),118.001339,36.816564,其他,体育场馆,傍晚,4.56
2024-08-07,知味鲜海鲜家常菜,118.024842,36.842491,其他,餐饮,傍晚,6.07
2024-08-07,知味鲜海鲜家常菜,118.024842,36.842491,其他,餐饮,晚上,5.16
2024-08-07,淄博张店东方双语学校,118.001771,36.799963,其他,学校,上午,7.63
2024-08-07,淄博张店东方双语学校,118.001771,36.799963,其他,学校,凌晨,3.01
2024-08-07,金山镇文体公园,118.244215,36.735747,其他,公园,中午,5.9
2024-08-07,南定小学,118.052121,36.741479,其他,学校,上午,5.57
2024-08-07,南定小学,118.052121,36.741479,其他,学校,傍晚,5.13
2024-08-07,焦裕禄广场,117.862695,36.493876,其他,公园,傍晚,5.87
2024-08-07,山东煤炭技术学院,117.985255,36.635242,其他,学校,晚上,4.52
2024-08-07,山东煤炭技术学院,117.985255,36.635242,其他,学校,傍晚,4.91
2024-08-07,峨庄国家森林公园,118.150576,36.503571,其他,公园,傍晚,4.17
2024-08-07,七夕广场,117.977751,36.789213,其他,公园,下午,8.22
2024-08-07,七夕广场,117.977751,36.789213,其他,公园,傍晚,7.51
2024-08-07,孝妇河骑行公园,118.003375,36.747467,其他,公园,深夜,5.01
2024-08-07,孝妇河骑行公园,118.003375,36.747467,其他,公园,下午,5.63
2024-08-07,二郎庙,118.054265,36.426773,其他,旅游景点,上午,6.84
2024-08-07,闯山东铁锅炖(天隆购物广场店),117.860416,36.503609,其他,餐饮,晚上,6.14
2024-08-07,闯山东铁锅炖(天隆购物广场店),117.860416,36.503609,其他,餐饮,凌晨,5.3
2024-08-07,张店区齐润小学,118.002303,36.81991,其他,学校,晚上,6.19
2024-08-07,六点水新世界,118.177816,36.196675,其他,公园,下午,4.99
2024-08-07,六点水新世界,118.177816,36.196675,其他,公园,傍晚,7.43
2024-08-07,正觉寺,117.898886,36.526624,其他,旅游景点,深夜,3.37
2024-08-07,正觉寺,117.898886,36.526624,其他,旅游景点,下午,6.53
2024-08-07,虾时代(沂源店),118.156895,36.185217,其他,餐饮,晚上,5.47
2024-08-07,淄博延强医院,117.944326,36.665657,其他,医院,凌晨,5.46
2024-08-07,淄博延强医院,117.944326,36.665657,其他,医院,晚上,5.61
2024-08-07,张店区体育馆,118.036155,36.796165,其他,体育场馆,傍晚,5.35
2024-08-07,磁村中学,117.83889,36.62076,其他,学校,傍晚,5.74
2024-08-07,磁村中学,117.83889,36.62076,其他,学校,深夜,5.91
2024-08-07,留仙湖公园-淄川健康主题公园,117.956814,36.634343,其他,公园,晚上,2.63
2024-08-07,留仙湖公园-淄川健康主题公园,117.956814,36.634343,其他,公园,中午,4.7
2024-08-07,汇泉桃花岛,117.933869,36.117701,其他,旅游景点,上午,7.22
2024-08-07,开元溶洞,118.040406,36.40641,其他,旅游景点,傍晚,6.8
2024-08-07,淄博公园,117.977602,36.785251,其他,公园,下午,5.8
2024-08-07,沂源牛郎织女景区-织女洞森林公园,118.261632,36.10731,其他,公园,中午,3.94
2024-08-07,太公植物园,118.36359,36.811137,其他,公园,下午,5.35
2024-08-07,新印马酒店,118.316041,36.82053,其他,餐饮,下午,7.21
2024-08-07,新印马酒店,118.316041,36.82053,其他,餐饮,深夜,4.46
2024-08-07,金沙游泳健身(万象汇店),118.060989,36.803223,其他,体育场馆,傍晚,4.84
2024-08-07,老潍县菜馆(颐和花园店),118.066589,36.832173,其他,餐饮,深夜,5.44
2024-08-07,张店区科苑街道科技苑社区卫生服务站,118.051755,36.833748,其他,医院,下午,7.25
2024-08-07,临淄青年学生抗日志愿军训团纪念碑,118.343774,36.856906,其他,旅游景点,晚上,4.63
2024-08-07,临淄青年学生抗日志愿军训团纪念碑,118.343774,36.856906,其他,旅游景点,深夜,4.33
2024-08-07,淄博高新区文体公园,118.07024,36.840741,其他,公园,深夜,2.5
2024-08-07,傅家实验小学,118.000548,36.768742,其他,学校,下午,6.21
2024-08-07,淄博职业技术大学东校区,117.93429,36.83009,其他,文化场馆,傍晚,7.38
2024-08-07,淄博职业技术大学东校区,117.93429,36.83009,其他,文化场馆,上午,5.11
2024-08-07,沂源县三岔卫生院,118.26324,36.32587,其他,医院,深夜,6.06
2024-08-07,酷玩猩球(吾悦广场店),117.866325,36.822625,其他,体育场馆,中午,3.84
2024-08-07,淄博一四八医院,117.852864,36.793363,其他,医院,晚上,4.49
2024-08-07,淄博一四八医院,117.852864,36.793363,其他,医院,傍晚,7.17
2024-08-07,齐盛湖公园北门办公区,117.988034,36.844019,其他,公园,晚上,5.74
2024-08-07,淄江社区卫生服务中心,118.335599,36.814881,其他,医院,上午,5.54
2024-08-07,德润医院,117.884854,36.555597,其他,医院,下午,6.22
2024-08-07,德润医院,117.884854,36.555597,其他,医院,凌晨,2.95
2024-08-07,铝城购物中心,118.045266,36.753116,其他,商场,上午,6.18
2024-08-07,马桥植物园,117.917271,37.035436,其他,公园,晚上,6.2
2024-08-07,马桥植物园,117.917271,37.035436,其他,公园,傍晚,6.01
2024-08-07,万海格斗,118.060994,36.807167,其他,体育场馆,傍晚,6.37
2024-08-07,万海格斗,118.060994,36.807167,其他,体育场馆,深夜,3.11
2024-08-08,淄博北站北广场,118.026254,36.898065,其他,公园,深夜,3.76
2024-08-08,淄博北站北广场,118.026254,36.898065,其他,公园,傍晚,6.7
2024-08-08,银泰·金街,118.034913,36.84867,其他,商场,傍晚,6.53
2024-08-08,淄博理工学校,117.984673,36.645065,其他,学校,深夜,4.63
2024-08-08,淄博理工学校,117.984673,36.645065,其他,学校,晚上,5.85
2024-08-08,淄博恒太城(装修中),117.982957,36.823315,其他,商场,中午,5.21
2024-08-08,壹加壹台球网咖(商业步行街店),118.041919,36.807328,其他,体育场馆,下午,4.82
2024-08-08,周村圣母堂慈母宫,117.860967,36.751287,其他,旅游景点,晚上,5.89
2024-08-08,周村圣母堂慈母宫,117.860967,36.751287,其他,旅游景点,中午,5.07
2024-08-08,蒲松龄纪念馆,118.011484,36.630581,其他,旅游景点,下午,6.29
2024-08-08,蒲松龄纪念馆,118.011484,36.630581,其他,旅游景点,傍晚,5.5
2024-08-08,鲁泰文苑动物园,117.99668,36.64233,其他,公园,上午,7.37
2024-08-08,鲁泰文苑动物园,117.99668,36.64233,其他,公园,傍晚,5.86
2024-08-08,炉神庙,117.858293,36.497091,其他,旅游景点,下午,6.47
2024-08-08,高新区四宝山卫生院,118.099801,36.821775,其他,医院,深夜,4.98
2024-08-08,贵都商城,118.164154,36.186187,其他,商场,凌晨,4.86
2024-08-08,贵都商城,118.164154,36.186187,其他,商场,下午,7.75
2024-08-08,方和茂,118.300029,36.81432,其他,商场,上午,7.6
2024-08-08,方和茂,118.300029,36.81432,其他,商场,凌晨,4.2
2024-08-08,淄博化建医院,118.233028,36.735297,其他,医院,深夜,4.78
2024-08-08,淄博世茂广场,117.98579,36.820734,其他,商场,中午,6.07
2024-08-08,淄博世茂广场,117.98579,36.820734,其他,商场,凌晨,1.89
2024-08-08,桓台县周家中学,117.982346,36.905885,其他,学校,凌晨,3.84
2024-08-08,桓台县周家中学,117.982346,36.905885,其他,学校,下午,4.95
2024-08-08,三玉炒鸡,118.075633,36.873203,其他,餐饮,下午,6.02
2024-08-08,三玉炒鸡,118.075633,36.873203,其他,餐饮,傍晚,5.47
2024-08-08,银座商城(人民店),117.860457,36.504428,其他,商场,晚上,5.93
2024-08-08,淄博商厦(博山店),117.857579,36.511671,其他,商场,傍晚,6.52
2024-08-08,淄川体育公园东区,117.978905,36.629127,其他,公园,上午,7.02
2024-08-08,淄川体育公园东区,117.978905,36.629127,其他,公园,下午,7.13
2024-08-08,天隆购物广场,117.86096,36.503301,其他,商场,傍晚,7.27
2024-08-08,鸿祥名品商厦,117.850395,36.79784,其他,商场,中午,7.25
2024-08-08,陈庄.唐口西周遗址博物馆,117.802213,37.07272,其他,文化场馆,傍晚,6.35
2024-08-08,矾沟肉油饼,117.863953,36.476117,其他,餐饮,上午,6.01
2024-08-08,山铝游泳馆,118.042806,36.754588,其他,体育场馆,深夜,4.94
2024-08-08,山铝游泳馆,118.042806,36.754588,其他,体育场馆,上午,5.55
2024-08-08,山东省桓台第二中学,118.07255,36.952882,其他,学校,下午,5.23
2024-08-08,淄博陶瓷琉璃博物馆,117.9868,36.827607,其他,文化场馆,凌晨,3.9
2024-08-08,淄博陶瓷琉璃博物馆,117.9868,36.827607,其他,文化场馆,晚上,5.03
2024-08-08,商家公园,118.097382,36.784934,其他,公园,上午,6.35
2024-08-08,商家公园,118.097382,36.784934,其他,公园,深夜,6.02
2024-08-08,淄博文姜大酒店,117.857909,36.48168,其他,餐饮,中午,5.14
2024-08-08,淄博文姜大酒店,117.857909,36.48168,其他,餐饮,深夜,4.29
2024-08-08,懋隆大酒店,117.872949,36.471324,其他,餐饮,晚上,4.63
2024-08-08,懋隆大酒店,117.872949,36.471324,其他,餐饮,下午,7.46
2024-08-08,张店区第九中学,118.022021,36.815689,其他,学校,傍晚,7.09
2024-08-08,张店区第九中学,118.022021,36.815689,其他,学校,中午,4.55
2024-08-08,北关小学,117.968487,36.650962,其他,学校,凌晨,3.48
2024-08-08,北关小学,117.968487,36.650962,其他,学校,下午,4.74
2024-08-08,磁村中学,117.83889,36.62076,其他,学校,傍晚,4.89
2024-08-08,泰客荣店(茂业百货泰客荣店),118.302933,36.813445,其他,商场,傍晚,6.19
2024-08-08,泰客荣店(茂业百货泰客荣店),118.302933,36.813445,其他,商场,凌晨,5.56
2024-08-08,唐山医院,118.046553,36.958095,其他,医院,凌晨,2.87
2024-08-08,唐山医院,118.046553,36.958095,其他,医院,傍晚,8.06
2024-08-08,文化广场,118.232387,35.998889,其他,公园,深夜,6.06
2024-08-08,文化广场,118.232387,35.998889,其他,公园,下午,5.32
2024-08-08,双龙池食品店,117.876685,36.506296,其他,餐饮,上午,4.51
2024-08-08,正宗苗山炒鸡,117.834617,36.514924,其他,餐饮,下午,6.54
2024-08-08,乐享星牌台球,118.056996,36.801438,其他,体育场馆,晚上,5.44
2024-08-08,乐享星牌台球,118.056996,36.801438,其他,体育场馆,下午,7.54
2024-08-08,仁缘博山菜(青龙山路店),117.872268,36.505538,其他,餐饮,上午,6.71
2024-08-08,天主教堂,118.020124,36.78171,其他,旅游景点,深夜,3.98
2024-08-08,萌水中学,117.910734,36.726563,其他,学校,凌晨,2.62
2024-08-08,萌水中学,117.910734,36.726563,其他,学校,傍晚,5.07
2024-08-08,淄川区西河中心卫生院,117.942726,36.502452,其他,医院,傍晚,7.4
2024-08-08,淄川区西河中心卫生院,117.942726,36.502452,其他,医院,下午,3.9
2024-08-08,文体公园,118.080968,36.945162,其他,公园,中午,4.27
2024-08-08,天后台球,118.052038,36.803252,其他,体育场馆,深夜,4.12
2024-08-08,天后台球,118.052038,36.803252,其他,体育场馆,傍晚,8.01
2024-08-08,淄川区实验小学南校区,117.964219,36.625985,其他,学校,上午,6.64
2024-08-08,嗨8台球俱乐部,118.010268,36.829087,其他,体育场馆,深夜,5.38
2024-08-08,沂河源省级湿地公园,118.150174,36.196341,其他,公园,中午,6.42
2024-08-08,沂河源省级湿地公园,118.150174,36.196341,其他,公园,下午,4.6
2024-08-08,金惠丽百货,118.065748,37.06301,其他,商场,下午,5.25
2024-08-08,金惠丽百货,118.065748,37.06301,其他,商场,凌晨,4.14
2024-08-08,民族园,117.846969,36.816491,其他,公园,晚上,5.87
2024-08-08,桓台夏庄昭亮医院,118.119908,37.061022,其他,医院,上午,5.58
2024-08-08,桓台夏庄昭亮医院,118.119908,37.061022,其他,医院,深夜,3.91
2024-08-08,信誉楼百货(桓台店),118.09803,36.94643,其他,商场,上午,7.0
2024-08-08,东泰商厦(大顺路店),118.295805,36.816877,其他,商场,下午,7.83
2024-08-08,东泰商厦(大顺路店),118.295805,36.816877,其他,商场,深夜,4.68
2024-08-09,乔氏桌球(晏婴路店),118.311476,36.819986,其他,体育场馆,晚上,4.79
2024-08-09,淄博高新区第一小学,118.070519,36.844717,其他,学校,傍晚,5.28
2024-08-09,淄博高新区第一小学,118.070519,36.844717,其他,学校,深夜,3.58
2024-08-09,抡8台球俱乐部,118.10774,36.962169,其他,体育场馆,凌晨,4.74
2024-08-09,抡8台球俱乐部,118.10774,36.962169,其他,体育场馆,傍晚,5.88
2024-08-09,桓台县鱼龙中学,118.101559,37.0654,其他,学校,中午,5.37
2024-08-09,经开区可奕羽毛球馆,118.089133,36.757848,其他,体育场馆,傍晚,6.09
2024-08-09,晏婴小学,118.28193,36.819943,其他,学校,深夜,4.44
2024-08-09,晏婴小学,118.28193,36.819943,其他,学校,中午,6.13
2024-08-09,由熙(尚美店),118.037704,36.810171,其他,餐饮,上午,7.33
2024-08-09,由熙(尚美店),118.037704,36.810171,其他,餐饮,凌晨,5.3
2024-08-09,青炉里青花椒烤鱼(义乌店),118.018645,36.824361,其他,餐饮,上午,5.8
2024-08-09,淄博高新技术产业开发区卫固中心卫生院,118.144756,36.867151,其他,医院,凌晨,5.78
2024-08-09,淄博高新技术产业开发区卫固中心卫生院,118.144756,36.867151,其他,医院,中午,4.51
2024-08-09,淄博齐盛高级中学,117.976779,36.852334,其他,学校,凌晨,4.51
2024-08-09,高新区四宝山卫生院,118.099801,36.821775,其他,医院,中午,5.58
2024-08-09,高新区四宝山卫生院,118.099801,36.821775,其他,医院,深夜,3.31
2024-08-09,雪宫小学,118.303573,36.818514,其他,学校,晚上,2.91
2024-08-09,中威中医院,117.949276,36.645747,其他,医院,下午,6.56
2024-08-09,中威中医院,117.949276,36.645747,其他,医院,中午,6.64
2024-08-09,山东煤炭技术学院,117.985255,36.635242,其他,学校,晚上,5.55
2024-08-09,山东煤炭技术学院,117.985255,36.635242,其他,学校,中午,6.19
2024-08-09,淄博陶瓷琉璃博物馆,117.9868,36.827607,其他,文化场馆,中午,5.85
2024-08-09,齐长城一线天,118.143592,36.43048,其他,旅游景点,深夜,5.06
2024-08-09,齐长城一线天,118.143592,36.43048,其他,旅游景点,晚上,6.32
2024-08-09,三台山旅游风景区,117.87812,36.606249,其他,旅游景点,深夜,6.31
2024-08-09,三台山旅游风景区,117.87812,36.606249,其他,旅游景点,晚上,4.0
2024-08-09,野香蕉团课健身,118.078014,36.816783,其他,体育场馆,中午,4.36
2024-08-09,野香蕉团课健身,118.078014,36.816783,其他,体育场馆,上午,4.61
2024-08-09,花山公园,118.11949,36.824708,其他,旅游景点,下午,5.57
2024-08-09,花山公园,118.11949,36.824708,其他,旅游景点,上午,6.37
2024-08-09,利群购物中心(桓公路店),118.301688,36.81396,其他,商场,深夜,3.23
2024-08-09,利群购物中心(桓公路店),118.301688,36.81396,其他,商场,傍晚,4.77
2024-08-09,桥下公园,117.968623,36.851769,其他,公园,中午,6.48
2024-08-09,桥下公园,117.968623,36.851769,其他,公园,下午,7.41
2024-08-09,法治文化公园,118.07064,36.884022,其他,公园,晚上,5.01
2024-08-09,重庆饭店(华光路店),118.058445,36.819347,其他,餐饮,上午,6.96
2024-08-09,牛郎织女景区织女洞,118.260789,36.103057,其他,旅游景点,下午,6.06
2024-08-09,牛郎织女景区织女洞,118.260789,36.103057,其他,旅游景点,凌晨,5.87
2024-08-09,华光国瓷文化艺术中心,118.04781,36.848143,其他,旅游景点,晚上,5.31
2024-08-09,华光国瓷文化艺术中心,118.04781,36.848143,其他,旅游景点,上午,6.27
2024-08-09,荣德医院,118.102162,36.848838,其他,医院,中午,6.47
2024-08-09,荣德医院,118.102162,36.848838,其他,医院,傍晚,5.34
2024-08-09,新艺苑精品地下城,118.302367,36.812951,其他,商场,晚上,4.97
2024-08-09,新艺苑精品地下城,118.302367,36.812951,其他,商场,深夜,2.95
2024-08-09,小面侠(雪宫路店),118.303634,36.815928,其他,餐饮,中午,5.18
2024-08-09,小面侠(雪宫路店),118.303634,36.815928,其他,餐饮,晚上,4.37
2024-08-09,K+桌球俱乐部(淄博鑫马吾悦广场店),118.003242,36.825405,其他,体育场馆,傍晚,6.36
2024-08-09,K+桌球俱乐部(淄博鑫马吾悦广场店),118.003242,36.825405,其他,体育场馆,凌晨,4.06
2024-08-09,淄博职业技术大学北校区,117.932961,36.836518,其他,学校,下午,7.78
2024-08-09,淄博职业技术大学北校区,117.932961,36.836518,其他,学校,凌晨,4.04
2024-08-09,淄博终结者台球俱乐部(旗舰店),118.018569,36.82364,其他,体育场馆,晚上,5.99
2024-08-09,淄博终结者台球俱乐部(旗舰店),118.018569,36.82364,其他,体育场馆,中午,4.72
2024-08-09,王母祠,118.003392,36.707352,其他,旅游景点,中午,5.31
2024-08-09,翊炀羽毛球馆,117.933706,36.811639,其他,体育场馆,深夜,2.99
2024-08-09,淄博光正公司医院,117.947288,36.6059,其他,医院,傍晚,6.39
2024-08-09,周村区第二中学,117.859542,36.803863,其他,学校,中午,4.42
2024-08-09,秀水地下商城(振华商厦店),118.055741,36.80212,其他,商场,中午,5.51
2024-08-09,秀水地下商城(振华商厦店),118.055741,36.80212,其他,商场,下午,6.4
2024-08-09,翕善堂博山菜(金桥商务中心店),118.073342,36.817548,其他,餐饮,傍晚,6.93
2024-08-09,翕善堂博山菜(金桥商务中心店),118.073342,36.817548,其他,餐饮,晚上,4.67
2024-08-09,刘煜拳击馆,117.987399,36.814711,其他,体育场馆,中午,7.5
2024-08-09,山东淄博鲁才高级中学,117.753424,37.13738,其他,学校,上午,4.35
2024-08-09,淄博张店东方双语学校,118.001771,36.799963,其他,学校,深夜,6.09
2024-08-09,淄博张店东方双语学校,118.001771,36.799963,其他,学校,下午,6.29
2024-08-09,淄博市周村夏源商贸有限公司,117.85205,36.798008,其他,商场,上午,6.09
2024-08-09,淄博市周村夏源商贸有限公司,117.85205,36.798008,其他,商场,深夜,2.9
2024-08-09,焦裕禄广场,117.862695,36.493876,其他,公园,晚上,3.36
2024-08-09,张店区体育馆广场,118.036343,36.797352,其他,公园,傍晚,4.75
2024-08-09,张店区体育馆广场,118.036343,36.797352,其他,公园,深夜,5.04
2024-08-09,山东省淄博第六中学(总校区),117.826289,36.799133,其他,学校,上午,7.19
2024-08-09,山东省淄博第六中学(总校区),117.826289,36.799133,其他,学校,晚上,2.97
2024-08-09,北大医疗淄博医院,118.041309,36.755311,其他,医院,下午,5.41
2024-08-09,北大医疗淄博医院,118.041309,36.755311,其他,医院,上午,6.44
2024-08-09,V8乔氏台球,118.042351,36.815814,其他,体育场馆,深夜,5.06
2024-08-09,V8乔氏台球,118.042351,36.815814,其他,体育场馆,上午,4.58
2024-08-09,萌山公园,117.894094,36.713084,其他,公园,中午,6.81
2024-08-09,萌山公园,117.894094,36.713084,其他,公园,凌晨,6.23
2024-08-09,裕翔球馆,118.041251,36.84489,其他,体育场馆,上午,7.62
2024-08-09,裕翔球馆,118.041251,36.84489,其他,体育场馆,中午,7.45
2024-08-09,中国琉璃艺术殿堂,117.853656,36.488408,其他,旅游景点,深夜,4.14
2024-08-09,淄博市妇幼保健院东院区,118.060376,36.790092,其他,医院,上午,6.35
2024-08-09,孙泽涛辣豆腐(和平社区店),118.037766,36.799699,其他,餐饮,傍晚,6.59
2024-08-09,金茵小学,118.318705,36.827676,其他,学校,中午,5.02
2024-08-09,临淄区闻韶银山百货商场(方正2009小区店),118.331701,36.817583,其他,商场,中午,5.25
2024-08-09,临淄区闻韶银山百货商场(方正2009小区店),118.331701,36.817583,其他,商场,凌晨,5.54
2024-08-09,山东省高青一中,117.849096,37.174481,其他,学校,晚上,3.95
2024-08-09,山东省高青一中,117.849096,37.174481,其他,学校,中午,4.12
2024-08-09,南定小学,118.052121,36.741479,其他,学校,凌晨,5.1
2024-08-09,临淄区淄江中学,118.345542,36.812707,其他,学校,凌晨,3.73
2024-08-09,临淄区淄江中学,118.345542,36.812707,其他,学校,下午,7.15
2024-08-09,樵岭前风景区-博山溶洞,117.827216,36.447454,其他,旅游景点,傍晚,4.4
2024-08-09,樵岭前风景区-博山溶洞,117.827216,36.447454,其他,旅游景点,凌晨,4.48
2024-08-09,沈家村哪吒墙画,117.847973,36.855279,其他,旅游景点,下午,7.33
2024-08-09,淄博职业技术大学,117.932027,36.83381,其他,学校,晚上,4.55
2024-08-09,淄博职业技术大学,117.932027,36.83381,其他,学校,中午,3.31
2024-08-09,淄博张店圣诺医院,118.042855,36.813897,其他,医院,晚上,4.57
2024-08-09,淄博高新区华侨城小学,118.035677,36.839421,其他,学校,下午,6.83
2024-08-09,周村区人民医院,117.869467,36.820009,其他,医院,深夜,4.6
2024-08-09,金色之韵量贩KTV(龙御大厦店),118.024504,36.821458,其他,餐饮,晚上,6.0
2024-08-09,金色之韵量贩KTV(龙御大厦店),118.024504,36.821458,其他,餐饮,深夜,5.82
2024-08-09,大张商贸城,118.225645,36.823116,其他,商场,晚上,5.66
2024-08-09,以马内利,118.027782,36.763214,其他,旅游景点,深夜,3.16
2024-08-09,以马内利,118.027782,36.763214,其他,旅游景点,下午,6.75
2024-08-09,淄博新区水系公园,117.989777,36.820477,其他,旅游景点,下午,7.66
2024-08-09,淄博新区水系公园,117.989777,36.820477,其他,旅游景点,傍晚,6.12
2024-08-09,淄博市市级机关医院世纪花园门诊部,118.02004,36.834122,其他,医院,凌晨,6.09
2024-08-09,淄博市市级机关医院世纪花园门诊部,118.02004,36.834122,其他,医院,中午,6.01
2024-08-09,碧霞元君行宫,117.969073,36.608908,其他,旅游景点,深夜,3.19
2024-08-09,博山人民公园,117.855,36.496169,其他,公园,凌晨,4.3
2024-08-09,富源商城,118.19445,36.189208,其他,商场,下午,7.6
2024-08-09,临淄区人民医院门诊部,118.306519,36.813212,其他,医院,凌晨,5.72
2024-08-09,淄博市第一医院总院,117.86452,36.490278,其他,医院,深夜,5.65
2024-08-09,颜神古镇,117.869314,36.471163,其他,旅游景点,深夜,5.27
2024-08-09,蒲松龄纪念馆,118.011484,36.630581,其他,旅游景点,凌晨,4.25
2024-08-09,蒲松龄纪念馆,118.011484,36.630581,其他,旅游景点,晚上,5.68
2024-08-09,梁荣贵台球俱乐部锐胜旗舰店(齐纳店),118.331847,36.813853,其他,体育场馆,中午,6.46
2024-08-09,拿铁计划健身馆,117.928208,36.835469,其他,体育场馆,中午,4.45
2024-08-09,拿铁计划健身馆,117.928208,36.835469,其他,体育场馆,深夜,2.85
2024-08-09,高青县第五中学,117.881124,37.151187,其他,学校,深夜,5.6
2024-08-09,高青县第五中学,117.881124,37.151187,其他,学校,晚上,5.81
2024-08-09,铝城购物中心,118.045266,36.753116,其他,商场,晚上,5.78
2024-08-10,和谐广场,117.879887,36.65397,其他,公园,深夜,6.29
2024-08-10,和谐广场,117.879887,36.65397,其他,公园,上午,5.18
2024-08-10,黑旺卫生院,118.147953,36.626963,其他,医院,深夜,6.36
2024-08-10,黑旺卫生院,118.147953,36.626963,其他,医院,下午,7.04
2024-08-10,淄博田敏乒乓球俱乐部,118.061296,36.820468,其他,体育场馆,深夜,4.44
2024-08-10,周村区正阳路小学,117.863684,36.819077,其他,学校,上午,6.35
2024-08-10,高青县第九小时健身俱乐部(银座商城店),117.840109,37.164844,其他,体育场馆,凌晨,4.58
2024-08-10,高青县花沟中心卫生院,117.758184,37.137115,其他,医院,深夜,4.07
2024-08-10,TK彤德捞时尚火锅(星河街店),117.989331,36.799807,其他,餐饮,上午,6.06
2024-08-10,TK彤德捞时尚火锅(星河街店),117.989331,36.799807,其他,餐饮,下午,7.55
2024-08-10,湖田医院-湖田卫生院,118.11723,36.790515,其他,医院,晚上,5.0
2024-08-10,湖田医院-湖田卫生院,118.11723,36.790515,其他,医院,傍晚,5.64
2024-08-10,淄博市张店区科苑小学,118.044838,36.819571,其他,学校,上午,4.52
2024-08-10,胜利山九九乐园,118.177256,36.18827,其他,公园,凌晨,3.7
2024-08-10,正心跆拳道馆(人民西路店),118.020096,36.814181,其他,体育场馆,下午,5.44
2024-08-10,淄博博山鲁中中医院,117.846959,36.533807,其他,医院,傍晚,6.08
2024-08-10,淄博益宁医院,118.077476,36.816863,其他,医院,深夜,3.93
2024-08-10,旭阳灶台鱼,118.02153,36.765224,其他,餐饮,下午,4.22
2024-08-10,大理寺过桥米线麻辣烫(银泰城店),118.034457,36.850433,其他,餐饮,下午,5.9
2024-08-10,湘满天下(沿河西路店),118.152484,36.191022,其他,餐饮,深夜,3.96
2024-08-10,湘满天下(沿河西路店),118.152484,36.191022,其他,餐饮,下午,5.69
2024-08-10,公社炒鸡老菜馆(八大局店),118.075206,36.808527,其他,餐饮,下午,5.85
2024-08-10,美博·嘉汇文具,118.00206,36.804644,其他,文化场馆,深夜,3.94
2024-08-10,美博·嘉汇文具,118.00206,36.804644,其他,文化场馆,傍晚,7.19
2024-08-10,淄博北站北广场,118.026254,36.898065,其他,公园,下午,7.12
2024-08-10,淄博北站北广场,118.026254,36.898065,其他,公园,中午,6.28
2024-08-10,陈庄公园,117.917705,37.008687,其他,公园,凌晨,4.95
2024-08-10,东良进口商品(桓台店),118.093213,36.952988,其他,商场,下午,4.61
2024-08-10,张店区中医院,118.049972,36.800925,其他,医院,下午,4.58
2024-08-10,华严寺,117.980377,37.000746,其他,旅游景点,中午,5.75
2024-08-10,华严寺,117.980377,37.000746,其他,旅游景点,晚上,7.19
2024-08-10,柳泉湿地公园,117.949355,36.633584,其他,公园,深夜,6.5
2024-08-10,柳泉湿地公园,117.949355,36.633584,其他,公园,凌晨,2.37
2024-08-10,威灵格桌球(利民大厦店),118.043439,36.813846,其他,体育场馆,晚上,6.33
2024-08-10,威灵格桌球(利民大厦店),118.043439,36.813846,其他,体育场馆,中午,5.1
2024-08-10,鲁中商业博览城,118.222752,36.206168,其他,商场,傍晚,7.0
2024-08-10,动力100游泳健身(吾悦广场店),117.866817,36.823078,其他,体育场馆,下午,5.67
2024-08-10,博山人民公园,117.855,36.496169,其他,公园,下午,5.42
2024-08-10,临淄二中,118.304006,36.837102,其他,学校,傍晚,5.29
2024-08-10,临淄二中,118.304006,36.837102,其他,学校,下午,6.29
2024-08-10,秀水地下商城(振华商厦店),118.055741,36.80212,其他,商场,中午,7.0
2024-08-10,秀水地下商城(振华商厦店),118.055741,36.80212,其他,商场,凌晨,2.91
2024-08-10,素红水饺(淄博银都市场一条街店),118.077207,36.805544,其他,餐饮,凌晨,5.42
2024-08-10,淄建集团医院,118.064021,36.801248,其他,医院,凌晨,4.87
2024-08-10,淄建集团医院,118.064021,36.801248,其他,医院,深夜,6.05
2024-08-10,雪宫台,118.396235,36.896256,其他,旅游景点,下午,5.54
2024-08-10,雪宫台,118.396235,36.896256,其他,旅游景点,傍晚,4.45
2024-08-10,泽升游泳馆,117.96147,36.670221,其他,体育场馆,上午,6.57
2024-08-10,泽升游泳馆,117.96147,36.670221,其他,体育场馆,傍晚,5.9
2024-08-10,青年公园,118.040537,36.760851,其他,公园,下午,6.77
2024-08-10,青年公园,118.040537,36.760851,其他,公园,傍晚,7.31
2024-08-10,周村区第二中学,117.859542,36.803863,其他,学校,傍晚,5.63
2024-08-10,古茗(淄博实验中学店),118.005919,36.804433,其他,餐饮,中午,5.97
2024-08-10,古茗(淄博实验中学店),118.005919,36.804433,其他,餐饮,凌晨,5.41
2024-08-10,淄博师专,117.908464,36.66217,其他,学校,深夜,7.06
2024-08-10,淄博师专,117.908464,36.66217,其他,学校,上午,8.25
2024-08-10,一家亲海鲜酒店(王舍路店),118.013831,36.791466,其他,餐饮,中午,6.18
2024-08-10,亿客家购物广场,118.180858,36.200662,其他,商场,下午,6.75
2024-08-10,串说(淄博桓台县),118.057524,36.954619,其他,餐饮,傍晚,7.45
2024-08-10,串说(淄博桓台县),118.057524,36.954619,其他,餐饮,深夜,4.83
2024-08-10,第五季·玩库商业中心(博山旗舰店),117.859289,36.49598,其他,商场,凌晨,5.54
2024-08-10,第五季·玩库商业中心(博山旗舰店),117.859289,36.49598,其他,商场,下午,5.46
2024-08-10,谈小娱24h自助台球(健康路店),118.169741,36.194487,其他,体育场馆,中午,5.13
2024-08-10,谈小娱24h自助台球(健康路店),118.169741,36.194487,其他,体育场馆,傍晚,5.35
2024-08-10,淄川南部森林公园,117.967431,36.620843,其他,公园,中午,8.35
2024-08-10,淄川南部森林公园,117.967431,36.620843,其他,公园,傍晚,7.35
2024-08-10,锅圈食汇火锅烧烤食材超市(齐都花园店),118.290581,36.827659,其他,餐饮,深夜,4.15
2024-08-10,锅圈食汇火锅烧烤食材超市(齐都花园店),118.290581,36.827659,其他,餐饮,傍晚,7.66
2024-08-10,遄台中学,118.316847,36.818062,其他,学校,下午,7.23
2024-08-10,SM广场,117.962256,36.643708,其他,商场,凌晨,4.32
2024-08-10,天行健健身会所,118.004368,36.836872,其他,体育场馆,下午,6.54
2024-08-10,天行健健身会所,118.004368,36.836872,其他,体育场馆,凌晨,5.16
2024-08-10,程程团购,117.77299,36.640175,其他,商场,深夜,4.58
2024-08-10,淄博市烧烤博物馆,118.045243,36.829379,其他,文化场馆,晚上,5.45
2024-08-10,淄博市烧烤博物馆,118.045243,36.829379,其他,文化场馆,凌晨,5.12
2024-08-10,齐园,118.292227,36.807527,其他,公园,傍晚,5.45
2024-08-10,齐园,118.292227,36.807527,其他,公园,中午,6.85
2024-08-10,曹一村法治文化广场,118.098433,36.839591,其他,公园,下午,7.3
2024-08-10,曹一村法治文化广场,118.098433,36.839591,其他,公园,傍晚,6.2
2024-08-10,建国私教健身会所(齐悦商业街店),117.987907,36.809122,其他,体育场馆,下午,6.03
2024-08-10,建国私教健身会所(齐悦商业街店),117.987907,36.809122,其他,体育场馆,上午,7.3
2024-08-10,宝塔文化广场,117.997516,36.713892,其他,公园,晚上,4.22
2024-08-10,老车家烧烤,117.971224,36.628883,其他,餐饮,晚上,4.95
2024-08-10,昆仑广场,117.91394,36.581689,其他,公园,傍晚,5.75
2024-08-11,大染坊口腔,117.847775,36.791389,其他,医院,上午,5.27
2024-08-11,大染坊口腔,117.847775,36.791389,其他,医院,深夜,5.02
2024-08-11,动力100健身(盛世国际店),117.868437,36.799085,其他,体育场馆,中午,6.92
2024-08-11,动力100健身(盛世国际店),117.868437,36.799085,其他,体育场馆,下午,6.7
2024-08-11,淄博市特殊教育中心,118.099177,36.820103,其他,学校,上午,7.19
2024-08-11,人口文化广场,117.976909,36.635204,其他,公园,傍晚,7.69
2024-08-11,宝塔文化广场,117.997516,36.713892,其他,公园,中午,7.03
2024-08-11,宝塔文化广场,117.997516,36.713892,其他,公园,下午,5.31
2024-08-11,淄博电子工程学校,118.152562,36.187551,其他,学校,下午,8.19
2024-08-11,淄博电子工程学校,118.152562,36.187551,其他,学校,上午,7.68
2024-08-11,峨庄国家森林公园,118.150576,36.503571,其他,公园,晚上,3.43
2024-08-11,峨庄国家森林公园,118.150576,36.503571,其他,公园,深夜,5.22
2024-08-11,老何牛肉面,118.186653,36.768356,其他,餐饮,傍晚,5.19
2024-08-11,XIK酷点台球俱乐部,118.104709,36.958861,其他,体育场馆,上午,7.79
2024-08-11,明德志愿服务主题公园,117.847624,36.795251,其他,公园,晚上,5.17
2024-08-11,北大医疗鲁中医院(胜利分院),118.26391,36.767573,其他,医院,凌晨,4.15
2024-08-11,北大医疗鲁中医院(胜利分院),118.26391,36.767573,其他,医院,深夜,4.18
2024-08-11,临淄一中,118.313495,36.812152,其他,学校,下午,5.66
2024-08-11,富丽商城,118.056526,36.805114,其他,商场,上午,7.15
2024-08-11,幽幽谷,118.080758,36.323183,其他,旅游景点,下午,5.97
2024-08-11,幽幽谷,118.080758,36.323183,其他,旅游景点,凌晨,4.87
2024-08-11,淄博市中医医院老院区,117.850347,36.801442,其他,医院,上午,5.96
2024-08-11,猪龙河生态公园,118.04949,36.804743,其他,公园,上午,5.51
2024-08-11,淄博柳泉中学,117.977727,36.819203,其他,学校,中午,5.42
2024-08-11,淄博柳泉中学,117.977727,36.819203,其他,学校,下午,5.66
2024-08-11,福山小学,118.241749,36.733112,其他,学校,中午,7.44
2024-08-11,山东铝业职业学院,118.048078,36.75552,其他,学校,深夜,5.0
2024-08-11,山东铝业职业学院,118.048078,36.75552,其他,学校,凌晨,4.3
2024-08-11,吾悦广场(淄博周村店),117.866457,36.823203,其他,商场,上午,6.71
2024-08-11,李家大院铁锅炖,118.049874,36.841887,其他,餐饮,晚上,4.99
2024-08-11,李家大院铁锅炖,118.049874,36.841887,其他,餐饮,傍晚,5.64
2024-08-11,加一桌,117.851289,36.776556,其他,餐饮,上午,6.6
2024-08-11,彤德捞轻火锅(万达店),118.009678,36.841197,其他,餐饮,下午,4.93
2024-08-11,国梁烧烤,117.957404,36.667691,其他,餐饮,傍晚,7.7
2024-08-11,大石头风景区,117.944959,36.593092,其他,旅游景点,凌晨,3.15
2024-08-11,高青县高城中心卫生院,117.954429,37.104193,其他,医院,上午,6.45
2024-08-11,金银山公园,118.053645,36.424029,其他,公园,凌晨,2.98
2024-08-11,金银山公园,118.053645,36.424029,其他,公园,傍晚,6.01
2024-08-11,如月湖湿地公园,117.892587,36.442721,其他,旅游景点,晚上,5.64
2024-08-11,桓台县新时代文明实践中心-健康主题公园,118.084407,36.946436,其他,公园,凌晨,5.05
2024-08-11,欢乐新街,117.848859,36.793297,其他,商场,凌晨,4.77
2024-08-11,欢乐新街,117.848859,36.793297,其他,商场,晚上,4.62
2024-08-11,竹林寺,118.11276,36.55198,其他,旅游景点,傍晚,6.19
2024-08-11,淄博第十中学,117.905264,36.581359,其他,学校,傍晚,5.04
2024-08-11,淄博第十中学,117.905264,36.581359,其他,学校,晚上,5.06
2024-08-11,淄博市周村区第一中学(东校区),117.838026,36.791925,其他,学校,下午,7.76
2024-08-11,淄博高新区石桥中心医院,118.045962,36.886421,其他,医院,中午,4.1
2024-08-11,淄博高新区石桥中心医院,118.045962,36.886421,其他,医院,晚上,3.88
2024-08-11,绿巨人健身(山铝店),118.045932,36.753401,其他,体育场馆,傍晚,4.71
2024-08-11,大理寺过桥米线麻辣烫(银泰城店),118.034457,36.850433,其他,餐饮,深夜,3.31
2024-08-11,大理寺过桥米线麻辣烫(银泰城店),118.034457,36.850433,其他,餐饮,中午,6.43
2024-08-11,机关医院,118.020029,36.83421,其他,医院,深夜,3.68
2024-08-11,钱裕园文化广场,118.00181,36.81628,其他,公园,上午,7.46
2024-08-11,钱裕园文化广场,118.00181,36.81628,其他,公园,晚上,5.34
2024-08-11,天乙篮球公园,118.003703,36.85128,其他,体育场馆,凌晨,5.77
2024-08-11,天乙篮球公园,118.003703,36.85128,其他,体育场馆,晚上,5.78
2024-08-11,周村人民广场-四德主题公园,117.858127,36.799089,其他,公园,中午,5.95
2024-08-11,金梦园(新村西路店),118.027431,36.803256,其他,餐饮,下午,7.04
2024-08-11,峨庄瀑布群风景区,118.190568,36.438902,其他,旅游景点,傍晚,7.15
2024-08-11,淄川区医院西院区,117.91546,36.653396,其他,医院,傍晚,6.47
2024-08-11,淄川区医院西院区,117.91546,36.653396,其他,医院,中午,5.45
2024-08-11,新东方羽绒服饰广场,117.958291,36.646783,其他,商场,深夜,4.56
2024-08-11,凯盛南湖湿地公园,118.007744,36.742352,其他,公园,上午,7.59
2024-08-11,凯盛南湖湿地公园,118.007744,36.742352,其他,公园,晚上,4.11
2024-08-11,张庄乡张庄村卫生室,118.066716,36.52363,其他,医院,晚上,7.09
2024-08-11,张庄乡张庄村卫生室,118.066716,36.52363,其他,医院,深夜,3.62
2024-08-11,罗村中学,118.073269,36.679739,其他,学校,傍晚,5.83
2024-08-11,罗村中学,118.073269,36.679739,其他,学校,下午,5.52
2024-08-11,谈小娱24h自助台球(水晶街店),118.005781,36.81618,其他,体育场馆,上午,7.11
2024-08-11,白石洞旅游风景区,117.819342,36.515991,其他,旅游景点,傍晚,6.86
2024-08-11,白石洞旅游风景区,117.819342,36.515991,其他,旅游景点,上午,7.92
2024-08-11,刘煜拳击馆,117.987399,36.814711,其他,体育场馆,凌晨,2.96
2024-08-11,张亮麻辣烫(淄博马尚店),117.989055,36.801039,其他,餐饮,深夜,2.57
2024-08-11,张亮麻辣烫(淄博马尚店),117.989055,36.801039,其他,餐饮,下午,5.92
2024-08-11,茂业百货(泰客荣店),118.302802,36.813754,其他,商场,傍晚,5.08
2024-08-11,茂业百货(泰客荣店),118.302802,36.813754,其他,商场,深夜,4.77
2024-08-11,博山区八陡镇卫生院,117.915515,36.455647,其他,医院,上午,7.59
2024-08-11,天玑阁,117.945775,37.186481,其他,旅游景点,晚上,4.45
2024-08-11,房镇体育公园,117.965442,36.864421,其他,公园,晚上,6.57
2024-08-11,房镇体育公园,117.965442,36.864421,其他,公园,深夜,4.63
2024-08-11,淄博市体育中心综合体育馆,117.984612,36.814996,其他,体育场馆,上午,4.98
2024-08-11,淄博市体育中心综合体育馆,117.984612,36.814996,其他,体育场馆,晚上,4.94
2024-08-11,淄博市市级机关医院,118.055697,36.811686,其他,医院,晚上,6.95
2024-08-11,淄博市市级机关医院,118.055697,36.811686,其他,医院,凌晨,5.05
2024-08-11,齐盛湖公园,117.989284,36.841662,其他,公园,下午,6.31
2024-08-11,齐盛湖公园,117.989284,36.841662,其他,公园,上午,7.5
2024-08-11,淄博中心广场,118.038484,36.803235,其他,公园,晚上,4.16
2024-08-11,春之光医院,118.073479,36.806474,其他,医院,下午,8.18
2024-08-11,长寿山广场,117.823867,36.552209,其他,公园,下午,6.24
2024-08-12,桓台实验学校,118.082203,36.967572,其他,学校,晚上,6.97
2024-08-12,茂业百货-北区,118.296237,36.819238,其他,商场,傍晚,6.51
2024-08-12,茂业百货-北区,118.296237,36.819238,其他,商场,深夜,4.85
2024-08-12,淄博高新区文体公园,118.07024,36.840741,其他,公园,晚上,4.12
2024-08-12,淄博高新区文体公园,118.07024,36.840741,其他,公园,中午,6.5
2024-08-12,南营公园,118.068447,36.845105,其他,公园,上午,5.14
2024-08-12,南营公园,118.068447,36.845105,其他,公园,深夜,6.17
2024-08-12,淄博师专,117.908464,36.66217,其他,学校,中午,6.69
2024-08-12,淄博师专,117.908464,36.66217,其他,学校,傍晚,6.32
2024-08-12,你好·普拉提·瑜伽,118.009241,36.842339,其他,体育场馆,凌晨,3.11
2024-08-12,你好·普拉提·瑜伽,118.009241,36.842339,其他,体育场馆,上午,6.52
2024-08-12,湿地公园,117.896909,36.71004,其他,公园,中午,6.69
2024-08-12,湿地公园,117.896909,36.71004,其他,公园,深夜,2.6
2024-08-12,瑞苑社区团购,118.048905,36.818966,其他,商场,下午,8.09
2024-08-12,万兴阁,118.321477,36.816893,其他,餐饮,傍晚,6.12
2024-08-12,淄博延强医院,117.944326,36.665657,其他,医院,中午,6.33
2024-08-12,董家灵泉公园,117.98105,36.694829,其他,公园,傍晚,5.13
2024-08-12,陈小二炒鸡(润生家园店),118.188699,36.189234,其他,餐饮,深夜,6.24
2024-08-12,陈小二炒鸡(润生家园店),118.188699,36.189234,其他,餐饮,下午,6.43
2024-08-12,淄博高新区实验中学,118.128522,36.830556,其他,学校,晚上,3.84
2024-08-12,淄博高新区实验中学,118.128522,36.830556,其他,学校,中午,4.89
2024-08-12,淄博市综合训练基地,117.832393,36.743439,其他,文化场馆,下午,6.13
2024-08-12,淄博市综合训练基地,117.832393,36.743439,其他,文化场馆,傍晚,4.07
2024-08-12,沂河头村文化广场,118.244623,36.172628,其他,公园,傍晚,5.65
2024-08-12,沂河头村文化广场,118.244623,36.172628,其他,公园,深夜,3.98
2024-08-12,海福缘酒楼博山菜,118.05069,36.818672,其他,餐饮,上午,5.47
2024-08-12,齐都花园小学,118.289328,36.830072,其他,学校,傍晚,4.51
2024-08-12,樵岭前风景区-博山溶洞,117.827216,36.447454,其他,旅游景点,下午,8.02
2024-08-12,樵岭前风景区-博山溶洞,117.827216,36.447454,其他,旅游景点,晚上,6.0
2024-08-12,飞龙台球会馆,118.05094,36.809874,其他,体育场馆,傍晚,7.57
2024-08-12,飞龙台球会馆,118.05094,36.809874,其他,体育场馆,下午,7.48
2024-08-12,南庙,117.987152,36.619724,其他,旅游景点,晚上,6.4
2024-08-12,南庙,117.987152,36.619724,其他,旅游景点,傍晚,5.32
2024-08-12,欧麦滋蛋糕花艺坊(芦湖小区店),117.84188,37.168743,其他,餐饮,中午,6.61
2024-08-12,欧麦滋蛋糕花艺坊(芦湖小区店),117.84188,37.168743,其他,餐饮,凌晨,4.06
2024-08-12,茂业百货(泰客荣店),118.302802,36.813754,其他,商场,中午,6.02
2024-08-12,茂业百货(泰客荣店),118.302802,36.813754,其他,商场,深夜,3.4
2024-08-12,老华盛商场,117.830529,37.168815,其他,商场,晚上,5.36
2024-08-12,老华盛商场,117.830529,37.168815,其他,商场,上午,5.8
2024-08-12,淄博一四八医院,117.852864,36.793363,其他,医院,凌晨,4.52
2024-08-12,淄博一四八医院,117.852864,36.793363,其他,医院,中午,4.01
2024-08-12,稷下学宫遗址(不对外开放),118.332365,36.853936,其他,旅游景点,凌晨,4.49
2024-08-12,品海蒸鲜(曦园店),118.00047,36.846274,其他,餐饮,下午,5.67
2024-08-12,公社炒鸡老菜馆(八大局店),118.075206,36.808527,其他,餐饮,凌晨,2.91
2024-08-12,峨嵋山公园,117.863174,36.486709,其他,公园,深夜,3.53
2024-08-12,峨嵋山公园,117.863174,36.486709,其他,公园,上午,4.18
2024-08-12,众羽羽毛球馆,118.002165,36.786206,其他,体育场馆,晚上,6.68
2024-08-12,众羽羽毛球馆,118.002165,36.786206,其他,体育场馆,傍晚,4.88
2024-08-12,桓台商厦,118.105225,36.959466,其他,商场,中午,4.78
2024-08-12,银座·奥特莱斯(柳泉路店),118.056075,36.834419,其他,商场,晚上,6.05
2024-08-12,银座·奥特莱斯(柳泉路店),118.056075,36.834419,其他,商场,深夜,5.42
2024-08-12,友谊商场,118.168712,36.183769,其他,商场,中午,6.88
2024-08-12,临淄区稷下小学,118.315531,36.810223,其他,学校,下午,6.01
2024-08-12,临淄区稷下小学,118.315531,36.810223,其他,学校,上午,7.48
2024-08-12,博山山头周氏顺祥斋,117.87409,36.465945,其他,旅游景点,下午,5.75
2024-08-12,博山山头周氏顺祥斋,117.87409,36.465945,其他,旅游景点,上午,4.08
2024-08-12,成和商厦(沂源店),118.170879,36.192775,其他,商场,深夜,4.54
2024-08-12,崔家烤羊(中润·华侨城店),118.027231,36.841427,其他,餐饮,晚上,4.9
2024-08-12,崔家烤羊(中润·华侨城店),118.027231,36.841427,其他,餐饮,上午,4.67
2024-08-12,淄博中学,118.120439,36.831177,其他,学校,傍晚,7.37
2024-08-12,淄博中学,118.120439,36.831177,其他,学校,中午,4.01
2024-08-12,乐享星牌台球,118.056996,36.801438,其他,体育场馆,上午,6.33
2024-08-12,乐享星牌台球,118.056996,36.801438,其他,体育场馆,中午,6.26
2024-08-12,山东煤炭技术学院,117.985255,36.635242,其他,学校,傍晚,5.53
2024-08-12,山东省淄博第十一中学,118.058549,36.850697,其他,学校,上午,5.54
2024-08-12,山东省淄博第十一中学,118.058549,36.850697,其他,学校,傍晚,5.95
2024-08-12,吉祥福第蚂蚱鸡,118.016031,36.848831,其他,餐饮,凌晨,5.47
2024-08-12,吉祥福第蚂蚱鸡,118.016031,36.848831,其他,餐饮,傍晚,5.21
2024-08-12,过桥缘·过桥米线(淄博星河街店),117.988742,36.799901,其他,餐饮,晚上,5.65
2024-08-12,过桥缘·过桥米线(淄博星河街店),117.988742,36.799901,其他,餐饮,傍晚,4.57
2024-08-12,淄博外国语实验学校,117.987589,36.636598,其他,学校,深夜,4.12
2024-08-12,天鹅湖温泉国际慢城,117.894775,37.242389,其他,公园,晚上,5.65
2024-08-12,天鹅湖温泉国际慢城,117.894775,37.242389,其他,公园,凌晨,3.66
2024-08-12,建国私教健身会所(齐悦商业街店),117.987907,36.809122,其他,体育场馆,晚上,6.78
2024-08-12,建国私教健身会所(齐悦商业街店),117.987907,36.809122,其他,体育场馆,中午,5.21
2024-08-12,华盛商厦,117.829677,37.171987,其他,商场,上午,5.83
2024-08-12,华盛商厦,117.829677,37.171987,其他,商场,傍晚,4.71
2024-08-12,齐园,118.292227,36.807527,其他,公园,下午,7.25
2024-08-12,齐园,118.292227,36.807527,其他,公园,深夜,5.37
2024-08-12,城北广场,117.977157,36.653772,其他,公园,上午,6.01
2024-08-12,城北广场,117.977157,36.653772,其他,公园,凌晨,3.72
2024-08-12,明医堂,118.037682,36.797434,其他,医院,中午,7.3
2024-08-12,石头先生的烤炉(淄博博山店),117.860839,36.500122,其他,餐饮,下午,4.05
2024-08-12,石头先生的烤炉(淄博博山店),117.860839,36.500122,其他,餐饮,深夜,4.47
2024-08-12,淄博市博山中学,117.843168,36.513238,其他,学校,上午,5.26
2024-08-12,火炬公园,118.053802,36.837551,其他,公园,傍晚,6.27
2024-08-12,火炬公园,118.053802,36.837551,其他,公园,深夜,4.32
2024-08-12,鲁泰文苑动物园,117.99668,36.64233,其他,公园,深夜,2.85
2024-08-12,般阳中学,117.915619,36.656604,其他,学校,傍晚,5.21
2024-08-12,般阳中学,117.915619,36.656604,其他,学校,凌晨,3.04
2024-08-12,飞扬台球俱乐部,118.059651,36.802584,其他,体育场馆,下午,5.79
2024-08-12,西山公园,117.990818,36.634296,其他,公园,凌晨,3.7
2024-08-12,淄博悦动乒乓球俱乐部,118.003041,36.841249,其他,体育场馆,晚上,4.26
2024-08-12,爵士西餐厅,118.084765,36.95831,其他,餐饮,下午,6.27
2024-08-12,江南濠景生态美食园,118.009609,36.805242,其他,餐饮,凌晨,6.01
2024-08-12,月牙湾,118.386452,36.843008,其他,旅游景点,中午,5.09
2024-08-12,月牙湾,118.386452,36.843008,其他,旅游景点,上午,4.86
2024-08-12,桓台县新时代文明实践中心-健康主题公园,118.084407,36.946436,其他,公园,深夜,5.5
2024-08-12,桓台县新时代文明实践中心-健康主题公园,118.084407,36.946436,其他,公园,中午,4.57
2024-08-12,淄博聊斋城景区,118.016053,36.62869,其他,旅游景点,中午,6.04
2024-08-12,泉河风景区,118.048141,36.410821,其他,公园,上午,4.54
2024-08-12,泉河风景区,118.048141,36.410821,其他,公园,深夜,4.42
2024-08-12,运粮河湿地公园,118.307362,36.892481,其他,公园,中午,4.7
2024-08-12,运粮河湿地公园,118.307362,36.892481,其他,公园,晚上,6.16
2024-08-12,周村区人民医院,117.869467,36.820009,其他,医院,深夜,4.98
2024-08-12,兴隆灌汤蒸包(东关店),117.97786,36.647169,其他,餐饮,深夜,2.73
2024-08-12,趣六禾蛤蜊鸡(周村总店),117.844753,36.816128,其他,餐饮,中午,4.26
2024-08-12,趣六禾蛤蜊鸡(周村总店),117.844753,36.816128,其他,餐饮,凌晨,2.8
2024-08-12,动力100游泳健身(荣盛广场店),117.999996,36.825192,其他,体育场馆,晚上,4.75
2024-08-12,动力100游泳健身(荣盛广场店),117.999996,36.825192,其他,体育场馆,傍晚,5.38
2024-08-12,傅山自然地质博物馆,118.132336,36.878484,其他,文化场馆,深夜,6.22
2024-08-13,淄川实验中学松龄东路,117.974332,36.647764,其他,学校,深夜,4.44
2024-08-13,淄川实验中学松龄东路,117.974332,36.647764,其他,学校,凌晨,3.53
2024-08-13,博山经济开发区卫生院,117.846082,36.522515,其他,医院,凌晨,5.03
2024-08-13,博山经济开发区卫生院,117.846082,36.522515,其他,医院,晚上,5.62
2024-08-13,圆心楼商城,117.844755,36.618944,其他,商场,中午,5.61
2024-08-13,圆心楼商城,117.844755,36.618944,其他,商场,下午,7.12
2024-08-13,锅圈食汇火锅烧烤食材超市(齐都花园店),118.290581,36.827659,其他,餐饮,凌晨,2.3
2024-08-13,锅圈食汇火锅烧烤食材超市(齐都花园店),118.290581,36.827659,其他,餐饮,中午,7.89
2024-08-13,亨泰台球,118.04326,36.807013,其他,体育场馆,傍晚,5.59
2024-08-13,淄博市高新区植物园,118.02744,36.859301,其他,公园,下午,5.66
2024-08-13,淄博市高新区植物园,118.02744,36.859301,其他,公园,中午,6.56
2024-08-13,临淄区道德主题公园,118.303875,36.819506,其他,公园,下午,5.35
2024-08-13,淄博瑞生医院,118.040809,36.828672,其他,医院,中午,4.31
2024-08-13,山东水利技师学院,117.893721,36.654078,其他,学校,上午,6.64
2024-08-13,山东水利技师学院,117.893721,36.654078,其他,学校,晚上,4.69
2024-08-13,和平大酒店(和平路店),117.820731,36.795699,其他,餐饮,下午,5.59
2024-08-13,和平大酒店(和平路店),117.820731,36.795699,其他,餐饮,晚上,6.0
2024-08-13,城北广场,117.977157,36.653772,其他,公园,中午,4.15
2024-08-13,城北广场,117.977157,36.653772,其他,公园,下午,6.76
2024-08-13,李家疃明清建筑群,117.699341,36.661727,其他,旅游景点,深夜,4.52
2024-08-13,淄博矿业集团公司双山医院,117.853711,36.498469,其他,医院,凌晨,1.82
2024-08-13,董家灵泉公园,117.98105,36.694829,其他,公园,上午,6.81
2024-08-13,董家灵泉公园,117.98105,36.694829,其他,公园,中午,6.74
2024-08-13,大红门(淄博张店区),118.030367,36.807949,其他,餐饮,上午,5.24
2024-08-13,青龙山公园,118.088849,36.826097,其他,公园,凌晨,4.34
2024-08-13,晏婴小学,118.28193,36.819943,其他,学校,深夜,2.33
2024-08-13,淄博师专附属小学,117.981028,36.644906,其他,学校,深夜,5.51
2024-08-13,中国体育彩票,117.959333,36.647242,其他,商场,傍晚,5.23
2024-08-13,九龙商场,118.078194,36.904107,其他,商场,晚上,4.49
2024-08-13,太公老刘烧烤(三星怡水名城店),118.322683,36.829206,其他,餐饮,深夜,3.48
2024-08-13,太公老刘烧烤(三星怡水名城店),118.322683,36.829206,其他,餐饮,下午,5.14
2024-08-13,圣佛山,118.362109,36.190447,其他,旅游景点,深夜,5.7
2024-08-13,东泰广场(茂业百货店),118.296674,36.81926,其他,商场,上午,4.17
2024-08-13,东泰广场(茂业百货店),118.296674,36.81926,其他,商场,中午,5.55
2024-08-13,淄博市第五人民医院,117.98262,36.632505,其他,医院,傍晚,8.02
2024-08-13,淄博市第五人民医院,117.98262,36.632505,其他,医院,下午,4.68
2024-08-13,图乐台球俱乐部,118.043981,36.829208,其他,体育场馆,晚上,3.45
2024-08-13,石氏庄园,117.894676,36.865829,其他,旅游景点,深夜,5.12
2024-08-13,博山财神庙,117.897121,36.52617,其他,旅游景点,中午,4.61
2024-08-13,博山财神庙,117.897121,36.52617,其他,旅游景点,深夜,4.77
2024-08-13,石家班台球俱乐部,118.032648,36.836346,其他,体育场馆,深夜,4.98
2024-08-13,石家班台球俱乐部,118.032648,36.836346,其他,体育场馆,凌晨,3.92
2024-08-13,中濠饭店(海岱楼店),117.998939,36.844294,其他,餐饮,傍晚,5.47
2024-08-13,中濠饭店(海岱楼店),117.998939,36.844294,其他,餐饮,晚上,5.04
2024-08-13,临淄区金山中学,118.229933,36.735894,其他,学校,深夜,4.63
2024-08-13,花山公园,118.11949,36.824708,其他,旅游景点,中午,6.27
2024-08-13,花山公园,118.11949,36.824708,其他,旅游景点,傍晚,6.8
2024-08-13,湿地公园,117.896909,36.71004,其他,公园,凌晨,5.84
2024-08-13,湿地公园,117.896909,36.71004,其他,公园,晚上,4.85
2024-08-13,淄博和平学校,117.824973,36.791633,其他,学校,晚上,3.56
2024-08-13,淄博和平学校,117.824973,36.791633,其他,学校,上午,6.51
2024-08-13,银座商城(高青店),117.840226,37.164654,其他,商场,上午,6.87
2024-08-13,淄博市博山区第二人民医院,118.052569,36.428533,其他,医院,晚上,6.56
2024-08-13,张店城中小学,118.052446,36.801953,其他,学校,凌晨,4.63
2024-08-13,张店城中小学,118.052446,36.801953,其他,学校,傍晚,4.88
2024-08-13,淄博延强医院,117.944326,36.665657,其他,医院,下午,5.28
2024-08-13,淄博延强医院,117.944326,36.665657,其他,医院,上午,5.79
2024-08-13,北苑小学,118.018256,36.844471,其他,学校,中午,5.36
2024-08-13,淄博市张店区齐盛学校,117.97533,36.836168,其他,学校,下午,6.61
2024-08-13,古茗(中润新玛特购物广场店),118.028312,36.837953,其他,餐饮,傍晚,6.84
2024-08-13,古茗(中润新玛特购物广场店),118.028312,36.837953,其他,餐饮,凌晨,4.23
2024-08-13,Top台球俱乐部(奥朗特购物广场店),118.012654,36.810435,其他,体育场馆,上午,5.54
2024-08-13,遄台小学,118.321962,36.814051,其他,学校,深夜,4.44
2024-08-13,柳泉潜流湿地,117.937449,36.621568,其他,旅游景点,傍晚,4.44
2024-08-13,柳泉潜流湿地,117.937449,36.621568,其他,旅游景点,深夜,5.77
2024-08-13,0533乔氏台球会所,118.052345,36.805821,其他,体育场馆,晚上,6.96
2024-08-13,玉皇宫,117.852755,36.486698,其他,旅游景点,凌晨,4.51
2024-08-13,玉皇宫,117.852755,36.486698,其他,旅游景点,中午,6.28
2024-08-13,鲁中安全生产考试中心,118.125613,36.838574,其他,文化场馆,晚上,2.86
2024-08-13,鲁中安全生产考试中心,118.125613,36.838574,其他,文化场馆,中午,4.23
2024-08-13,竹林寺,118.11276,36.55198,其他,旅游景点,晚上,5.3
2024-08-13,梓橦山旅游区,118.03096,36.665088,其他,旅游景点,中午,5.36
2024-08-13,梓橦山旅游区,118.03096,36.665088,其他,旅游景点,上午,7.43
2024-08-13,六点水法润自然主题公园,118.174965,36.199727,其他,公园,上午,3.52
2024-08-13,六点水法润自然主题公园,118.174965,36.199727,其他,公园,凌晨,2.4
2024-08-13,淄博新区水系公园,117.989777,36.820477,其他,旅游景点,下午,5.96
2024-08-13,淄博市张店区融媒体中心,118.0451,36.796042,其他,文化场馆,上午,6.04
2024-08-13,云景轩酒店,118.178571,36.206609,其他,餐饮,中午,5.47
2024-08-13,云景轩酒店,118.178571,36.206609,其他,餐饮,晚上,5.06
2024-08-13,清梅居食品(翡翠园店),117.872113,36.512931,其他,餐饮,晚上,4.2
2024-08-13,清梅居食品(翡翠园店),117.872113,36.512931,其他,餐饮,中午,4.42
2024-08-13,喜茶(健康路店),118.169554,36.195571,其他,餐饮,上午,5.33
2024-08-14,淄博市张店区第六中学,117.99802,36.769038,其他,学校,中午,5.77
2024-08-14,淄博市张店区第六中学,117.99802,36.769038,其他,学校,下午,6.11
2024-08-14,火炬公园,118.053802,36.837551,其他,公园,深夜,3.81
2024-08-14,火炬公园,118.053802,36.837551,其他,公园,中午,6.67
2024-08-14,影私空间(淄博王府井广场店),118.051466,36.8059,其他,餐饮,下午,4.11
2024-08-14,影私空间(淄博王府井广场店),118.051466,36.8059,其他,餐饮,上午,6.8
2024-08-14,石氏庄园,117.894676,36.865829,其他,旅游景点,深夜,4.95
2024-08-14,淄博师专,117.908464,36.66217,其他,学校,晚上,5.95
2024-08-14,淄博师专,117.908464,36.66217,其他,学校,上午,6.91
2024-08-14,泉河风景区,118.048141,36.410821,其他,公园,上午,5.87
2024-08-14,泉河风景区,118.048141,36.410821,其他,公园,中午,6.61
2024-08-14,古茗(淄博实验中学店),118.005919,36.804433,其他,餐饮,晚上,5.5
2024-08-14,淄博市博山区人民医院,117.861781,36.512727,其他,医院,傍晚,5.58
2024-08-14,淄博市博山区人民医院,117.861781,36.512727,其他,医院,下午,5.84
2024-08-14,索镇卫生院,118.116856,36.958313,其他,医院,中午,4.75
2024-08-14,华盛商厦,117.829677,37.171987,其他,商场,下午,6.96
2024-08-14,马耀南故居,117.904552,36.794954,其他,旅游景点,傍晚,6.34
2024-08-14,淄博延强医院,117.944326,36.665657,其他,医院,深夜,4.69
2024-08-14,淄博延强医院,117.944326,36.665657,其他,医院,傍晚,6.46
2024-08-14,后厨金字塔(美达华庭店),118.018377,36.825519,其他,餐饮,下午,7.07
2024-08-14,后厨金字塔(美达华庭店),118.018377,36.825519,其他,餐饮,中午,4.55
2024-08-14,圣佛山圣佛寺,118.215772,36.651906,其他,旅游景点,中午,4.38
2024-08-14,泰客荣店(茂业百货泰客荣店),118.302933,36.813445,其他,商场,晚上,4.2
2024-08-14,泰客荣店(茂业百货泰客荣店),118.302933,36.813445,其他,商场,下午,6.3
2024-08-14,淄博职业技术大学北校区,117.932961,36.836518,其他,学校,深夜,6.82
2024-08-14,淄博职业技术大学北校区,117.932961,36.836518,其他,学校,晚上,5.23
2024-08-14,太阳山植物园,117.892555,36.534811,其他,公园,上午,6.13
2024-08-14,太阳山植物园,117.892555,36.534811,其他,公园,晚上,5.38
2024-08-14,淄博震中中医院,118.032777,36.755912,其他,医院,深夜,5.15
2024-08-14,钱记小院,117.854785,36.48077,其他,餐饮,傍晚,4.02
2024-08-14,钱记小院,117.854785,36.48077,其他,餐饮,晚上,5.22
2024-08-14,淄博站南广场,118.055173,36.784869,其他,公园,傍晚,5.28
2024-08-14,淄博站南广场,118.055173,36.784869,其他,公园,晚上,4.56
2024-08-14,TULIPS MAPLE(齐园绿城店),118.288425,36.809494,其他,商场,上午,5.26
2024-08-14,悦味坊酒店,118.0079,36.832232,其他,餐饮,晚上,4.97
2024-08-14,悦味坊酒店,118.0079,36.832232,其他,餐饮,凌晨,4.62
2024-08-14,万杰国际大酒店,117.854192,36.541102,其他,餐饮,晚上,5.33
2024-08-14,万杰国际大酒店,117.854192,36.541102,其他,餐饮,中午,4.06
2024-08-14,米兰法式甜品,117.852921,36.495677,其他,餐饮,上午,7.74
2024-08-14,法王院,118.032929,36.713602,其他,旅游景点,傍晚,4.4
2024-08-14,法王院,118.032929,36.713602,其他,旅游景点,凌晨,4.92
2024-08-14,张店区特殊教育中心学校,118.052517,36.797538,其他,学校,上午,5.96
2024-08-14,大学城滨河公园,117.934137,36.812275,其他,公园,凌晨,3.06
2024-08-14,大学城滨河公园,117.934137,36.812275,其他,公园,深夜,6.36
2024-08-14,淄博市体育中心体育场,117.98856,36.813629,其他,体育场馆,傍晚,6.87
2024-08-14,淄博市体育中心体育场,117.98856,36.813629,其他,体育场馆,凌晨,5.91
2024-08-14,和谐广场,117.879887,36.65397,其他,公园,晚上,5.49
2024-08-14,和谐广场,117.879887,36.65397,其他,公园,深夜,4.4
2024-08-14,张庄乡张庄村卫生室,118.066716,36.52363,其他,医院,上午,6.56
2024-08-14,吾悦广场(淄博店),118.025098,36.783679,其他,商场,上午,5.33
2024-08-14,博山实验中学,117.859332,36.509801,其他,学校,中午,4.36
2024-08-14,博山实验中学,117.859332,36.509801,其他,学校,凌晨,3.69
2024-08-14,淄博市技师学院经开校区,118.051685,36.770831,其他,学校,下午,4.24
2024-08-14,淄博市技师学院经开校区,118.051685,36.770831,其他,学校,深夜,2.96
2024-08-14,沈家村哪吒墙画,117.847973,36.855279,其他,旅游景点,凌晨,5.38
2024-08-14,大理寺过桥米线麻辣烫(银泰城店),118.034457,36.850433,其他,餐饮,晚上,3.56
2024-08-14,大理寺过桥米线麻辣烫(银泰城店),118.034457,36.850433,其他,餐饮,中午,6.03
2024-08-14,张店区第七中学,118.03144,36.818856,其他,学校,中午,4.59
2024-08-14,淄博市市级机关医院,118.055697,36.811686,其他,医院,凌晨,5.41
2024-08-14,淄博市市级机关医院,118.055697,36.811686,其他,医院,中午,6.07
2024-08-14,淄博市张店区傅家镇卫生院,118.000376,36.761537,其他,医院,深夜,4.31
2024-08-14,味老香菜馆(万象汇店),118.063505,36.801539,其他,餐饮,傍晚,7.06
2024-08-14,基督教堂,118.314038,36.844829,其他,旅游景点,凌晨,4.88
2024-08-14,盛华尚都广场,118.309909,36.811202,其他,商场,晚上,3.44
2024-08-14,盛华尚都广场,118.309909,36.811202,其他,商场,凌晨,4.0
2024-08-14,高青县人民医院住院部,117.836759,37.169291,其他,医院,深夜,3.02
2024-08-14,人民东路小学,118.064812,36.810418,其他,学校,深夜,5.78
2024-08-14,人民东路小学,118.064812,36.810418,其他,学校,傍晚,5.56
2024-08-14,淄川明圣医院,117.948865,36.666524,其他,医院,傍晚,5.91
2024-08-14,淄川明圣医院,117.948865,36.666524,其他,医院,下午,6.06
2024-08-14,淄博市中心医院西院区住院五部,117.973382,36.811715,其他,医院,傍晚,7.44
2024-08-14,庵头村健身广场,117.956615,36.735934,其他,公园,下午,7.16
2024-08-14,淄博柳泉中学,117.977727,36.819203,其他,学校,上午,6.18
2024-08-14,周村季掌门牛骨馆(信誉楼百货店),117.851567,36.807758,其他,餐饮,上午,4.92
2024-08-14,周村季掌门牛骨馆(信誉楼百货店),117.851567,36.807758,其他,餐饮,晚上,3.99
2024-08-14,大张商贸城,118.225645,36.823116,其他,商场,中午,4.54
2024-08-14,大张商贸城,118.225645,36.823116,其他,商场,傍晚,6.63
2024-08-14,鲁山国家森林公园,118.048565,36.309523,其他,旅游景点,下午,7.74
2024-08-14,鲁山国家森林公园,118.048565,36.309523,其他,旅游景点,凌晨,3.31
2024-08-14,张店区莲池学校,118.031351,36.830007,其他,学校,下午,6.47
2024-08-14,金岭清真寺,118.200501,36.799141,其他,旅游景点,晚上,2.8
2024-08-14,金岭清真寺,118.200501,36.799141,其他,旅游景点,中午,4.88
2024-08-14,八月美食小馆(银泰时代广场店),118.035926,36.849517,其他,餐饮,中午,3.92
2024-08-14,八月美食小馆(银泰时代广场店),118.035926,36.849517,其他,餐饮,下午,5.74
2024-08-14,鲁泰文苑动物园,117.99668,36.64233,其他,公园,傍晚,6.98
2024-08-14,鲁泰文苑动物园,117.99668,36.64233,其他,公园,中午,7.05
2024-08-15,北大医疗鲁中医院体检,118.312396,36.818181,其他,医院,下午,6.01
2024-08-15,韶韵广场,117.98443,36.792311,其他,公园,上午,4.98
2024-08-15,威斯曼健身搏击俱乐部(百脑汇店),118.048142,36.802401,其他,体育场馆,傍晚,3.72
2024-08-15,李二鲜鱼火锅,118.311561,36.821384,其他,餐饮,下午,4.8
2024-08-15,李二鲜鱼火锅,118.311561,36.821384,其他,餐饮,晚上,5.81
2024-08-15,山东淄博新元学校,118.053855,36.819376,其他,学校,上午,6.18
2024-08-15,淄博市中心医院西院区住院五部,117.973382,36.811715,其他,医院,晚上,5.05
2024-08-15,面对面喜事汇,117.977589,36.640925,其他,餐饮,上午,4.92
2024-08-15,面对面喜事汇,117.977589,36.640925,其他,餐饮,中午,5.75
2024-08-15,AS Fitness健身馆,118.055871,36.841907,其他,体育场馆,上午,6.75
2024-08-15,AS Fitness健身馆,118.055871,36.841907,其他,体育场馆,傍晚,6.23
2024-08-15,翊炀羽毛球馆,117.933706,36.811639,其他,体育场馆,上午,8.09
2024-08-15,九合台球俱乐部(凤阳大厦店),118.042796,36.801969,其他,体育场馆,深夜,4.22
2024-08-15,淄博少海医院,118.090097,36.958442,其他,医院,傍晚,5.58
2024-08-15,淄博少海医院,118.090097,36.958442,其他,医院,晚上,4.8
2024-08-15,华岩寺,117.842443,36.613711,其他,旅游景点,中午,6.5
2024-08-15,祥瑞园小学,118.010582,36.824284,其他,学校,上午,4.7
2024-08-15,祥瑞园小学,118.010582,36.824284,其他,学校,晚上,3.43
2024-08-15,V8乔氏台球,118.042351,36.815814,其他,体育场馆,凌晨,3.41
2024-08-15,石门景区,117.775426,36.53953,其他,旅游景点,傍晚,5.17
2024-08-15,淄博世纪英才外语学校,118.065,36.842399,其他,学校,凌晨,2.22
2024-08-15,淄博世纪英才外语学校,118.065,36.842399,其他,学校,中午,6.31
2024-08-15,淘宝商城(鲁中国际商贸城店),117.953475,36.641625,其他,商场,凌晨,3.53
2024-08-15,淘宝商城(鲁中国际商贸城店),117.953475,36.641625,其他,商场,傍晚,4.37
2024-08-15,斐塔咖啡(齐都国际商务大厦A座北),118.315255,36.824468,其他,餐饮,凌晨,5.32
2024-08-15,莲池法治文化公园,118.03423,36.823497,其他,公园,中午,4.75
2024-08-15,莲池法治文化公园,118.03423,36.823497,其他,公园,下午,5.28
2024-08-15,包子客牛肉汤包(金乔社区北区店),118.070925,36.817875,其他,餐饮,深夜,6.09
2024-08-15,桓台县渔洋中学,118.103492,36.947909,其他,学校,傍晚,6.5
2024-08-15,大角牛烩牛肉(十七中北街店),118.035349,36.811637,其他,餐饮,下午,5.34
2024-08-15,大角牛烩牛肉(十七中北街店),118.035349,36.811637,其他,餐饮,中午,3.83
2024-08-15,淄博柳泉中学,117.977727,36.819203,其他,学校,下午,4.14
2024-08-15,淄博柳泉中学,117.977727,36.819203,其他,学校,上午,7.19
2024-08-15,凯悦西餐厅(淄博黄金国际店),118.031764,36.823767,其他,餐饮,中午,4.19
2024-08-15,民法典主题公园,117.828674,36.796596,其他,公园,中午,4.82
2024-08-15,民法典主题公园,117.828674,36.796596,其他,公园,凌晨,2.96
2024-08-15,齐林公园,118.062031,36.860615,其他,公园,上午,7.31
2024-08-15,齐林公园,118.062031,36.860615,其他,公园,中午,5.95
2024-08-15,食香阁(广青路店),117.694597,37.179924,其他,餐饮,晚上,5.78
2024-08-15,食香阁(广青路店),117.694597,37.179924,其他,餐饮,傍晚,5.63
2024-08-15,立碑山游园,117.851301,36.507937,其他,旅游景点,深夜,4.76
2024-08-15,鑫群购物中心超市,118.196422,36.800932,其他,商场,傍晚,3.69
2024-08-15,淄博市张店区傅家镇卫生院,118.000376,36.761537,其他,医院,傍晚,5.99
2024-08-15,法王院,118.032929,36.713602,其他,旅游景点,上午,5.4
2024-08-15,法王院,118.032929,36.713602,其他,旅游景点,凌晨,3.63
2024-08-15,文昌湖省级旅游度假区,117.868352,36.692256,其他,旅游景点,凌晨,3.68
2024-08-15,文昌湖省级旅游度假区,117.868352,36.692256,其他,旅游景点,上午,4.54
2024-08-15,临淄实验中学,118.281588,36.817591,其他,学校,傍晚,4.85
2024-08-15,淄博市周村区第一中学(东校区),117.838026,36.791925,其他,学校,晚上,3.82
2024-08-15,淄博市周村区第一中学(东校区),117.838026,36.791925,其他,学校,中午,6.36
2024-08-15,爱国文体广场,117.837447,36.787943,其他,公园,中午,6.19
2024-08-15,卧虎山森林公园,117.795732,36.597132,其他,公园,上午,7.33
2024-08-15,金陵寺,118.200509,36.924832,其他,旅游景点,下午,4.95
2024-08-15,齐悦实验小学,117.980875,36.813464,其他,学校,上午,8.0
2024-08-15,淄博星空台球(水晶街店),118.003627,36.816338,其他,体育场馆,傍晚,4.84
2024-08-15,淄博星空台球(水晶街店),118.003627,36.816338,其他,体育场馆,深夜,3.97
2024-08-15,南庙,117.987152,36.619724,其他,旅游景点,上午,5.15
2024-08-15,张店区齐润小学,118.002303,36.81991,其他,学校,深夜,6.12
2024-08-15,西边有个院,117.982107,36.830791,其他,旅游景点,凌晨,3.17
2024-08-15,高青县实验中学,117.819735,37.165726,其他,学校,傍晚,6.41
2024-08-15,淄博四季青医院,118.041428,36.828633,其他,医院,傍晚,6.94
2024-08-15,鸿巢老年病医院,118.068017,36.919936,其他,医院,傍晚,7.78
2024-08-15,二郎庙,118.054265,36.426773,其他,旅游景点,晚上,5.99
2024-08-15,莲花庵,118.077052,36.684369,其他,旅游景点,下午,4.89
2024-08-15,八月美食小馆(银泰时代广场店),118.035926,36.849517,其他,餐饮,深夜,6.14
2024-08-15,八月美食小馆(银泰时代广场店),118.035926,36.849517,其他,餐饮,下午,7.12
2024-08-15,博山羽毛球运动中心,117.832353,36.514638,其他,体育场馆,上午,5.95
2024-08-15,博山羽毛球运动中心,117.832353,36.514638,其他,体育场馆,深夜,4.02
2024-08-15,礼拜堂,118.121455,36.962463,其他,旅游景点,下午,6.14
2024-08-15,张相湖湿地公园,117.970065,36.670286,其他,公园,上午,5.96
2024-08-15,李家村四德文化广场,117.959985,36.76604,其他,公园,下午,5.54
2024-08-15,李家村四德文化广场,117.959985,36.76604,其他,公园,傍晚,5.46
2024-08-15,淄江社区卫生服务中心,118.335599,36.814881,其他,医院,上午,5.91
2024-08-15,皇后餐厅,118.036899,36.850457,其他,餐饮,凌晨,4.94
2024-08-15,皇后餐厅,118.036899,36.850457,其他,餐饮,下午,4.87
2024-08-15,思迈健身会所(山东新星集团新星商厦店),118.023065,36.781464,其他,体育场馆,凌晨,1.68
2024-08-15,临淄区雪宫中学,118.302392,36.815593,其他,学校,晚上,3.43
2024-08-15,临淄区雪宫中学,118.302392,36.815593,其他,学校,中午,7.25
2024-08-15,茂岭公园,117.914827,36.480506,其他,公园,中午,5.33
2024-08-15,茂岭公园,117.914827,36.480506,其他,公园,上午,5.52
2024-08-15,曼巴台球俱乐部(兴桓路店),118.099896,36.953136,其他,体育场馆,傍晚,7.48
2024-08-15,淄博职业技术大学西校区,117.92047,36.836555,其他,学校,中午,5.2
2024-08-15,淄博职业技术大学西校区,117.92047,36.836555,其他,学校,凌晨,3.04
2024-08-15,天香公园,117.852515,36.813338,其他,公园,深夜,5.68
2024-08-15,泉龙大酒店,117.977532,36.651991,其他,餐饮,晚上,6.36
2024-08-15,重庆石锅鱼,118.001048,36.803795,其他,餐饮,下午,5.02
2024-08-15,湘满天下(沿河西路店),118.152484,36.191022,其他,餐饮,凌晨,3.29
2024-08-15,湘满天下(沿河西路店),118.152484,36.191022,其他,餐饮,上午,6.03
2024-08-15,山东省淄博第十一中学,118.058549,36.850697,其他,学校,凌晨,2.13
2024-08-15,山东沂源二中,118.149219,36.17686,其他,学校,凌晨,4.61
2024-08-15,马莲台风景区,118.347879,36.774682,其他,旅游景点,傍晚,4.41
2024-08-15,昆仑广场,117.91394,36.581689,其他,公园,上午,6.23
2024-08-15,临淄一中,118.313495,36.812152,其他,学校,晚上,4.97
2024-08-15,临淄一中,118.313495,36.812152,其他,学校,中午,5.65
2024-08-16,淄博张店建桥实验学校,118.031465,36.820234,其他,学校,凌晨,4.19
2024-08-16,六禾烧烤(尹家湾),117.844345,36.804193,其他,餐饮,下午,7.48
2024-08-16,六禾烧烤(尹家湾),117.844345,36.804193,其他,餐饮,上午,6.93
2024-08-16,博山区博山镇中心卫生院,117.963515,36.382327,其他,医院,中午,5.88
2024-08-16,汇达台球俱乐部,118.006687,36.816106,其他,体育场馆,下午,6.18
2024-08-16,汇达台球俱乐部,118.006687,36.816106,其他,体育场馆,傍晚,5.07
2024-08-16,淄博市张店区和平喷泉公园,117.970292,36.802271,其他,公园,深夜,5.34
2024-08-16,淄博市张店区和平喷泉公园,117.970292,36.802271,其他,公园,凌晨,2.25
2024-08-16,老鸭汤,118.022446,36.76349,其他,餐饮,上午,6.82
2024-08-16,炒米山生态风景区,118.131667,36.762922,其他,旅游景点,傍晚,5.39
2024-08-16,野香蕉团课健身,118.078014,36.816783,其他,体育场馆,下午,7.65
2024-08-16,淄博潭溪山旅游区,118.206054,36.497949,其他,旅游景点,上午,5.32
2024-08-16,淄博潭溪山旅游区,118.206054,36.497949,其他,旅游景点,凌晨,3.89
2024-08-16,张店区特殊教育中心学校,118.052517,36.797538,其他,学校,上午,8.06
2024-08-16,凯悦西餐厅(淄博黄金国际店),118.031764,36.823767,其他,餐饮,深夜,5.49
2024-08-16,倔老头牛肉糁(银泰城店),118.033738,36.850051,其他,餐饮,上午,6.32
2024-08-16,倔老头牛肉糁(银泰城店),118.033738,36.850051,其他,餐饮,凌晨,3.82
2024-08-16,潮庭健身(欧丽洛雅店),118.011354,36.828545,其他,体育场馆,下午,5.35
2024-08-16,梓潼关,117.887834,36.71048,其他,旅游景点,凌晨,4.38
2024-08-16,张店区柳泉小学,118.049946,36.827302,其他,学校,上午,5.72
2024-08-16,青年公园,118.040537,36.760851,其他,公园,凌晨,3.37
2024-08-16,青年公园,118.040537,36.760851,其他,公园,深夜,4.22
2024-08-16,山东清源集团医院,118.210773,36.80142,其他,医院,凌晨,2.83
2024-08-16,山东清源集团医院,118.210773,36.80142,其他,医院,傍晚,5.79
2024-08-16,瀑布,117.902384,36.416951,其他,旅游景点,傍晚,4.88
2024-08-16,桉树披萨(淄川店),117.976008,36.644428,其他,餐饮,晚上,2.55
2024-08-16,牛记庵古村落,117.808905,36.579246,其他,旅游景点,下午,4.17
2024-08-16,牛记庵古村落,117.808905,36.579246,其他,旅游景点,傍晚,5.64
2024-08-16,淄博市技师学院经开校区,118.051685,36.770831,其他,学校,中午,6.62
2024-08-16,金太阳商场,118.166734,36.185648,其他,商场,深夜,4.1
2024-08-16,兴隆灌汤蒸包(东关店),117.97786,36.647169,其他,餐饮,下午,4.26
2024-08-16,华盛商厦,117.829677,37.171987,其他,商场,晚上,6.54
2024-08-16,张店区第二人民医院24小时急救,118.026441,36.803357,其他,医院,晚上,4.82
2024-08-16,利群时代(柳泉路店),118.047509,36.801921,其他,商场,晚上,3.69
2024-08-16,淄博市中医医院老院区,117.850347,36.801442,其他,医院,上午,5.95
2024-08-16,淄博光正公司医院,117.947288,36.6059,其他,医院,下午,7.09
2024-08-16,观音古寺,118.161694,36.365494,其他,旅游景点,下午,7.46
2024-08-16,观音古寺,118.161694,36.365494,其他,旅游景点,晚上,3.67
2024-08-16,金甫庄园(前进居民生活区西),117.820195,36.801265,其他,餐饮,深夜,4.97
2024-08-16,金甫庄园(前进居民生活区西),117.820195,36.801265,其他,餐饮,凌晨,3.62
2024-08-16,淄博高新区外国语学校,118.124979,36.830867,其他,学校,晚上,4.45
2024-08-16,枫山禅院,118.210212,36.455976,其他,旅游景点,凌晨,3.91
2024-08-16,淄博市博山区人民医院,117.861781,36.512727,其他,医院,深夜,4.57
2024-08-16,淄博市博山区人民医院,117.861781,36.512727,其他,医院,中午,5.02
2024-08-16,淦河公园,117.829743,36.808721,其他,公园,晚上,5.47
2024-08-16,黑旺船头山白云观,118.205816,36.621873,其他,旅游景点,上午,6.37
2024-08-16,合易泓拌饭,118.051176,36.805032,其他,餐饮,凌晨,4.12
2024-08-16,合易泓拌饭,118.051176,36.805032,其他,餐饮,晚上,6.51
2024-08-16,临淄区齐都中心卫生院,118.350312,36.854112,其他,医院,凌晨,2.82
2024-08-16,淄博少海医院,118.090097,36.958442,其他,医院,下午,4.67
2024-08-16,淄博少海医院,118.090097,36.958442,其他,医院,中午,7.05
2024-08-16,淄博市中心医院南病房楼,118.052622,36.807439,其他,医院,上午,5.94
2024-08-16,淄博市中心医院南病房楼,118.052622,36.807439,其他,医院,下午,6.73
2024-08-16,淄博恒太城(装修中),117.982957,36.823315,其他,商场,深夜,3.91
2024-08-16,品海蒸鲜(曦园店),118.00047,36.846274,其他,餐饮,上午,6.4
2024-08-16,品海蒸鲜(曦园店),118.00047,36.846274,其他,餐饮,中午,5.55
2024-08-16,中国课本博物馆,118.107847,36.831431,其他,文化场馆,晚上,4.72
2024-08-16,福门商城(特色街区·西冶街店),117.858483,36.495995,其他,商场,深夜,5.03
2024-08-16,福门商城(特色街区·西冶街店),117.858483,36.495995,其他,商场,傍晚,6.62
2024-08-16,潘南印巷,118.080566,36.80708,其他,餐饮,深夜,5.69
2024-08-16,鲁中商业博览城,118.222752,36.206168,其他,商场,凌晨,5.28
2024-08-16,鲁中商业博览城,118.222752,36.206168,其他,商场,下午,6.54
2024-08-16,淄博柳泉艺术学校,118.077172,36.813576,其他,学校,下午,5.53
2024-08-16,淄博柳泉艺术学校,118.077172,36.813576,其他,学校,中午,4.35
2024-08-16,长乐居酒楼(凯瑞安园店),118.020763,36.810163,其他,餐饮,傍晚,6.31
2024-08-16,长乐居酒楼(凯瑞安园店),118.020763,36.810163,其他,餐饮,下午,5.64
2024-08-16,高青县实验中学,117.819735,37.165726,其他,学校,中午,6.38
2024-08-16,高青县实验中学,117.819735,37.165726,其他,学校,上午,3.96
2024-08-16,懿仁堂中医院,117.867122,36.803059,其他,医院,傍晚,7.79
2024-08-16,爱国文体广场,117.837447,36.787943,其他,公园,中午,7.19
2024-08-16,爱国文体广场,117.837447,36.787943,其他,公园,傍晚,4.45
2024-08-16,蓝溪国际滑雪场(暂停营业),118.358638,36.781914,其他,体育场馆,凌晨,1.88
2024-08-16,蓝溪国际滑雪场(暂停营业),118.358638,36.781914,其他,体育场馆,下午,6.42
2024-08-16,张店区人民医院,118.072384,36.817652,其他,医院,上午,7.69
2024-08-16,张店区人民医院,118.072384,36.817652,其他,医院,中午,3.86
2024-08-16,马踏湖国家湿地公园,118.065484,37.06971,其他,旅游景点,上午,7.13
2024-08-16,鲁山国家森林公园-大雄宝殿,118.072669,36.297529,其他,旅游景点,傍晚,5.99
2024-08-16,大红门烧烤(店子村),117.992985,36.903908,其他,餐饮,深夜,4.17
2024-08-16,大红门烧烤(店子村),117.992985,36.903908,其他,餐饮,晚上,6.31
2024-08-16,漫巴台球,117.926954,36.83419,其他,体育场馆,深夜,5.34
2024-08-16,漫巴台球,117.926954,36.83419,其他,体育场馆,傍晚,7.95
2024-08-16,鲁中晨报,118.058442,36.837798,其他,文化场馆,晚上,5.12
2024-08-16,鲁中晨报,118.058442,36.837798,其他,文化场馆,上午,6.17
2024-08-16,淄博市体育中心综合体育馆,117.984612,36.814996,其他,体育场馆,晚上,4.07
2024-08-16,淄博市体育中心综合体育馆,117.984612,36.814996,其他,体育场馆,下午,7.29
2024-08-17,临淄青年学生抗日志愿军训团纪念碑,118.343774,36.856906,其他,旅游景点,上午,6.05
2024-08-17,上海商厦,117.956126,36.642076,其他,商场,傍晚,8.6
2024-08-17,枫山禅院,118.210212,36.455976,其他,旅游景点,深夜,4.46
2024-08-17,枫山禅院,118.210212,36.455976,其他,旅游景点,上午,6.81
2024-08-17,淄博国际会展中心,117.996092,36.790779,其他,文化场馆,晚上,5.16
2024-08-17,金百盛商场,117.854008,36.794975,其他,商场,下午,7.14
2024-08-17,金百盛商场,117.854008,36.794975,其他,商场,中午,5.63
2024-08-17,淄博人民公园,118.048798,36.810627,其他,公园,凌晨,5.63
2024-08-17,奕乐快餐烤肉拌饭鸡排饭(南苑绿洲社区店),118.02951,36.765167,其他,餐饮,晚上,5.47
2024-08-17,淄博市张店区南定中学,118.046504,36.742334,其他,学校,中午,6.04
2024-08-17,高青县中心路小学,117.835773,37.157631,其他,学校,中午,5.61
2024-08-17,兴隆灌汤蒸包(东关店),117.97786,36.647169,其他,餐饮,下午,7.88
2024-08-17,兴隆灌汤蒸包(东关店),117.97786,36.647169,其他,餐饮,凌晨,5.53
2024-08-17,临淄二中,118.304006,36.837102,其他,学校,晚上,3.6
2024-08-17,临淄二中,118.304006,36.837102,其他,学校,傍晚,6.89
2024-08-17,老字号段家煮锅(青年路店),117.84698,36.806725,其他,餐饮,晚上,5.59
2024-08-17,临淄区闻韶银山百货商场(方正2009小区店),118.331701,36.817583,其他,商场,上午,5.89
2024-08-17,临淄区闻韶银山百货商场(方正2009小区店),118.331701,36.817583,其他,商场,深夜,6.98
2024-08-17,临淄区道德主题公园,118.303875,36.819506,其他,公园,上午,5.26
2024-08-17,临淄区道德主题公园,118.303875,36.819506,其他,公园,下午,6.24
2024-08-17,机关医院,118.020029,36.83421,其他,医院,凌晨,4.88
2024-08-17,机关医院,118.020029,36.83421,其他,医院,深夜,6.5
2024-08-17,山东省淄博第六中学(总校区),117.826289,36.799133,其他,学校,深夜,5.52
2024-08-17,山东省淄博第六中学(总校区),117.826289,36.799133,其他,学校,凌晨,6.55
2024-08-17,圣元商厦,117.908667,37.038908,其他,商场,下午,7.27
2024-08-17,淄博市植物园,118.029484,36.792359,其他,公园,深夜,6.75
2024-08-17,淄博市植物园,118.029484,36.792359,其他,公园,凌晨,5.11
2024-08-17,六点水新世界,118.177816,36.196675,其他,公园,深夜,4.51
2024-08-17,六点水新世界,118.177816,36.196675,其他,公园,上午,4.72
2024-08-17,起凤中心卫生院,118.117231,37.056594,其他,医院,凌晨,4.63
2024-08-17,起凤中心卫生院,118.117231,37.056594,其他,医院,上午,5.44
2024-08-17,万隆大楼,117.849813,36.79747,其他,商场,下午,7.08
2024-08-17,淄川二中,117.978648,36.655917,其他,学校,中午,5.94
2024-08-17,淄川二中,117.978648,36.655917,其他,学校,傍晚,7.05
2024-08-17,博山区第一中学,117.848509,36.495344,其他,学校,中午,5.39
2024-08-17,淄博少海医院,118.090097,36.958442,其他,医院,凌晨,4.15
2024-08-17,淄博少海医院,118.090097,36.958442,其他,医院,傍晚,4.19
2024-08-17,张店区第九中学,118.022021,36.815689,其他,学校,深夜,4.04
2024-08-17,张店区第九中学,118.022021,36.815689,其他,学校,凌晨,5.78
2024-08-17,南庙,117.987152,36.619724,其他,旅游景点,晚上,6.0
2024-08-17,南庙,117.987152,36.619724,其他,旅游景点,下午,8.81
2024-08-17,桓台百货大楼,118.105923,36.958434,其他,商场,深夜,4.4
2024-08-17,桓台百货大楼,118.105923,36.958434,其他,商场,傍晚,5.02
2024-08-17,世纪花园-中心公园,118.020012,36.833157,其他,公园,晚上,5.88
2024-08-17,世纪花园-中心公园,118.020012,36.833157,其他,公园,凌晨,4.26
2024-08-17,鲁泰体育场,117.982651,36.639185,其他,体育场馆,上午,7.21
2024-08-17,鲁泰体育场,117.982651,36.639185,其他,体育场馆,中午,4.71
2024-08-17,淄博高新区石桥中心医院,118.045962,36.886421,其他,医院,凌晨,4.41
2024-08-17,淄博高新区石桥中心医院,118.045962,36.886421,其他,医院,傍晚,4.75
2024-08-17,淄博天誉佳惠购物广场,118.062769,36.916257,其他,商场,晚上,4.72
2024-08-17,茂业百货(商城店),118.319772,36.811152,其他,商场,凌晨,6.17
2024-08-17,新星商城,117.98305,36.665048,其他,商场,中午,5.52
2024-08-17,新星商城,117.98305,36.665048,其他,商场,上午,5.21
2024-08-17,张店区第三中学,118.05725,36.807199,其他,学校,傍晚,7.8
2024-08-17,齐林公园,118.062031,36.860615,其他,公园,凌晨,3.82
2024-08-17,体育场街道社区卫生服务中心,118.075983,36.814805,其他,医院,上午,5.56
2024-08-17,体育场街道社区卫生服务中心,118.075983,36.814805,其他,医院,深夜,5.94
2024-08-17,铁冶村文化广场,118.187361,36.841286,其他,公园,晚上,7.37
2024-08-17,铁冶村文化广场,118.187361,36.841286,其他,公园,傍晚,7.29
2024-08-17,俏神州大酒店,117.875879,36.507295,其他,餐饮,傍晚,7.82
2024-08-17,俏神州大酒店,117.875879,36.507295,其他,餐饮,凌晨,4.85
2024-08-17,壹玖健身会,117.979273,36.845252,其他,体育场馆,深夜,5.77
2024-08-17,壹玖健身会,117.979273,36.845252,其他,体育场馆,晚上,6.5
2024-08-17,淄川齐梦乐华梓潼山滑雪场,118.029397,36.667973,其他,体育场馆,中午,7.26
2024-08-17,遄台小学,118.321962,36.814051,其他,学校,凌晨,3.77
2024-08-17,众羽羽毛球馆,118.002165,36.786206,其他,体育场馆,傍晚,6.12
2024-08-17,816私教健身俱乐部(福园店),118.02634,36.8065,其他,体育场馆,深夜,6.81
2024-08-17,816私教健身俱乐部(福园店),118.02634,36.8065,其他,体育场馆,凌晨,4.1
2024-08-17,鑫动·路人王篮球公园,118.062437,36.839218,其他,体育场馆,凌晨,4.0
2024-08-17,鑫动·路人王篮球公园,118.062437,36.839218,其他,体育场馆,中午,5.84
2024-08-17,山东省桓台世纪中学,118.108796,36.959324,其他,学校,中午,5.61
2024-08-17,山东省桓台世纪中学,118.108796,36.959324,其他,学校,凌晨,6.11
2024-08-17,你好·普拉提·瑜伽,118.009241,36.842339,其他,体育场馆,中午,7.59
2024-08-17,优壹佳健身(东三路店),118.073359,36.797066,其他,体育场馆,傍晚,4.53
2024-08-17,优壹佳健身(东三路店),118.073359,36.797066,其他,体育场馆,凌晨,5.64
2024-08-17,山东药品食品职业学院淄博校区,118.030617,36.806068,其他,学校,下午,6.93
2024-08-17,银座商城(高青店),117.840226,37.164654,其他,商场,中午,4.99
2024-08-17,银座商城(高青店),117.840226,37.164654,其他,商场,晚上,7.21
2024-08-17,六点水法润自然主题公园,118.174965,36.199727,其他,公园,下午,6.97
2024-08-17,六点水法润自然主题公园,118.174965,36.199727,其他,公园,中午,6.28
2024-08-17,淄博高新区第一小学,118.070519,36.844717,其他,学校,深夜,6.5
2024-08-17,淄博高新区第一小学,118.070519,36.844717,其他,学校,下午,6.49
2024-08-17,万通商城,118.050558,36.803583,其他,商场,傍晚,5.86
2024-08-17,万通商城,118.050558,36.803583,其他,商场,凌晨,4.43
2024-08-17,朱台中学,118.248111,36.940042,其他,学校,凌晨,5.01
2024-08-17,朱台中学,118.248111,36.940042,其他,学校,傍晚,6.92
2024-08-17,东泰广场(茂业百货店),118.296674,36.81926,其他,商场,中午,4.8
2024-08-17,东泰广场(茂业百货店),118.296674,36.81926,其他,商场,上午,6.76
2024-08-17,淄博星空台球(水晶街店),118.003627,36.816338,其他,体育场馆,晚上,4.33
2024-08-17,沂源文化苑,118.158,36.191738,其他,公园,傍晚,5.69
2024-08-17,沂源文化苑,118.158,36.191738,其他,公园,凌晨,4.37
2024-08-17,铝城购物中心,118.045266,36.753116,其他,商场,晚上,6.18
2024-08-17,茂业百货(广场店),118.296332,36.819241,其他,商场,晚上,4.08
2024-08-17,茂业百货(广场店),118.296332,36.819241,其他,商场,中午,4.51
2024-08-17,齐长城遗址--风门道关,117.76158,36.517788,其他,旅游景点,下午,4.4
2024-08-17,齐长城遗址--风门道关,117.76158,36.517788,其他,旅游景点,中午,6.81
2024-08-17,小乔豆腐(富瑞特城市广场店),117.851204,36.807558,其他,餐饮,中午,6.62
2024-08-17,小乔豆腐(富瑞特城市广场店),117.851204,36.807558,其他,餐饮,傍晚,5.17
2024-08-17,高青县第二中学,117.826388,37.168863,其他,学校,深夜,6.5
2024-08-17,高青县第二中学,117.826388,37.168863,其他,学校,上午,5.6
2024-08-17,供销商场,118.048573,36.196962,其他,商场,晚上,6.43
2024-08-17,供销商场,118.048573,36.196962,其他,商场,傍晚,8.4
2024-08-17,淄博市张店区和平喷泉公园,117.970292,36.802271,其他,公园,晚上,5.68
2024-08-17,北极星羽毛球馆(新馆),118.273701,36.803555,其他,体育场馆,中午,7.13
2024-08-17,九号台球(银座商城店),117.840632,37.164546,其他,体育场馆,中午,6.3
2024-08-17,半天妖烤鱼(淄博沂源义乌新天地店),118.186794,36.192584,其他,餐饮,晚上,5.78
2024-08-17,漫巴台球,117.926954,36.83419,其他,体育场馆,傍晚,6.59
2024-08-17,众赢商城,118.053325,36.805784,其他,商场,傍晚,6.34
2024-08-17,中国体育彩票,117.959333,36.647242,其他,商场,深夜,3.75
2024-08-17,中国体育彩票,117.959333,36.647242,其他,商场,下午,4.92
2024-08-17,齐长城一线天,118.143592,36.43048,其他,旅游景点,中午,7.56
2024-08-17,齐长城一线天,118.143592,36.43048,其他,旅游景点,凌晨,5.77
2024-08-17,蟠龙山道观,118.142951,36.874787,其他,旅游景点,傍晚,6.57
2024-08-17,淄博淄川,117.961309,36.643502,其他,商场,中午,7.77
2024-08-17,淄博淄川,117.961309,36.643502,其他,商场,深夜,5.32
2024-08-17,莲池利群购物广场,118.036154,36.831436,其他,商场,凌晨,3.05
2024-08-17,威斯曼健身搏击俱乐部(百脑汇店),118.048142,36.802401,其他,体育场馆,凌晨,4.39
2024-08-17,威斯曼健身搏击俱乐部(百脑汇店),118.048142,36.802401,其他,体育场馆,中午,7.3
2024-08-17,正宗苗山炒鸡,117.834617,36.514924,其他,餐饮,深夜,6.13
2024-08-17,正宗苗山炒鸡,117.834617,36.514924,其他,餐饮,晚上,6.35
2024-08-17,邱氏瓜子干果老店(城里大街店),117.964129,36.646437,其他,餐饮,凌晨,4.76
2024-08-17,邱氏瓜子干果老店(城里大街店),117.964129,36.646437,其他,餐饮,深夜,7.1
2024-08-17,朱家村体育公园,117.969206,36.663327,其他,公园,上午,5.37
2024-08-17,周村古商城,117.841013,36.798378,其他,旅游景点,凌晨,4.63
2024-08-17,周村古商城,117.841013,36.798378,其他,旅游景点,傍晚,5.43
2024-08-17,如月湖湿地公园,117.892587,36.442721,其他,旅游景点,晚上,5.89
2024-08-17,如月湖湿地公园,117.892587,36.442721,其他,旅游景点,下午,7.11
2024-08-17,金太阳商场,118.166734,36.185648,其他,商场,深夜,6.72
2024-08-18,古茗(淄博实验中学店),118.005919,36.804433,其他,餐饮,上午,5.88
2024-08-18,广利来(步行街店),117.852554,36.80653,其他,餐饮,上午,4.85
2024-08-18,广利来(步行街店),117.852554,36.80653,其他,餐饮,下午,6.08
2024-08-18,旷野之息露营地,118.060419,36.903402,其他,体育场馆,下午,6.8
2024-08-18,山东淄博新元学校,118.053855,36.819376,其他,学校,下午,7.51
2024-08-18,山东淄博新元学校,118.053855,36.819376,其他,学校,傍晚,6.32
2024-08-18,夏庄小区广场,118.054937,36.766191,其他,公园,深夜,5.42
2024-08-18,凤凰山经济林生态观光区,118.136722,36.567543,其他,旅游景点,中午,4.01
2024-08-18,凤凰山经济林生态观光区,118.136722,36.567543,其他,旅游景点,深夜,2.54
2024-08-18,焦裕禄广场,117.862695,36.493876,其他,公园,晚上,5.65
2024-08-18,焦裕禄广场,117.862695,36.493876,其他,公园,傍晚,6.11
2024-08-18,东泰商厦(大顺路店),118.295805,36.816877,其他,商场,下午,7.96
2024-08-18,东泰商厦(大顺路店),118.295805,36.816877,其他,商场,深夜,5.69
2024-08-18,琉璃园,117.85809,36.497154,其他,旅游景点,傍晚,5.7
2024-08-18,泰客荣店(茂业百货泰客荣店),118.302933,36.813445,其他,商场,晚上,5.81
2024-08-18,泰客荣店(茂业百货泰客荣店),118.302933,36.813445,其他,商场,傍晚,6.55
2024-08-18,淄川体育公园,117.975396,36.63122,其他,公园,深夜,4.25
2024-08-18,九合台球俱乐部(凤阳大厦店),118.042796,36.801969,其他,体育场馆,中午,7.61
2024-08-18,谈小娱24h自助台球(水晶街店),118.005781,36.81618,其他,体育场馆,深夜,4.15
2024-08-18,淄博职业技术大学北校区,117.932961,36.836518,其他,学校,晚上,5.56
2024-08-18,淄博职业技术大学北校区,117.932961,36.836518,其他,学校,上午,7.81
2024-08-18,清梅居食品厂(白虎店),117.851202,36.499334,其他,餐饮,傍晚,7.08
2024-08-18,缘梦购物岛,118.01843,36.785623,其他,商场,深夜,5.5
2024-08-18,一家亲海鲜酒店(王舍路店),118.013831,36.791466,其他,餐饮,傍晚,6.17
2024-08-18,世博高新医院营养中心,118.105384,36.829265,其他,医院,中午,6.17
2024-08-18,世博高新医院营养中心,118.105384,36.829265,其他,医院,晚上,5.03
2024-08-18,黄桑别院,118.025778,36.812851,其他,餐饮,晚上,6.27
2024-08-18,黄桑别院,118.025778,36.812851,其他,餐饮,凌晨,5.14
2024-08-18,观音庙,118.054502,36.618347,其他,旅游景点,中午,4.15
2024-08-18,鸿祥名品商厦,117.850395,36.79784,其他,商场,傍晚,5.93
2024-08-18,鸿祥名品商厦,117.850395,36.79784,其他,商场,上午,4.77
2024-08-18,淄博市中心医院住院一部,117.975604,36.809321,其他,医院,凌晨,6.11
2024-08-18,淄博市中心医院住院一部,117.975604,36.809321,其他,医院,中午,5.91
2024-08-18,牵电医院,118.077809,36.802433,其他,医院,傍晚,5.46
2024-08-18,山东省淄博第一中学,117.857863,36.507922,其他,学校,中午,5.65
2024-08-18,临淄蹴鞠小镇,118.371823,36.805196,其他,体育场馆,凌晨,6.65
2024-08-18,周村区市南路小学,117.854538,36.788305,其他,学校,晚上,7.33
2024-08-18,lv台球器材店,118.023503,36.793153,其他,体育场馆,深夜,4.16
2024-08-18,食香阁(广青路店),117.694597,37.179924,其他,餐饮,上午,5.25
2024-08-18,梓橦山滑雪场,118.028732,36.666134,其他,体育场馆,下午,7.51
2024-08-18,梓橦山滑雪场,118.028732,36.666134,其他,体育场馆,深夜,6.71
2024-08-18,六点水新世界,118.177816,36.196675,其他,公园,中午,7.9
2024-08-18,大自然庄园,118.300918,36.859325,其他,餐饮,傍晚,4.55
2024-08-18,大自然庄园,118.300918,36.859325,其他,餐饮,中午,7.0
2024-08-18,高青唐坊供销社,117.960948,37.183155,其他,商场,晚上,4.67
2024-08-18,原山国家森林公园-吕祖庙,117.83522,36.478136,其他,旅游景点,下午,5.31
2024-08-18,原山国家森林公园-吕祖庙,117.83522,36.478136,其他,旅游景点,凌晨,4.91
2024-08-18,湖田小学,118.113527,36.789104,其他,学校,下午,5.31
2024-08-18,老何牛肉面,118.186653,36.768356,其他,餐饮,晚上,4.23
2024-08-18,金城商厦(巴黎假日·步行街店),117.853002,36.797435,其他,商场,下午,6.47
2024-08-18,金城商厦(巴黎假日·步行街店),117.853002,36.797435,其他,商场,中午,5.72
2024-08-18,又一村上善坊大酒店,118.064212,36.814454,其他,餐饮,凌晨,3.42
2024-08-18,太公湖公园,118.364861,36.810869,其他,公园,凌晨,5.3
2024-08-18,太公湖公园,118.364861,36.810869,其他,公园,上午,6.72
2024-08-18,临淄北站站前广场,118.34047,36.904714,其他,公园,晚上,6.18
2024-08-18,白石洞旅游风景区,117.819342,36.515991,其他,旅游景点,中午,7.69
2024-08-18,白石洞旅游风景区,117.819342,36.515991,其他,旅游景点,深夜,2.95
2024-08-18,人和广场,117.970509,36.679533,其他,公园,上午,6.65
2024-08-18,人和广场,117.970509,36.679533,其他,公园,下午,7.74
2024-08-18,银座新天地(银座购物广场),117.961975,36.650175,其他,商场,下午,7.09
2024-08-18,银座新天地(银座购物广场),117.961975,36.650175,其他,商场,傍晚,6.17
2024-08-18,淄川仁和医院,117.764695,36.652712,其他,医院,傍晚,7.44
2024-08-18,淄川仁和医院,117.764695,36.652712,其他,医院,深夜,6.17
2024-08-18,TT台球俱乐部,117.97484,36.639349,其他,体育场馆,下午,5.63
2024-08-18,影私空间(淄博王府井广场店),118.051466,36.8059,其他,餐饮,深夜,6.04
2024-08-18,影私空间(淄博王府井广场店),118.051466,36.8059,其他,餐饮,上午,6.54
2024-08-18,鸿巢老年病医院,118.068017,36.919936,其他,医院,深夜,3.41
2024-08-18,鸿巢老年病医院,118.068017,36.919936,其他,医院,凌晨,5.05
2024-08-18,中共沂源县委党校,118.19505,36.201654,其他,学校,晚上,6.09
2024-08-18,谈小娱24h自助台球(迎春街店),118.060762,36.826108,其他,体育场馆,傍晚,6.98
2024-08-18,谈小娱24h自助台球(迎春街店),118.060762,36.826108,其他,体育场馆,上午,7.22
2024-08-18,碧霞祠,118.117578,36.822273,其他,旅游景点,中午,7.99
2024-08-18,曹一村法治文化广场,118.098433,36.839591,其他,公园,晚上,3.98
2024-08-18,铁锅砖家·正宗东北铁锅炖(名士豪庭店),118.053772,36.85251,其他,餐饮,傍晚,6.67
2024-08-18,铁锅砖家·正宗东北铁锅炖(名士豪庭店),118.053772,36.85251,其他,餐饮,深夜,5.03
2024-08-18,山铝植物园,118.04532,36.754336,其他,公园,深夜,6.89
2024-08-18,张店区南定镇卫生院,118.04596,36.745646,其他,医院,中午,7.43
2024-08-18,张店区南定镇卫生院,118.04596,36.745646,其他,医院,凌晨,5.14
2024-08-18,桓台县渔洋中学,118.103492,36.947909,其他,学校,中午,6.58
2024-08-18,桓台县渔洋中学,118.103492,36.947909,其他,学校,深夜,4.51
2024-08-18,北大医疗鲁中医院,118.311811,36.817841,其他,医院,深夜,3.3
2024-08-18,北大医疗鲁中医院,118.311811,36.817841,其他,医院,凌晨,6.51
2024-08-18,良家健身(沂源店),118.18579,36.193686,其他,体育场馆,下午,5.18
2024-08-18,金山镇文体公园,118.244215,36.735747,其他,公园,凌晨,3.09
2024-08-18,金山镇文体公园,118.244215,36.735747,其他,公园,上午,5.74
2024-08-18,农家木火炖,118.072517,36.85467,其他,餐饮,上午,5.68
2024-08-18,农家木火炖,118.072517,36.85467,其他,餐饮,凌晨,3.35
2024-08-18,万杰朝阳学校,117.852329,36.544411,其他,学校,晚上,7.35
2024-08-18,XIK酷点台球俱乐部,118.104709,36.958861,其他,体育场馆,中午,5.48
2024-08-18,XIK酷点台球俱乐部,118.104709,36.958861,其他,体育场馆,下午,8.49
2024-08-18,方正帝王商场,118.299215,36.813297,其他,商场,深夜,4.05
2024-08-18,寇氏游泳健身馆,118.339486,36.814335,其他,体育场馆,晚上,5.83
2024-08-18,零度台球,118.300082,36.813906,其他,体育场馆,凌晨,4.55
2024-08-18,零度台球,118.300082,36.813906,其他,体育场馆,下午,7.18
2024-08-18,淄博市中西医结合医院体检,118.058868,36.79356,其他,医院,傍晚,6.9
2024-08-18,淄博市中西医结合医院体检,118.058868,36.79356,其他,医院,深夜,5.0
2024-08-18,东方实验学校,118.078156,36.821028,其他,文化场馆,下午,7.64
2024-08-18,淄博宝鑫新经典学校,118.100999,36.818062,其他,学校,凌晨,4.57
2024-08-18,淄博世纪英才外语学校,118.065,36.842399,其他,学校,上午,6.89
2024-08-18,加能健身,118.038489,36.84893,其他,体育场馆,中午,6.59
2024-08-18,山格洞中韩料理餐厅,117.845718,36.80366,其他,餐饮,深夜,5.17
2024-08-18,山格洞中韩料理餐厅,117.845718,36.80366,其他,餐饮,中午,6.37
2024-08-18,翕善堂博山菜(金桥商务中心店),118.073342,36.817548,其他,餐饮,凌晨,6.06
2024-08-18,临淄中国古车博物馆,118.387478,36.83655,其他,文化场馆,下午,7.82
2024-08-18,八宝灵山寺,118.125937,36.352686,其他,旅游景点,凌晨,4.15
2024-08-18,八宝灵山寺,118.125937,36.352686,其他,旅游景点,傍晚,4.81
2024-08-18,淄博市黉山风景名胜旅游区,118.033871,36.659632,其他,旅游景点,深夜,5.49
2024-08-18,淄博市黉山风景名胜旅游区,118.033871,36.659632,其他,旅游景点,中午,3.64
2024-08-18,凯瑞小学,118.014388,36.810389,其他,学校,深夜,5.43
2024-08-18,凯瑞小学,118.014388,36.810389,其他,学校,中午,5.81
2024-08-18,爵士西餐厅,118.084765,36.95831,其他,餐饮,中午,8.13
2024-08-18,张店区兴学街小学,118.054491,36.794399,其他,学校,下午,8.23
2024-08-18,张店区兴学街小学,118.054491,36.794399,其他,学校,晚上,3.45
2024-08-18,小牛一杆台球俱乐部,117.86223,36.497585,其他,体育场馆,中午,6.48
2024-08-18,北极星羽毛球馆(新馆),118.273701,36.803555,其他,体育场馆,下午,4.74
2024-08-18,海鸥ZONE健身工作室,117.866042,36.822629,其他,体育场馆,凌晨,2.94
2024-08-19,齐盛湖公园北门办公区,117.988034,36.844019,其他,公园,中午,4.81
2024-08-19,第五季·玩库商业中心(博山旗舰店),117.859289,36.49598,其他,商场,傍晚,6.01
2024-08-19,第五季·玩库商业中心(博山旗舰店),117.859289,36.49598,其他,商场,中午,5.67
2024-08-19,恒泰游泳健身会馆,117.855636,36.479015,其他,体育场馆,中午,4.4
2024-08-19,进无止境台球俱乐部,117.99665,36.7996,其他,体育场馆,上午,5.53
2024-08-19,进无止境台球俱乐部,117.99665,36.7996,其他,体育场馆,中午,3.71
2024-08-19,淄博市市立医院,118.306982,36.813461,其他,医院,傍晚,5.94
2024-08-19,淄博市市立医院,118.306982,36.813461,其他,医院,下午,5.28
2024-08-19,乐华滋披萨(振兴路店),118.163299,36.186017,其他,餐饮,中午,5.18
2024-08-19,乐华滋披萨(振兴路店),118.163299,36.186017,其他,餐饮,上午,6.76
2024-08-19,张店儿童公园,118.071556,36.801765,其他,公园,中午,4.66
2024-08-19,金银山公园,118.053645,36.424029,其他,公园,晚上,3.2
2024-08-19,金银山公园,118.053645,36.424029,其他,公园,傍晚,6.59
2024-08-19,天乙篮球公园,118.003703,36.85128,其他,体育场馆,中午,5.25
2024-08-19,英才中学,118.302649,36.793456,其他,学校,深夜,3.88
2024-08-19,英才中学,118.302649,36.793456,其他,学校,晚上,4.35
2024-08-19,华润实验小学,118.064116,36.801975,其他,学校,深夜,5.86
2024-08-19,萌水中学,117.910734,36.726563,其他,学校,上午,5.23
2024-08-19,萌水中学,117.910734,36.726563,其他,学校,中午,5.49
2024-08-19,灵芝洞,118.079323,36.267212,其他,旅游景点,中午,3.81
2024-08-19,灵芝洞,118.079323,36.267212,其他,旅游景点,深夜,4.74
2024-08-19,凤凰山公园,117.838883,36.741488,其他,公园,上午,4.31
2024-08-19,中共淄博市委党校,117.922033,36.847674,其他,学校,中午,4.29
