日期,地点名称,经度,纬度,区域,类型,时间段,情绪值
2024-06-01,正宗苗山炒鸡,117.834617,36.514924,其他,餐饮,傍晚,7.03
2024-06-01,淄博市中西医结合医院体检,118.058868,36.79356,其他,医院,凌晨,2.93
2024-06-01,淄博市中西医结合医院体检,118.058868,36.79356,其他,医院,上午,5.45
2024-06-01,银座商城超市(柳泉路店),118.050484,36.805618,其他,商场,晚上,3.4
2024-06-01,管仲纪念馆,118.351952,36.793594,其他,旅游景点,凌晨,5.1
2024-06-01,志速城市滑雪空间(淄博万象汇),118.061233,36.80143,其他,体育场馆,深夜,5.66
2024-06-01,天香公园,117.852515,36.813338,其他,公园,晚上,7.21
2024-06-01,千佛寺,117.84068,36.801278,其他,旅游景点,上午,6.97
2024-06-01,千佛寺,117.84068,36.801278,其他,旅游景点,傍晚,5.69
2024-06-01,利群集团淄博购物广场,118.060455,36.800429,其他,商场,深夜,5.03
2024-06-01,利群集团淄博购物广场,118.060455,36.800429,其他,商场,上午,6.94
2024-06-01,龙二村文化广场,117.98276,36.579372,其他,公园,晚上,4.72
2024-06-01,山东煤炭技术学院,117.985255,36.635242,其他,学校,中午,7.38
2024-06-01,山东煤炭技术学院,117.985255,36.635242,其他,学校,晚上,3.22
2024-06-01,淄博市淄川区淄河镇卫生院,118.085237,36.483345,其他,医院,中午,3.73
2024-06-01,Mr.Sun凉皮铺子(天隆购物广场店),117.861202,36.503338,其他,餐饮,深夜,6.57
2024-06-01,淄博北站南广场,118.02671,36.893317,其他,公园,深夜,3.41
2024-06-01,淄博北站南广场,118.02671,36.893317,其他,公园,下午,5.79
2024-06-01,彩世界精品皮草广场,118.029104,36.822275,其他,商场,上午,7.13
2024-06-01,圣佛山圣佛寺,118.215772,36.651906,其他,旅游景点,下午,7.2
2024-06-01,临淄区凤凰中心卫生院,118.231515,36.882201,其他,医院,下午,8.09
2024-06-01,动力100游泳健身会所(银泰城店),118.036422,36.848499,其他,体育场馆,晚上,6.32
2024-06-01,动力100游泳健身会所(银泰城店),118.036422,36.848499,其他,体育场馆,下午,6.32
2024-06-01,茂业百货-北区,118.296237,36.819238,其他,商场,深夜,3.57
2024-06-01,茂业百货-北区,118.296237,36.819238,其他,商场,中午,5.66
2024-06-01,银座中心店2期,118.049828,36.804971,其他,商场,晚上,6.0
2024-06-01,银座中心店2期,118.049828,36.804971,其他,商场,下午,7.75
2024-06-01,中铝党校,118.047129,36.756803,其他,学校,傍晚,4.83
2024-06-01,中铝党校,118.047129,36.756803,其他,学校,深夜,6.37
2024-06-01,临淄足球博物馆,118.367909,36.813655,其他,文化场馆,中午,4.7
2024-06-01,萌山水库公园,117.861283,36.697633,其他,公园,中午,4.45
2024-06-01,萌山水库公园,117.861283,36.697633,其他,公园,凌晨,3.76
2024-06-01,沂源鲁山溶洞群景区,118.040261,36.298894,其他,旅游景点,晚上,6.53
2024-06-01,沂源鲁山溶洞群景区,118.040261,36.298894,其他,旅游景点,中午,5.91
2024-06-01,雁阳小学,118.001471,36.653546,其他,学校,晚上,5.45
2024-06-01,雁阳小学,118.001471,36.653546,其他,学校,中午,6.26
2024-06-01,高青县革命历史纪念馆,117.792837,37.182566,其他,旅游景点,深夜,4.93
2024-06-01,7+健身·普拉提工作室,117.993385,36.822541,其他,体育场馆,深夜,4.28
2024-06-01,淄博延强医院,117.944326,36.665657,其他,医院,下午,6.26
2024-06-01,淄博延强医院,117.944326,36.665657,其他,医院,傍晚,5.76
2024-06-01,淦河公园,117.829743,36.808721,其他,公园,傍晚,6.92
2024-06-01,淦河公园,117.829743,36.808721,其他,公园,凌晨,2.7
2024-06-01,桓台县红莲湖学校,118.067082,36.942338,其他,学校,上午,6.82
2024-06-01,山东沂源二中,118.149219,36.17686,其他,学校,凌晨,3.06
2024-06-01,山东沂源二中,118.149219,36.17686,其他,学校,中午,6.34
2024-06-01,万杰朝阳学校,117.852329,36.544411,其他,学校,深夜,5.64
2024-06-01,鲁中安全生产考试中心,118.125613,36.838574,其他,文化场馆,下午,6.97
2024-06-01,鲁中安全生产考试中心,118.125613,36.838574,其他,文化场馆,中午,5.9
2024-06-01,张店区铁路小学,118.039572,36.790786,其他,学校,下午,4.52
2024-06-01,张店区铁路小学,118.039572,36.790786,其他,学校,晚上,5.05
2024-06-01,淄博化建医院,118.233028,36.735297,其他,医院,上午,7.69
2024-06-01,临淄区金岭卫生院,118.191787,36.798419,其他,医院,晚上,5.75
2024-06-01,星小奥少儿运动馆(福园校区),118.027301,36.808121,其他,体育场馆,傍晚,6.41
2024-06-01,十六台球器材,118.284746,36.814537,其他,体育场馆,深夜,4.84
2024-06-01,十六台球器材,118.284746,36.814537,其他,体育场馆,下午,7.04
2024-06-01,鸿泰医院,117.836937,36.797978,其他,医院,中午,6.74
2024-06-01,鸿泰医院,117.836937,36.797978,其他,医院,凌晨,4.39
2024-06-01,淄博市技师学院,118.028709,36.819372,其他,学校,深夜,4.63
2024-06-01,淄博市技师学院,118.028709,36.819372,其他,学校,中午,7.33
2024-06-01,岁月烧烤,117.867159,36.816672,其他,餐饮,中午,7.1
2024-06-01,淄博人民公园,118.048798,36.810627,其他,公园,傍晚,5.68
2024-06-01,淄博人民公园,118.048798,36.810627,其他,公园,中午,4.82
2024-06-01,优壹佳健身(华光路店),118.042423,36.820796,其他,体育场馆,下午,5.97
2024-06-01,优壹佳健身(华光路店),118.042423,36.820796,其他,体育场馆,深夜,5.96
2024-06-01,黄河公园,117.896406,37.260764,其他,公园,凌晨,4.04
2024-06-01,临淄青年学生抗日志愿军训团纪念碑,118.343774,36.856906,其他,旅游景点,上午,5.48
2024-06-01,临淄青年学生抗日志愿军训团纪念碑,118.343774,36.856906,其他,旅游景点,凌晨,4.58
2024-06-01,淄博诺锋医院(骨科医院),118.035342,36.801729,其他,医院,下午,6.58
2024-06-01,淄博诺锋医院(骨科医院),118.035342,36.801729,其他,医院,上午,7.05
2024-06-01,淄博高新区黉门文化艺术学校,118.052261,36.856862,其他,学校,晚上,4.07
2024-06-01,淄博高新区黉门文化艺术学校,118.052261,36.856862,其他,学校,深夜,4.99
2024-06-01,小寨游园,117.864398,36.808559,其他,公园,深夜,4.95
2024-06-01,小寨游园,117.864398,36.808559,其他,公园,中午,6.76
2024-06-01,沂源县三岔卫生院,118.26324,36.32587,其他,医院,晚上,6.24
2024-06-01,淄博一四八医院门诊部,117.8529,36.793864,其他,医院,上午,5.54
2024-06-01,淄博站南广场,118.055173,36.784869,其他,公园,中午,4.33
2024-06-01,杨寨卫生院,117.992947,36.710863,其他,医院,晚上,6.19
2024-06-02,张店区中医院肛肠楼,118.052541,36.800414,其他,医院,下午,6.93
2024-06-02,银座二店,117.975212,36.645192,其他,商场,下午,5.79
2024-06-02,张店区第三中学,118.05725,36.807199,其他,学校,上午,7.73
2024-06-02,淄博市张店区科苑小学,118.044838,36.819571,其他,学校,凌晨,4.08
2024-06-02,淄博市张店区科苑小学,118.044838,36.819571,其他,学校,上午,7.12
2024-06-02,山东清源集团医院,118.210773,36.80142,其他,医院,晚上,4.79
2024-06-02,山东清源集团医院,118.210773,36.80142,其他,医院,上午,8.11
2024-06-02,北大医疗淄博医院,118.041309,36.755311,其他,医院,上午,7.87
2024-06-02,由熙(尚美店),118.037704,36.810171,其他,餐饮,深夜,5.61
2024-06-02,由熙(尚美店),118.037704,36.810171,其他,餐饮,傍晚,5.87
2024-06-02,昆仑广场,117.91394,36.581689,其他,公园,中午,6.48
2024-06-02,昆仑广场,117.91394,36.581689,其他,公园,下午,7.3
2024-06-02,京味涮肉坊(紫馨园店),118.015711,36.798004,其他,餐饮,晚上,6.51
2024-06-02,人口文化广场,117.976909,36.635204,其他,公园,凌晨,4.85
2024-06-02,房镇体育公园,117.965442,36.864421,其他,公园,上午,5.61
2024-06-02,淄博会展中心,117.988167,36.833619,其他,文化场馆,晚上,3.9
2024-06-02,山东药品食品职业学院淄博校区,118.030617,36.806068,其他,学校,晚上,6.48
2024-06-02,山东药品食品职业学院淄博校区,118.030617,36.806068,其他,学校,下午,7.62
2024-06-02,淄川小箭扣,118.060602,36.452925,其他,旅游景点,下午,5.2
2024-06-02,淄川小箭扣,118.060602,36.452925,其他,旅游景点,中午,7.29
2024-06-02,TULIPS MAPLE(齐园绿城店),118.288425,36.809494,其他,商场,晚上,3.93
2024-06-02,重庆石锅鱼,118.001048,36.803795,其他,餐饮,中午,5.81
2024-06-02,九号台球(银座商城店),117.840632,37.164546,其他,体育场馆,上午,5.66
2024-06-02,九号台球(银座商城店),117.840632,37.164546,其他,体育场馆,傍晚,7.17
2024-06-02,寇氏游泳健身馆,118.339486,36.814335,其他,体育场馆,晚上,4.52
2024-06-02,泰客荣店(茂业百货泰客荣店),118.302933,36.813445,其他,商场,上午,6.79
2024-06-02,泰客荣店(茂业百货泰客荣店),118.302933,36.813445,其他,商场,深夜,4.75
2024-06-02,金太阳商场,118.166734,36.185648,其他,商场,晚上,5.16
2024-06-02,金太阳商场,118.166734,36.185648,其他,商场,傍晚,6.74
2024-06-02,双龙池食品店,117.876685,36.506296,其他,餐饮,中午,6.9
2024-06-02,淄博沂源南鲁山风景区,118.073872,36.272734,其他,旅游景点,中午,4.11
2024-06-02,淄博北站南广场,118.02671,36.893317,其他,公园,凌晨,4.93
2024-06-02,淄博北站南广场,118.02671,36.893317,其他,公园,下午,7.62
2024-06-02,动力100游泳健身(吾悦广场店),117.866817,36.823078,其他,体育场馆,傍晚,4.6
2024-06-02,新疆伊犁河餐厅清真,118.099088,36.973599,其他,餐饮,上午,7.03
2024-06-02,味老香菜馆(万象汇店),118.063505,36.801539,其他,餐饮,上午,8.82
2024-06-02,味老香菜馆(万象汇店),118.063505,36.801539,其他,餐饮,深夜,4.59
2024-06-02,淄博万象汇,118.061399,36.802119,其他,商场,凌晨,3.41
2024-06-02,进无止境台球俱乐部,117.99665,36.7996,其他,体育场馆,晚上,4.51
2024-06-02,进无止境台球俱乐部,117.99665,36.7996,其他,体育场馆,中午,4.25
2024-06-02,鲁泰文苑公园,117.994721,36.643395,其他,公园,晚上,4.83
2024-06-02,鲁泰文苑公园,117.994721,36.643395,其他,公园,中午,7.03
2024-06-02,法王院,118.032929,36.713602,其他,旅游景点,下午,6.73
2024-06-02,法王院,118.032929,36.713602,其他,旅游景点,傍晚,4.97
2024-06-02,周村烧饼博物馆,117.841826,36.79823,其他,餐饮,深夜,5.51
2024-06-02,周村烧饼博物馆,117.841826,36.79823,其他,餐饮,下午,6.46
2024-06-02,淄川区昆仑中心卫生院,117.917455,36.584912,其他,医院,凌晨,5.3
2024-06-02,淄川区昆仑中心卫生院,117.917455,36.584912,其他,医院,下午,6.8
2024-06-02,泸溪河桃酥(淄博吾悦广场店),118.025209,36.78382,其他,餐饮,上午,6.79
2024-06-02,泸溪河桃酥(淄博吾悦广场店),118.025209,36.78382,其他,餐饮,深夜,5.56
2024-06-02,临淄齐国故城考古遗址公园,118.344057,36.890173,其他,公园,下午,5.03
2024-06-02,涝淄河公园,118.071893,36.87101,其他,公园,傍晚,6.46
2024-06-02,高青县青城卫生院,117.689242,37.177882,其他,医院,凌晨,4.1
2024-06-02,索镇卫生院,118.116856,36.958313,其他,医院,下午,7.36
2024-06-02,索镇卫生院,118.116856,36.958313,其他,医院,晚上,7.45
2024-06-02,北大医疗鲁中医院(胜利分院),118.26391,36.767573,其他,医院,凌晨,5.86
2024-06-02,淄川区洪山卫生院,117.994054,36.625748,其他,医院,上午,5.01
2024-06-02,淄川区洪山卫生院,117.994054,36.625748,其他,医院,傍晚,7.35
2024-06-02,张店区第二人民医院24小时急救,118.026441,36.803357,其他,医院,凌晨,5.85
2024-06-02,张店区第二人民医院24小时急救,118.026441,36.803357,其他,医院,傍晚,6.12
2024-06-02,淄博职业学院(南校区),117.927048,36.828086,其他,学校,傍晚,6.68
2024-06-02,临淄杜郎口小学,118.284229,36.80673,其他,学校,傍晚,6.73
2024-06-02,荣德医院,118.102162,36.848838,其他,医院,晚上,4.67
2024-06-02,山东水利技师学院,117.893721,36.654078,其他,学校,凌晨,3.97
2024-06-02,海棠居(农广大厦店),118.01476,36.829155,其他,餐饮,凌晨,5.39
2024-06-02,海棠居(农广大厦店),118.01476,36.829155,其他,餐饮,傍晚,7.13
2024-06-02,齐悦国际大饭店,117.85344,36.795005,其他,餐饮,深夜,6.02
2024-06-02,齐悦国际大饭店,117.85344,36.795005,其他,餐饮,下午,6.07
2024-06-02,民族园,117.846969,36.816491,其他,公园,深夜,4.78
2024-06-02,民族园,117.846969,36.816491,其他,公园,下午,6.75
2024-06-02,碧霞祠,118.117578,36.822273,其他,旅游景点,凌晨,3.57
2024-06-02,焦裕禄广场,117.862695,36.493876,其他,公园,晚上,6.93
2024-06-02,焦裕禄广场,117.862695,36.493876,其他,公园,凌晨,5.27
2024-06-02,昆仑山玉皇宫,117.899978,36.591192,其他,旅游景点,下午,7.33
2024-06-02,昆仑山玉皇宫,117.899978,36.591192,其他,旅游景点,深夜,3.43
2024-06-02,东良进口商品(桓台店),118.093213,36.952988,其他,商场,上午,6.36
2024-06-02,公社炒鸡老菜馆(八大局店),118.075206,36.808527,其他,餐饮,深夜,6.83
2024-06-02,公社炒鸡老菜馆(八大局店),118.075206,36.808527,其他,餐饮,晚上,6.62
2024-06-02,淄博高新区第三小学,118.032424,36.868789,其他,学校,下午,5.96
2024-06-02,淄博高新区第三小学,118.032424,36.868789,其他,学校,上午,6.69
2024-06-02,中共沂源县委党校,118.19505,36.201654,其他,学校,上午,5.68
2024-06-02,中共沂源县委党校,118.19505,36.201654,其他,学校,晚上,5.7
2024-06-02,喜力私教健身(华润店),118.060887,36.803298,其他,体育场馆,凌晨,3.96
2024-06-02,朱台中心卫生院,118.257061,36.940575,其他,医院,下午,6.87
2024-06-02,奕菡团购工作室,118.305537,36.821413,其他,商场,凌晨,5.75
2024-06-02,恒泰游泳健身会馆,117.855636,36.479015,其他,体育场馆,上午,8.39
2024-06-02,恒泰游泳健身会馆,117.855636,36.479015,其他,体育场馆,晚上,5.66
2024-06-02,白云广场,118.049327,36.803891,其他,公园,晚上,4.73
2024-06-02,淄博北站北广场,118.026254,36.898065,其他,公园,上午,5.94
2024-06-02,淄博北站北广场,118.026254,36.898065,其他,公园,晚上,6.64
2024-06-02,淄博齐乐网球俱乐部,118.051554,36.84441,其他,体育场馆,傍晚,8.0
2024-06-02,淄博齐乐网球俱乐部,118.051554,36.84441,其他,体育场馆,下午,7.81
2024-06-02,汇达台球俱乐部,118.006687,36.816106,其他,体育场馆,深夜,6.66
2024-06-02,汇达台球俱乐部,118.006687,36.816106,其他,体育场馆,中午,6.43
2024-06-02,淄博中医骨伤医院,117.826714,36.489782,其他,医院,上午,8.41
2024-06-02,胜利广场,117.854169,36.781992,其他,公园,中午,7.01
2024-06-02,胜利广场,117.854169,36.781992,其他,公园,下午,5.68
2024-06-02,张店区齐润小学,118.002303,36.81991,其他,学校,深夜,6.47
2024-06-02,银座购物广场(五里桥店),118.032224,36.813519,其他,商场,深夜,5.81
2024-06-02,银座购物广场(五里桥店),118.032224,36.813519,其他,商场,凌晨,5.23
2024-06-03,孙泽涛辣豆腐(和平社区店),118.037766,36.799699,其他,餐饮,深夜,4.04
2024-06-03,沐羽高端羽毛球俱乐部,118.058909,36.878093,其他,体育场馆,中午,4.79
2024-06-03,沐羽高端羽毛球俱乐部,118.058909,36.878093,其他,体育场馆,深夜,5.57
2024-06-03,动力100游泳健身(荣盛广场店),117.999996,36.825192,其他,体育场馆,上午,6.19
2024-06-03,吾悦广场(淄博店),118.025098,36.783679,其他,商场,傍晚,6.09
2024-06-03,南博山中村文化广场,117.964417,36.35139,其他,公园,中午,6.06
2024-06-03,南博山中村文化广场,117.964417,36.35139,其他,公园,晚上,4.62
2024-06-03,淄川实验中学松龄东路,117.974332,36.647764,其他,学校,中午,6.48
2024-06-03,淄川实验中学松龄东路,117.974332,36.647764,其他,学校,晚上,5.8
2024-06-03,淄川区城南卫生院,117.954695,36.623403,其他,医院,下午,6.67
2024-06-03,张店区科苑街道科技苑社区卫生服务站,118.051755,36.833748,其他,医院,上午,6.08
2024-06-03,哈尼家(大顺城市广场店),118.290283,36.814852,其他,餐饮,深夜,5.02
2024-06-03,哈尼家(大顺城市广场店),118.290283,36.814852,其他,餐饮,傍晚,4.22
2024-06-03,齐德学校,117.989599,36.803053,其他,学校,深夜,3.43
2024-06-03,鲁中义乌国际商贸城,118.185521,36.192096,其他,商场,深夜,6.29
2024-06-03,牵电医院,118.077809,36.802433,其他,医院,上午,5.44
2024-06-03,牵电医院,118.077809,36.802433,其他,医院,傍晚,5.07
2024-06-03,高青县第二中学,117.826388,37.168863,其他,学校,中午,4.96
2024-06-03,高青县第二中学,117.826388,37.168863,其他,学校,凌晨,5.88
2024-06-03,山铝体育馆,118.044187,36.755264,其他,体育场馆,傍晚,6.24
2024-06-03,威斯曼健身搏击俱乐部(百脑汇店),118.048142,36.802401,其他,体育场馆,深夜,6.16
2024-06-03,沐浴阳光.俊辰百货高青店,117.662007,37.103489,其他,商场,晚上,5.16
2024-06-03,星小奥少儿运动馆(福园校区),118.027301,36.808121,其他,体育场馆,中午,3.89
2024-06-03,星小奥少儿运动馆(福园校区),118.027301,36.808121,其他,体育场馆,下午,4.39
2024-06-03,816私教健身俱乐部(福园店),118.02634,36.8065,其他,体育场馆,中午,6.53
2024-06-03,淄川区土峪村天主教堂,118.040593,36.579527,其他,旅游景点,下午,5.05
2024-06-03,樵岭前风景区,117.821669,36.446687,其他,旅游景点,上午,5.39
2024-06-03,樵岭前风景区,117.821669,36.446687,其他,旅游景点,傍晚,6.68
2024-06-03,淄博师专附属中学,118.004382,36.638287,其他,学校,傍晚,4.28
2024-06-03,淄博师专附属中学,118.004382,36.638287,其他,学校,凌晨,4.18
2024-06-03,延边高丽村养生汤馆(名仕嘉园店),118.297755,36.819583,其他,餐饮,深夜,4.54
2024-06-03,火炬公园,118.053802,36.837551,其他,公园,中午,4.2
2024-06-03,火炬公园,118.053802,36.837551,其他,公园,深夜,6.57
2024-06-03,中国琉璃艺术殿堂,117.853656,36.488408,其他,旅游景点,凌晨,3.84
2024-06-03,中国琉璃艺术殿堂,117.853656,36.488408,其他,旅游景点,傍晚,6.04
2024-06-03,淄江社区卫生服务中心,118.335599,36.814881,其他,医院,深夜,3.65
2024-06-03,淄江社区卫生服务中心,118.335599,36.814881,其他,医院,中午,3.74
2024-06-03,源和魔石咕噜鱼(沿河东路南端店),118.169991,36.170834,其他,餐饮,深夜,6.83
2024-06-03,源和魔石咕噜鱼(沿河东路南端店),118.169991,36.170834,其他,餐饮,下午,6.97
2024-06-03,淄博延强医院,117.944326,36.665657,其他,医院,傍晚,6.87
2024-06-03,淄博延强医院,117.944326,36.665657,其他,医院,上午,6.67
2024-06-03,来力台球俱乐部(文昌路店),117.890451,36.661357,其他,体育场馆,傍晚,5.38
2024-06-03,来力台球俱乐部(文昌路店),117.890451,36.661357,其他,体育场馆,凌晨,3.55
2024-06-03,中共淄博市委党校,117.922033,36.847674,其他,学校,下午,7.48
2024-06-03,中共淄博市委党校,117.922033,36.847674,其他,学校,傍晚,5.92
2024-06-03,张店区特殊教育中心学校,118.052517,36.797538,其他,学校,深夜,5.71
2024-06-03,山东淄博新元学校,118.053855,36.819376,其他,学校,下午,6.38
2024-06-03,淄博光正公司医院,117.947288,36.6059,其他,医院,凌晨,4.29
2024-06-03,西山公园,117.990818,36.634296,其他,公园,晚上,3.05
2024-06-03,西山公园,117.990818,36.634296,其他,公园,上午,7.03
2024-06-03,良家健身(沂源店),118.18579,36.193686,其他,体育场馆,傍晚,5.08
2024-06-03,良家健身(沂源店),118.18579,36.193686,其他,体育场馆,晚上,4.83
2024-06-03,汇达台球俱乐部,118.006687,36.816106,其他,体育场馆,深夜,5.16
2024-06-03,桓台县人民医院,118.093414,36.945519,其他,医院,深夜,4.22
2024-06-03,小乔豆腐(富瑞特城市广场店),117.851204,36.807558,其他,餐饮,上午,6.74
2024-06-03,小乔豆腐(富瑞特城市广场店),117.851204,36.807558,其他,餐饮,晚上,5.91
2024-06-03,近江南御翅府,118.281748,36.810004,其他,餐饮,下午,4.38
2024-06-03,近江南御翅府,118.281748,36.810004,其他,餐饮,傍晚,6.72
2024-06-03,温州商厦,117.958171,36.642203,其他,商场,深夜,4.74
2024-06-03,温州商厦,117.958171,36.642203,其他,商场,下午,6.23
2024-06-03,皇后餐厅,118.036899,36.850457,其他,餐饮,晚上,6.74
2024-06-03,黑铁山风景区,118.164113,36.842767,其他,旅游景点,下午,5.65
2024-06-03,黑铁山风景区,118.164113,36.842767,其他,旅游景点,中午,3.86
2024-06-03,高青县实验中学,117.819735,37.165726,其他,学校,下午,7.77
2024-06-03,临淄石佛寺,118.350088,36.884502,其他,旅游景点,深夜,5.01
2024-06-03,临淄石佛寺,118.350088,36.884502,其他,旅游景点,晚上,6.24
2024-06-03,淄博文姜大酒店,117.857909,36.48168,其他,餐饮,中午,5.84
2024-06-03,新疆伊犁河餐厅清真,118.099088,36.973599,其他,餐饮,傍晚,6.81
2024-06-03,齐长城一线天,118.143592,36.43048,其他,旅游景点,下午,5.97
2024-06-03,齐长城一线天,118.143592,36.43048,其他,旅游景点,傍晚,6.82
2024-06-03,欢乐新街,117.848859,36.793297,其他,商场,傍晚,6.59
2024-06-03,金山镇文体公园,118.244215,36.735747,其他,公园,下午,5.22
2024-06-03,金山镇文体公园,118.244215,36.735747,其他,公园,中午,4.79
2024-06-03,明德山雾云洞,117.932145,36.417401,其他,旅游景点,深夜,5.02
2024-06-03,淄博震中中医院,118.032777,36.755912,其他,医院,下午,6.49
2024-06-03,淄博震中中医院,118.032777,36.755912,其他,医院,上午,7.58
2024-06-03,周村区中小学生社会实践基地,117.859928,36.840135,其他,学校,晚上,5.1
2024-06-03,高青唐坊供销社,117.960948,37.183155,其他,商场,晚上,5.66
2024-06-03,沂源县历山中学,118.161848,36.191321,其他,学校,中午,7.13
2024-06-03,沂源县历山中学,118.161848,36.191321,其他,学校,上午,7.04
2024-06-03,高青县第三中学,117.83598,37.195713,其他,学校,中午,4.38
2024-06-03,临淄实验中学,118.281588,36.817591,其他,学校,晚上,4.73
2024-06-03,高青县革命历史纪念馆,117.792837,37.182566,其他,旅游景点,深夜,4.58
2024-06-03,江南濠景生态美食园,118.009609,36.805242,其他,餐饮,上午,5.68
2024-06-04,栖真观,118.013277,36.138917,其他,旅游景点,中午,3.73
2024-06-04,淄川区实验小学南校区,117.964219,36.625985,其他,学校,上午,5.82
2024-06-04,淄博市张店区第十二中学,118.114856,36.790903,其他,学校,晚上,4.88
2024-06-04,淄博市张店区第十二中学,118.114856,36.790903,其他,学校,深夜,5.17
2024-06-04,周村区人民医院,117.869467,36.820009,其他,医院,凌晨,3.84
2024-06-04,华润实验小学,118.064116,36.801975,其他,学校,晚上,5.22
2024-06-04,天隆购物广场,117.86096,36.503301,其他,商场,深夜,4.83
2024-06-04,良家健身(沂源店),118.18579,36.193686,其他,体育场馆,中午,5.75
2024-06-04,良家健身(沂源店),118.18579,36.193686,其他,体育场馆,深夜,5.24
2024-06-04,包子客牛肉汤包(金乔社区北区店),118.070925,36.817875,其他,餐饮,下午,5.96
2024-06-04,包子客牛肉汤包(金乔社区北区店),118.070925,36.817875,其他,餐饮,中午,7.02
2024-06-04,沂源四中,118.249974,36.217228,其他,学校,晚上,3.86
2024-06-04,少儿游泳综合运动馆,118.02624,36.808166,其他,体育场馆,中午,5.55
2024-06-04,云水瑶风景区,118.230763,36.367618,其他,旅游景点,下午,7.63
2024-06-04,云水瑶风景区,118.230763,36.367618,其他,旅游景点,中午,6.92
2024-06-04,新艺苑精品地下城,118.302367,36.812951,其他,商场,深夜,6.36
2024-06-04,动力100游泳健身会所(银泰城店),118.036422,36.848499,其他,体育场馆,上午,5.74
2024-06-04,动力100游泳健身会所(银泰城店),118.036422,36.848499,其他,体育场馆,晚上,5.35
2024-06-04,足球主题公园,118.371633,36.804896,其他,公园,凌晨,5.08
2024-06-04,鸿巢老年病医院,118.068017,36.919936,其他,医院,下午,5.61
2024-06-04,鸿巢老年病医院,118.068017,36.919936,其他,医院,凌晨,6.04
2024-06-04,平安殿,117.855097,36.542447,其他,旅游景点,上午,4.99
2024-06-04,平安殿,117.855097,36.542447,其他,旅游景点,深夜,4.1
2024-06-04,齐都花园小学,118.289328,36.830072,其他,学校,下午,6.45
2024-06-04,花山公园,118.11949,36.824708,其他,旅游景点,下午,5.88
2024-06-04,花山公园,118.11949,36.824708,其他,旅游景点,晚上,5.03
2024-06-04,凯马健身俱乐部(遄台店),118.320304,36.813408,其他,体育场馆,下午,5.9
2024-06-04,人民公社湘菜馆(联通路),118.045252,36.827996,其他,餐饮,中午,4.89
2024-06-04,牛魔王烧烤海鲜城(商城小区店),118.095031,36.949874,其他,餐饮,下午,3.66
2024-06-04,牛魔王烧烤海鲜城(商城小区店),118.095031,36.949874,其他,餐饮,傍晚,4.57
2024-06-04,优购商城,118.330515,36.805331,其他,商场,上午,7.87
2024-06-04,优购商城,118.330515,36.805331,其他,商场,中午,5.22
2024-06-04,山东省淄博第六中学(总校区),117.826289,36.799133,其他,学校,傍晚,5.33
2024-06-04,FlowPace(鼎成店),117.993628,36.822947,其他,体育场馆,傍晚,4.83
2024-06-04,波力羽毛球馆,117.990499,36.62364,其他,体育场馆,上午,8.21
2024-06-04,波力羽毛球馆,117.990499,36.62364,其他,体育场馆,下午,4.56
2024-06-04,遄台中学,118.316847,36.818062,其他,学校,中午,6.33
2024-06-04,西寨煎饼-猪头肉(西寨小区店),117.855764,36.499442,其他,餐饮,深夜,5.75
2024-06-04,淄博终结者台球俱乐部(旗舰店),118.018569,36.82364,其他,体育场馆,下午,4.7
2024-06-04,淄博终结者台球俱乐部(旗舰店),118.018569,36.82364,其他,体育场馆,中午,5.9
2024-06-04,奥都商城,117.919161,36.660307,其他,商场,傍晚,6.0
2024-06-04,奥都商城,117.919161,36.660307,其他,商场,中午,4.23
2024-06-04,淄博市农业科学研究院(商场西街),118.030106,36.804568,其他,文化场馆,晚上,4.64
2024-06-04,淄博科技学校,117.874682,37.149148,其他,学校,傍晚,4.77
2024-06-04,淄博科技学校,117.874682,37.149148,其他,学校,晚上,3.77
2024-06-04,山东淄博机电工程学校,117.856807,36.839902,其他,学校,深夜,5.19
2024-06-04,山东淄博机电工程学校,117.856807,36.839902,其他,学校,傍晚,5.58
2024-06-04,中埠镇卫生院,118.18759,36.846438,其他,医院,中午,4.51
2024-06-04,中埠镇卫生院,118.18759,36.846438,其他,医院,深夜,5.52
2024-06-04,张店军屯空中草原,118.130249,36.81412,其他,旅游景点,傍晚,6.32
2024-06-04,双龙池食品店,117.876685,36.506296,其他,餐饮,凌晨,2.71
2024-06-04,老华盛商场,117.830529,37.168815,其他,商场,凌晨,3.49
2024-06-04,老华盛商场,117.830529,37.168815,其他,商场,晚上,3.27
2024-06-04,齐园,118.292227,36.807527,其他,公园,下午,5.09
2024-06-04,齐园,118.292227,36.807527,其他,公园,傍晚,5.93
2024-06-04,上海商厦,117.956126,36.642076,其他,商场,中午,7.08
2024-06-04,文昌湖深蓝台球俱乐部,117.866521,36.730761,其他,体育场馆,深夜,4.26
2024-06-04,淄博职业技术大学西校区,117.92047,36.836555,其他,学校,凌晨,5.37
2024-06-04,周村人民广场,117.856114,36.799587,其他,公园,傍晚,6.67
2024-06-04,齐山风景区,118.199833,36.5147,其他,旅游景点,深夜,4.88
2024-06-04,齐山风景区,118.199833,36.5147,其他,旅游景点,晚上,2.73
2024-06-04,淄博南定百货大楼,118.072634,36.727615,其他,商场,深夜,6.37
2024-06-04,淄博市科技馆,117.986156,36.828007,其他,文化场馆,傍晚,5.22
2024-06-04,银泰·金街/时代广场,118.035034,36.849708,其他,商场,上午,6.21
2024-06-04,人民东路小学,118.064812,36.810418,其他,学校,凌晨,3.46
2024-06-04,人民东路小学,118.064812,36.810418,其他,学校,上午,6.24
2024-06-04,淄博市第一医院总院门诊部,117.86258,36.489849,其他,医院,凌晨,2.68
2024-06-04,运粮河湿地公园,118.307362,36.892481,其他,公园,凌晨,4.77
2024-06-04,运粮河湿地公园,118.307362,36.892481,其他,公园,晚上,4.99
2024-06-04,淄博外国语实验学校,117.987589,36.636598,其他,学校,傍晚,6.1
2024-06-04,淄博高新区实验小学,118.060463,36.831419,其他,学校,傍晚,7.95
2024-06-04,淄博高新区实验小学,118.060463,36.831419,其他,学校,晚上,5.51
2024-06-04,桓台商厦,118.105225,36.959466,其他,商场,中午,6.28
2024-06-04,石头先生的烤炉(淄博博山店),117.860839,36.500122,其他,餐饮,上午,5.43
2024-06-04,石头先生的烤炉(淄博博山店),117.860839,36.500122,其他,餐饮,下午,8.04
2024-06-04,桓台县跷脚烧烤店,118.067602,36.917548,其他,餐饮,晚上,6.21
2024-06-04,齐悦实验小学,117.980875,36.813464,其他,学校,中午,7.13
2024-06-04,山东省淄博第十七中学,118.035689,36.810219,其他,学校,中午,3.08
2024-06-04,淄川普安寺,117.884049,36.62809,其他,旅游景点,晚上,3.62
2024-06-04,淄川普安寺,117.884049,36.62809,其他,旅游景点,上午,6.58
2024-06-04,金地禅寺,117.914574,36.539096,其他,旅游景点,下午,5.63
2024-06-04,淄博市张店区融媒体中心,118.0451,36.796042,其他,文化场馆,傍晚,5.42
2024-06-04,淄博市张店区融媒体中心,118.0451,36.796042,其他,文化场馆,晚上,5.02
2024-06-04,淄川明圣医院,117.948865,36.666524,其他,医院,深夜,5.12
2024-06-04,小寨游园,117.864398,36.808559,其他,公园,晚上,4.31
2024-06-04,小维度奶茶店,117.852553,36.800011,其他,餐饮,晚上,5.39
2024-06-04,友谊蛋糕(植物园店),118.022711,36.790473,其他,餐饮,傍晚,4.34
2024-06-04,白石洞旅游风景区,117.819342,36.515991,其他,旅游景点,深夜,2.79
2024-06-04,临淄蹴鞠小镇,118.371823,36.805196,其他,体育场馆,下午,4.98
2024-06-04,816私教健身俱乐部(福园店),118.02634,36.8065,其他,体育场馆,凌晨,6.1
2024-06-04,淄博悦动乒乓球俱乐部,118.003041,36.841249,其他,体育场馆,上午,5.44
2024-06-04,淄博悦动乒乓球俱乐部,118.003041,36.841249,其他,体育场馆,晚上,4.5
2024-06-04,大红门烧烤(店子村),117.992985,36.903908,其他,餐饮,傍晚,5.95
2024-06-04,淄博四季青医院,118.041428,36.828633,其他,医院,上午,5.62
2024-06-04,淄博市市立医院淄江分院,118.335498,36.815204,其他,医院,傍晚,5.31
2024-06-05,张店区体育馆广场,118.036343,36.797352,其他,公园,中午,4.44
2024-06-05,张店区体育馆广场,118.036343,36.797352,其他,公园,凌晨,5.28
2024-06-05,山东工业职业学院(南区),118.081115,36.883895,其他,学校,中午,6.31
2024-06-05,云台山风景区,118.024326,36.606095,其他,旅游景点,下午,3.69
2024-06-05,云台山风景区,118.024326,36.606095,其他,旅游景点,中午,5.24
2024-06-05,沂源牛郎织女景区-织女洞森林公园,118.261632,36.10731,其他,公园,上午,8.31
2024-06-05,沂源牛郎织女景区-织女洞森林公园,118.261632,36.10731,其他,公园,凌晨,2.83
2024-06-05,忠勤祠,117.940969,36.950379,其他,旅游景点,晚上,5.22
2024-06-05,动力100游泳健身(吾悦广场店),117.866817,36.823078,其他,体育场馆,深夜,3.73
2024-06-05,动力100游泳健身(吾悦广场店),117.866817,36.823078,其他,体育场馆,中午,3.91
2024-06-05,淄博市妇幼保健院东院区,118.060376,36.790092,其他,医院,凌晨,2.52
2024-06-05,淄博市妇幼保健院东院区,118.060376,36.790092,其他,医院,晚上,6.54
2024-06-05,玖逗集市,117.840824,36.530245,其他,商场,深夜,2.73
2024-06-05,玖逗集市,117.840824,36.530245,其他,商场,晚上,3.92
2024-06-05,彤德捞轻火锅(万达店),118.009678,36.841197,其他,餐饮,中午,4.52
2024-06-05,合易泓拌饭,118.051176,36.805032,其他,餐饮,傍晚,7.34
2024-06-05,合易泓拌饭,118.051176,36.805032,其他,餐饮,中午,3.94
2024-06-05,源和魔石咕噜鱼(沿河东路南端店),118.169991,36.170834,其他,餐饮,上午,6.0
2024-06-05,源和魔石咕噜鱼(沿河东路南端店),118.169991,36.170834,其他,餐饮,凌晨,3.81
2024-06-05,国良烧烤,117.903396,37.04802,其他,餐饮,中午,6.86
2024-06-05,淄博市博山中学,117.843168,36.513238,其他,学校,晚上,5.13
2024-06-05,银泰·金街/时代广场,118.035034,36.849708,其他,商场,上午,5.8
2024-06-05,天后台球,118.052038,36.803252,其他,体育场馆,傍晚,5.37
2024-06-05,天后台球,118.052038,36.803252,其他,体育场馆,凌晨,4.72
2024-06-05,临淄蹴鞠小镇,118.371823,36.805196,其他,体育场馆,下午,6.46
2024-06-05,文昌湖深蓝台球俱乐部,117.866521,36.730761,其他,体育场馆,下午,7.65
2024-06-05,淄博市周村区实验中学,117.844915,36.787422,其他,学校,上午,5.72
2024-06-05,淄博市周村区实验中学,117.844915,36.787422,其他,学校,下午,7.41
2024-06-05,祥瑞园小学,118.010582,36.824284,其他,学校,凌晨,4.58
2024-06-05,顺意海鲜楼(中润大道店),118.041075,36.837382,其他,餐饮,下午,7.76
2024-06-05,顺意海鲜楼(中润大道店),118.041075,36.837382,其他,餐饮,深夜,4.71
2024-06-05,慈云寺,117.875957,37.208507,其他,旅游景点,凌晨,2.67
2024-06-05,鑫乔羽毛球馆,118.076222,36.817135,其他,体育场馆,傍晚,6.18
2024-06-05,鑫乔羽毛球馆,118.076222,36.817135,其他,体育场馆,下午,4.36
2024-06-05,仟佰汇,117.962278,36.646522,其他,商场,中午,5.54
2024-06-05,仟佰汇,117.962278,36.646522,其他,商场,深夜,4.03
2024-06-05,张店区实验小学,118.016861,36.801754,其他,学校,傍晚,6.02
2024-06-05,张店区实验小学,118.016861,36.801754,其他,学校,晚上,5.89
2024-06-05,翕善堂博山菜(金桥商务中心店),118.073342,36.817548,其他,餐饮,下午,6.82
2024-06-05,泉龙大酒店,117.977532,36.651991,其他,餐饮,晚上,3.44
2024-06-05,果里医院,118.078742,36.903025,其他,医院,下午,6.1
2024-06-05,果里医院,118.078742,36.903025,其他,医院,凌晨,5.8
2024-06-05,盛达商业广场,117.862789,36.504028,其他,商场,晚上,4.27
2024-06-05,山东理工大学信息楼,118.004206,36.80863,其他,文化场馆,下午,5.34
2024-06-05,桉树披萨(淄川店),117.976008,36.644428,其他,餐饮,上午,6.5
2024-06-05,桉树披萨(淄川店),117.976008,36.644428,其他,餐饮,深夜,5.43
2024-06-05,杨寨中心小学,117.98536,36.71675,其他,学校,下午,4.16
2024-06-05,杨寨中心小学,117.98536,36.71675,其他,学校,傍晚,6.91
2024-06-05,85台球俱乐部,118.050951,36.820277,其他,体育场馆,晚上,5.4
2024-06-05,85台球俱乐部,118.050951,36.820277,其他,体育场馆,下午,4.44
2024-06-05,欧麦滋蛋糕花艺坊(芦湖小区店),117.84188,37.168743,其他,餐饮,晚上,6.02
2024-06-05,悦味坊酒店,118.0079,36.832232,其他,餐饮,凌晨,3.58
2024-06-05,悦味坊酒店,118.0079,36.832232,其他,餐饮,下午,6.62
2024-06-05,高青县花沟中心卫生院,117.758184,37.137115,其他,医院,晚上,4.18
2024-06-05,临淄区金山中学,118.229933,36.735894,其他,学校,晚上,3.91
2024-06-05,张店区中医院康复楼,118.052783,36.800109,其他,医院,晚上,5.36
2024-06-05,张店区中医院康复楼,118.052783,36.800109,其他,医院,傍晚,5.88
2024-06-05,谈小娱24h自助台球棋牌(莲池店),118.036283,36.831241,其他,体育场馆,上午,6.08
2024-06-05,谈小娱24h自助台球棋牌(莲池店),118.036283,36.831241,其他,体育场馆,凌晨,3.34
2024-06-05,茂业天地,118.050853,36.807477,其他,商场,中午,4.72
2024-06-05,茂业天地,118.050853,36.807477,其他,商场,凌晨,5.14
2024-06-05,临淄青年学生抗日志愿军训团纪念碑,118.343774,36.856906,其他,旅游景点,晚上,6.44
2024-06-05,零距离健身,118.077582,36.816188,其他,体育场馆,中午,5.21
2024-06-05,零距离健身,118.077582,36.816188,其他,体育场馆,凌晨,4.46
2024-06-05,淄博天齐渊公园,118.336561,36.795289,其他,公园,傍晚,5.55
2024-06-05,淄博市张店区第十二中学,118.114856,36.790903,其他,学校,下午,4.68
2024-06-05,沂源文化苑,118.158,36.191738,其他,公园,中午,4.54
2024-06-05,高青县第二人民医院,117.797966,37.178006,其他,医院,下午,6.87
2024-06-05,淄博建筑工程学校,118.106771,36.967138,其他,学校,晚上,5.78
2024-06-05,淄博建筑工程学校,118.106771,36.967138,其他,学校,凌晨,5.44
2024-06-05,1+健身,118.331682,36.816494,其他,体育场馆,晚上,4.18
2024-06-05,半天妖烤鱼(淄博沂源义乌新天地店),118.186794,36.192584,其他,餐饮,中午,5.41
2024-06-05,半天妖烤鱼(淄博沂源义乌新天地店),118.186794,36.192584,其他,餐饮,晚上,2.91
2024-06-05,太公湖国家水利风景区,118.363994,36.80938,其他,旅游景点,凌晨,6.11
2024-06-05,太公湖国家水利风景区,118.363994,36.80938,其他,旅游景点,晚上,6.05
2024-06-05,石家班台球俱乐部,118.032648,36.836346,其他,体育场馆,中午,3.84
2024-06-05,石家班台球俱乐部,118.032648,36.836346,其他,体育场馆,深夜,4.4
2024-06-05,南营公园,118.068447,36.845105,其他,公园,下午,6.51
2024-06-05,南营公园,118.068447,36.845105,其他,公园,深夜,5.66
2024-06-05,卓小健少儿综合运动馆,118.02709,36.807664,其他,体育场馆,中午,4.58
2024-06-05,鲁中义乌国际商贸城,118.185521,36.192096,其他,商场,中午,4.96
2024-06-05,鲁中义乌国际商贸城,118.185521,36.192096,其他,商场,上午,5.69
2024-06-05,京味涮肉坊(紫馨园店),118.015711,36.798004,其他,餐饮,下午,5.75
2024-06-05,京味涮肉坊(紫馨园店),118.015711,36.798004,其他,餐饮,凌晨,1.85
2024-06-05,墨羽羽毛球馆,117.975839,36.868265,其他,体育场馆,下午,6.13
2024-06-05,枫山禅院,118.210212,36.455976,其他,旅游景点,晚上,5.65
2024-06-05,飞扬台球俱乐部,118.059651,36.802584,其他,体育场馆,中午,6.77
2024-06-05,飞扬台球俱乐部,118.059651,36.802584,其他,体育场馆,深夜,5.01
2024-06-05,淄博市综合训练基地,117.832393,36.743439,其他,文化场馆,深夜,4.36
2024-06-05,淄博市综合训练基地,117.832393,36.743439,其他,文化场馆,晚上,5.34
2024-06-05,淄博市张店区铝城第一中学,118.040937,36.748754,其他,学校,凌晨,3.22
2024-06-05,淄博市张店区铝城第一中学,118.040937,36.748754,其他,学校,上午,5.59
2024-06-05,马耀南故居,117.904552,36.794954,其他,旅游景点,深夜,4.92
2024-06-05,马耀南故居,117.904552,36.794954,其他,旅游景点,下午,5.98
2024-06-05,周村体育馆,117.847984,36.789105,其他,体育场馆,晚上,3.55
2024-06-05,周村体育馆,117.847984,36.789105,其他,体育场馆,傍晚,5.05
2024-06-05,临淄御马苑马术俱乐部,118.368429,36.802627,其他,体育场馆,深夜,5.99
2024-06-05,神清宫,118.160918,36.093633,其他,旅游景点,中午,3.89
2024-06-05,淄博张店建桥实验学校,118.031465,36.820234,其他,学校,下午,5.06
2024-06-05,淄博张店建桥实验学校,118.031465,36.820234,其他,学校,中午,4.8
2024-06-05,体育中心篮球馆,117.984709,36.815222,其他,体育场馆,中午,5.56
2024-06-05,哈尼家(大顺城市广场店),118.290283,36.814852,其他,餐饮,晚上,4.51
2024-06-05,哈尼家(大顺城市广场店),118.290283,36.814852,其他,餐饮,中午,5.09
2024-06-05,篮球场,117.983237,36.787736,其他,体育场馆,深夜,4.24
2024-06-05,篮球场,117.983237,36.787736,其他,体育场馆,傍晚,4.6
2024-06-05,万海格斗,118.060994,36.807167,其他,体育场馆,傍晚,6.24
2024-06-05,淄建集团医院,118.064021,36.801248,其他,医院,上午,3.88
2024-06-05,临淄区稷下小学,118.315531,36.810223,其他,学校,傍晚,5.62
2024-06-05,特信商城,117.860326,36.496483,其他,商场,晚上,5.29
2024-06-05,特信商城,117.860326,36.496483,其他,商场,中午,5.58
2024-06-05,山东农业工程学院(淄博校区),117.934861,36.845859,其他,学校,下午,5.21
2024-06-05,山东农业工程学院(淄博校区),117.934861,36.845859,其他,学校,深夜,5.29
2024-06-05,银泰·金街,118.034913,36.84867,其他,商场,下午,6.09
2024-06-05,银泰·金街,118.034913,36.84867,其他,商场,上午,5.34
2024-06-05,淄博市体育中心体育场,117.98856,36.813629,其他,体育场馆,中午,4.78
2024-06-05,磁村中学,117.83889,36.62076,其他,学校,上午,6.28
2024-06-05,零度台球,118.300082,36.813906,其他,体育场馆,深夜,3.27
2024-06-05,奥华购物中心,118.233796,36.737202,其他,商场,晚上,5.71
2024-06-05,中国课本博物馆,118.107847,36.831431,其他,文化场馆,晚上,4.91
2024-06-05,山东省博山电力技工学校,117.85858,36.478547,其他,学校,凌晨,3.43
2024-06-06,源和魔石咕噜鱼(沿河东路南端店),118.169991,36.170834,其他,餐饮,中午,4.02
2024-06-06,源和魔石咕噜鱼(沿河东路南端店),118.169991,36.170834,其他,餐饮,凌晨,3.2
2024-06-06,山东省淄博第六中学(总校区),117.826289,36.799133,其他,学校,傍晚,5.97
2024-06-06,杨寨中心小学,117.98536,36.71675,其他,学校,深夜,5.82
2024-06-06,淄博天齐渊公园,118.336561,36.795289,其他,公园,上午,7.89
2024-06-06,淄博天齐渊公园,118.336561,36.795289,其他,公园,中午,4.61
2024-06-06,猛犸兄弟私教健身会所,118.053542,36.825692,其他,体育场馆,凌晨,3.05
2024-06-06,颜山商城,117.862649,36.496325,其他,商场,凌晨,3.35
2024-06-06,桓台商厦,118.105225,36.959466,其他,商场,下午,5.95
2024-06-06,临淄区金岭卫生院,118.191787,36.798419,其他,医院,傍晚,5.46
2024-06-06,王士禛纪念馆,117.943453,36.9516,其他,旅游景点,凌晨,2.66
2024-06-06,齐鲁石化公司党委党校,118.284505,36.817216,其他,学校,傍晚,3.94
2024-06-06,齐鲁石化公司党委党校,118.284505,36.817216,其他,学校,凌晨,4.66
2024-06-06,京味涮肉坊(紫馨园店),118.015711,36.798004,其他,餐饮,傍晚,5.29
2024-06-06,京味涮肉坊(紫馨园店),118.015711,36.798004,其他,餐饮,下午,5.46
2024-06-06,中心公园,118.257746,36.765129,其他,公园,深夜,3.97
2024-06-06,陶然香火锅居(将军路店),117.971523,36.629764,其他,餐饮,中午,4.74
2024-06-06,青龙山公园,118.088849,36.826097,其他,公园,下午,5.59
2024-06-06,青龙山公园,118.088849,36.826097,其他,公园,上午,5.11
2024-06-06,金惠丽百货,118.065748,37.06301,其他,商场,晚上,5.11
2024-06-06,金惠丽百货,118.065748,37.06301,其他,商场,中午,5.67
2024-06-06,九级村新时代文化广场,118.021111,36.817354,其他,公园,中午,5.71
2024-06-06,金色之韵量贩KTV(龙御大厦店),118.024504,36.821458,其他,餐饮,凌晨,3.25
2024-06-06,张相湖湿地公园,117.970065,36.670286,其他,公园,深夜,6.16
2024-06-06,张相湖湿地公园,117.970065,36.670286,其他,公园,傍晚,5.84
2024-06-06,公园新村小学,118.045659,36.805159,其他,学校,上午,6.26
2024-06-06,少儿游泳综合运动馆,118.02624,36.808166,其他,体育场馆,傍晚,5.89
2024-06-06,少儿游泳综合运动馆,118.02624,36.808166,其他,体育场馆,晚上,4.62
2024-06-06,李芳·普拉提·婵柔运动馆,118.030875,36.837947,其他,体育场馆,上午,6.08
2024-06-06,近江南御翅府,118.281748,36.810004,其他,餐饮,晚上,2.82
2024-06-06,近江南御翅府,118.281748,36.810004,其他,餐饮,上午,6.0
2024-06-06,二郎庙,118.054265,36.426773,其他,旅游景点,晚上,4.66
2024-06-06,红军师师史馆,118.040402,36.814645,其他,旅游景点,中午,5.32
2024-06-06,塞外春肥羊府(沿河西路店),118.152762,36.190755,其他,餐饮,晚上,4.68
2024-06-06,塞外春肥羊府(沿河西路店),118.152762,36.190755,其他,餐饮,中午,4.4
2024-06-06,鲁青商城,117.694342,37.184669,其他,商场,傍晚,4.68
2024-06-06,鲁青商城,117.694342,37.184669,其他,商场,下午,4.93
2024-06-06,星巴克(淄博印象汇店),118.053299,36.822489,其他,餐饮,中午,5.71
2024-06-06,星巴克(淄博印象汇店),118.053299,36.822489,其他,餐饮,深夜,3.81
2024-06-06,淄博中医骨伤医院,117.826714,36.489782,其他,医院,凌晨,2.65
2024-06-06,淄博中医骨伤医院,117.826714,36.489782,其他,医院,傍晚,5.26
2024-06-06,银座商城(淄博店),118.050481,36.805504,其他,商场,深夜,3.95
2024-06-06,阳光动力心武搏击健身工作室,117.859144,36.496395,其他,体育场馆,上午,5.32
2024-06-06,阳光动力心武搏击健身工作室,117.859144,36.496395,其他,体育场馆,晚上,6.48
2024-06-06,福门商城(特色街区·西冶街店),117.858483,36.495995,其他,商场,上午,8.33
2024-06-06,俏神州大酒店,117.875879,36.507295,其他,餐饮,下午,7.41
2024-06-06,高青友好医院,117.860551,37.173783,其他,医院,深夜,3.55
2024-06-06,高青友好医院,117.860551,37.173783,其他,医院,下午,6.82
2024-06-06,华藏寺,117.950788,36.556576,其他,旅游景点,傍晚,3.69
2024-06-06,海棠园,117.994754,36.839891,其他,旅游景点,傍晚,4.59
2024-06-06,海棠园,117.994754,36.839891,其他,旅游景点,晚上,5.98
2024-06-06,留仙湖公园-淄川健康主题公园,117.956814,36.634343,其他,公园,傍晚,4.86
2024-06-06,慈云寺,117.875957,37.208507,其他,旅游景点,下午,6.54
2024-06-06,桓台县城南学校,118.084252,36.940475,其他,学校,傍晚,6.3
2024-06-06,零距离健身,118.077582,36.816188,其他,体育场馆,中午,5.32
2024-06-06,渭一窑址,117.961306,36.558392,其他,旅游景点,中午,5.22
2024-06-06,翊炀羽毛球馆,117.933706,36.811639,其他,体育场馆,上午,8.07
2024-06-06,淄博市第七人民医院,118.053946,36.826246,其他,医院,中午,7.04
2024-06-06,淄博市第七人民医院,118.053946,36.826246,其他,医院,深夜,4.25
2024-06-06,天行健健身会所,118.004368,36.836872,其他,体育场馆,傍晚,6.2
2024-06-06,小维度奶茶店,117.852553,36.800011,其他,餐饮,上午,6.3
2024-06-06,海鸥ZONE健身工作室,117.866042,36.822629,其他,体育场馆,晚上,3.45
2024-06-06,海鸥ZONE健身工作室,117.866042,36.822629,其他,体育场馆,中午,5.32
2024-06-06,焦裕禄纪念馆,117.992174,36.437097,其他,旅游景点,傍晚,7.28
2024-06-06,焦裕禄纪念馆,117.992174,36.437097,其他,旅游景点,晚上,2.9
2024-06-06,山东清源集团医院,118.210773,36.80142,其他,医院,深夜,6.24
2024-06-06,山东清源集团医院,118.210773,36.80142,其他,医院,上午,6.04
2024-06-06,启点健身(九宏大厦店),118.036119,36.838087,其他,体育场馆,下午,4.68
2024-06-06,张店区科苑街道黄金国际社区卫生服务站,118.029946,36.82267,其他,医院,凌晨,3.82
2024-06-06,淘宝商城(鲁中国际商贸城店),117.953475,36.641625,其他,商场,深夜,4.98
2024-06-06,淘宝商城(鲁中国际商贸城店),117.953475,36.641625,其他,商场,晚上,5.29
2024-06-07,淄川明圣医院,117.948865,36.666524,其他,医院,上午,4.89
2024-06-07,淄川明圣医院,117.948865,36.666524,其他,医院,下午,6.13
2024-06-07,巧遇健身会所(润德大厦店),117.991658,36.82216,其他,体育场馆,中午,3.63
2024-06-07,华仁中医医院,118.042517,36.807609,其他,医院,凌晨,4.38
2024-06-07,华仁中医医院,118.042517,36.807609,其他,医院,傍晚,5.32
2024-06-07,萌山公园,117.894094,36.713084,其他,公园,上午,6.49
2024-06-07,萌山公园,117.894094,36.713084,其他,公园,中午,5.42
2024-06-07,北大医疗淄博医院,118.041309,36.755311,其他,医院,傍晚,5.48
2024-06-07,乐华滋披萨(振兴路店),118.163299,36.186017,其他,餐饮,晚上,6.23
2024-06-07,沂源县中医医院,118.161907,36.19553,其他,医院,凌晨,3.13
2024-06-07,淄川经济开发区实验学校,117.933931,36.657577,其他,文化场馆,晚上,5.08
2024-06-07,淄川经济开发区实验学校,117.933931,36.657577,其他,文化场馆,上午,7.92
2024-06-07,临淄区人民医院门诊部,118.306519,36.813212,其他,医院,深夜,6.24
2024-06-07,和谐广场,117.879887,36.65397,其他,公园,中午,6.88
2024-06-07,博山人民公园,117.855,36.496169,其他,公园,中午,4.53
2024-06-07,玉垚凉皮(山铝店),118.045764,36.753859,其他,餐饮,凌晨,5.68
2024-06-07,淄博市周村区实验中学,117.844915,36.787422,其他,学校,中午,7.06
2024-06-07,淄博市周村区实验中学,117.844915,36.787422,其他,学校,上午,7.16
2024-06-07,张店区第一中学,118.043795,36.795111,其他,学校,深夜,5.89
2024-06-07,华齐私教健身中心(华侨店),117.992958,36.819546,其他,体育场馆,傍晚,6.59
2024-06-07,五阳山景区,117.911597,36.428971,其他,旅游景点,晚上,5.91
2024-06-07,五阳山景区,117.911597,36.428971,其他,旅游景点,深夜,4.56
2024-06-07,博山财神庙,117.897121,36.52617,其他,旅游景点,上午,6.29
2024-06-07,海洋王国,118.296117,36.817556,其他,公园,上午,7.94
2024-06-07,梓橦山旅游区,118.03096,36.665088,其他,旅游景点,凌晨,4.73
2024-06-07,梓橦山旅游区,118.03096,36.665088,其他,旅游景点,中午,7.59
2024-06-07,月牙湾,118.386452,36.843008,其他,旅游景点,中午,7.07
2024-06-07,蓝溪国际滑雪场(暂停营业),118.358638,36.781914,其他,体育场馆,中午,5.87
2024-06-07,京味涮肉坊(紫馨园店),118.015711,36.798004,其他,餐饮,凌晨,4.41
2024-06-07,京味涮肉坊(紫馨园店),118.015711,36.798004,其他,餐饮,深夜,4.03
2024-06-07,淄博矿业集团公司双山医院,117.853711,36.498469,其他,医院,凌晨,3.52
2024-06-07,临淄区稷下小学,118.315531,36.810223,其他,学校,晚上,5.78
2024-06-07,临淄区稷下小学,118.315531,36.810223,其他,学校,中午,6.68
2024-06-07,普照寺,117.962441,36.639034,其他,旅游景点,上午,6.64
2024-06-07,淄博高新区机关医院,118.052056,36.840245,其他,医院,晚上,6.92
2024-06-07,淄博高新区机关医院,118.052056,36.840245,其他,医院,上午,6.69
2024-06-07,沂河源省级湿地公园,118.150174,36.196341,其他,公园,晚上,5.24
2024-06-07,沂河源省级湿地公园,118.150174,36.196341,其他,公园,深夜,4.96
2024-06-07,般阳中学,117.915619,36.656604,其他,学校,晚上,4.44
2024-06-07,原山国家森林公园-吕祖庙,117.83522,36.478136,其他,旅游景点,凌晨,3.98
2024-06-07,北苑小学,118.018256,36.844471,其他,学校,下午,4.01
2024-06-07,北苑小学,118.018256,36.844471,其他,学校,中午,5.2
2024-06-07,红叶柿岩古村广场,117.804885,36.509313,其他,公园,傍晚,5.58
2024-06-07,红叶柿岩古村广场,117.804885,36.509313,其他,公园,中午,6.48
2024-06-07,中国课本博物馆,118.107847,36.831431,其他,文化场馆,凌晨,4.14
2024-06-07,城标广场,118.100016,36.949576,其他,公园,深夜,6.0
2024-06-07,足球主题公园,118.371633,36.804896,其他,公园,上午,5.4
2024-06-07,淄博陶瓷琉璃国艺馆,117.986224,36.826285,其他,文化场馆,深夜,5.92
2024-06-07,淄博陶瓷琉璃国艺馆,117.986224,36.826285,其他,文化场馆,下午,6.22
2024-06-07,周村区南郊镇中心卫生院,117.915221,36.777426,其他,医院,中午,4.63
2024-06-07,周村区南郊镇中心卫生院,117.915221,36.777426,其他,医院,凌晨,5.16
2024-06-07,俏神州大酒店,117.875879,36.507295,其他,餐饮,下午,5.97
2024-06-07,俏神州大酒店,117.875879,36.507295,其他,餐饮,深夜,2.81
2024-06-07,蒙山蚂蚱鸡(大顺路店),118.297962,36.82577,其他,餐饮,上午,6.75
2024-06-07,蒙山蚂蚱鸡(大顺路店),118.297962,36.82577,其他,餐饮,中午,6.51
2024-06-07,周村区正阳路小学,117.863684,36.819077,其他,学校,凌晨,4.54
2024-06-07,自贸免税商城(建设中),118.055953,36.845954,其他,商场,晚上,3.57
2024-06-07,自贸免税商城(建设中),118.055953,36.845954,其他,商场,下午,6.18
2024-06-07,东方购物广场(沂源店),118.160871,36.184001,其他,商场,上午,5.9
2024-06-07,山东淄博新元学校,118.053855,36.819376,其他,学校,下午,6.9
2024-06-07,圣佛山圣佛寺,118.215772,36.651906,其他,旅游景点,深夜,6.67
2024-06-07,朱家村体育公园,117.969206,36.663327,其他,公园,晚上,4.73
2024-06-07,南定镇崔军纪念堂,118.049097,36.739534,其他,旅游景点,下午,4.26
2024-06-07,南定镇崔军纪念堂,118.049097,36.739534,其他,旅游景点,晚上,5.97
2024-06-07,上地广场,118.295909,36.813781,其他,商场,中午,6.72
2024-06-07,上地广场,118.295909,36.813781,其他,商场,晚上,4.05
2024-06-07,蜂山公园,118.244184,36.747659,其他,公园,深夜,4.16
2024-06-07,蜂山公园,118.244184,36.747659,其他,公园,晚上,5.52
2024-06-07,淄博宝鑫新经典学校,118.100999,36.818062,其他,学校,晚上,4.79
2024-06-07,凤凰山公园,117.838883,36.741488,其他,公园,晚上,4.53
2024-06-07,张店区科技苑中学,118.050969,36.828994,其他,学校,凌晨,5.38
2024-06-07,圆心楼商城,117.844755,36.618944,其他,商场,中午,4.37
2024-06-07,圆心楼商城,117.844755,36.618944,其他,商场,凌晨,3.98
2024-06-07,北郊镇中心卫生院,117.911802,36.82596,其他,医院,深夜,3.75
2024-06-07,赵瓦湿地公园,117.989471,36.700861,其他,公园,傍晚,5.28
2024-06-07,淄博市中心医院西院区住院五部,117.973382,36.811715,其他,医院,凌晨,4.16
2024-06-07,淄博市中心医院西院区住院五部,117.973382,36.811715,其他,医院,深夜,2.76
2024-06-07,炒米山生态风景区,118.131667,36.762922,其他,旅游景点,下午,6.02
2024-06-08,淄博市老年大学,118.043279,36.808417,其他,学校,上午,6.86
2024-06-08,淄博市老年大学,118.043279,36.808417,其他,学校,凌晨,3.88
2024-06-08,梓潼关,117.887834,36.71048,其他,旅游景点,晚上,3.56
2024-06-08,梓潼关,117.887834,36.71048,其他,旅游景点,深夜,5.75
2024-06-08,高青双语学校,117.860078,37.158281,其他,学校,晚上,7.08
2024-06-08,高青双语学校,117.860078,37.158281,其他,学校,深夜,3.42
2024-06-08,星动重塑女性健身,118.024703,36.825757,其他,体育场馆,晚上,5.11
2024-06-08,淄博修文外国语学校,117.975357,36.837448,其他,学校,傍晚,5.53
2024-06-08,茂业百货(广场店),118.296332,36.819241,其他,商场,深夜,6.04
2024-06-08,茂业百货(广场店),118.296332,36.819241,其他,商场,晚上,5.44
2024-06-08,石佛堂寺,118.349201,36.885109,其他,旅游景点,傍晚,7.05
2024-06-08,石佛堂寺,118.349201,36.885109,其他,旅游景点,中午,6.77
2024-06-08,友谊蛋糕(植物园店),118.022711,36.790473,其他,餐饮,中午,5.34
2024-06-08,淄博高新华庚医院,118.06279,36.843618,其他,医院,上午,5.84
2024-06-08,皇后餐厅,118.036899,36.850457,其他,餐饮,深夜,4.42
2024-06-08,皇后餐厅,118.036899,36.850457,其他,餐饮,上午,7.13
2024-06-08,淄博王府井广场,118.051895,36.805278,其他,商场,深夜,5.64
2024-06-08,峨庄国家森林公园,118.150576,36.503571,其他,公园,中午,6.62
2024-06-08,峨庄国家森林公园,118.150576,36.503571,其他,公园,下午,5.05
2024-06-08,海鸥ZONE健身工作室,117.866042,36.822629,其他,体育场馆,凌晨,2.56
2024-06-08,海鸥ZONE健身工作室,117.866042,36.822629,其他,体育场馆,中午,6.05
2024-06-08,百姓商厦,117.859366,36.497653,其他,商场,傍晚,8.15
2024-06-08,百姓商厦,117.859366,36.497653,其他,商场,中午,8.27
2024-06-08,吉祥广场,117.973527,36.655065,其他,公园,中午,7.99
2024-06-08,吉祥广场,117.973527,36.655065,其他,公园,下午,4.78
2024-06-08,雁阳小学,118.001471,36.653546,其他,学校,深夜,5.76
2024-06-08,雁阳小学,118.001471,36.653546,其他,学校,上午,7.23
2024-06-08,淄博外语学校,118.035326,36.787985,其他,学校,晚上,5.71
2024-06-08,淄博外语学校,118.035326,36.787985,其他,学校,深夜,5.24
2024-06-08,淄川南部森林公园,117.967431,36.620843,其他,公园,深夜,5.98
2024-06-08,知味鲜海鲜家常菜,118.024842,36.842491,其他,餐饮,晚上,3.47
2024-06-08,博山风景名胜区,117.820186,36.513045,其他,旅游景点,下午,7.38
2024-06-08,银座购物广场(五里桥店),118.032224,36.813519,其他,商场,凌晨,2.87
2024-06-08,朱台镇新时代文明实践广场,118.260278,36.938944,其他,公园,晚上,4.52
2024-06-08,重庆饭店(华光路店),118.058445,36.819347,其他,餐饮,傍晚,6.14
2024-06-08,西河健身广场,117.944417,36.728492,其他,公园,深夜,5.76
2024-06-08,TK彤德捞时尚火锅(星河街店),117.989331,36.799807,其他,餐饮,下午,8.91
2024-06-08,TK彤德捞时尚火锅(星河街店),117.989331,36.799807,其他,餐饮,傍晚,5.93
2024-06-08,山旺村健身广场,117.89136,36.76054,其他,公园,深夜,6.29
2024-06-08,山旺村健身广场,117.89136,36.76054,其他,公园,傍晚,5.83
2024-06-08,悦味坊酒店,118.0079,36.832232,其他,餐饮,晚上,4.37
2024-06-08,悦味坊酒店,118.0079,36.832232,其他,餐饮,下午,5.02
2024-06-08,胶东肥蛤王小海鲜,117.871111,36.815465,其他,餐饮,中午,6.21
2024-06-08,干锅鸭头老博山菜(白虎山路商业街店),117.86028,36.513678,其他,餐饮,深夜,4.25
2024-06-08,赵瓦湿地公园,117.989471,36.700861,其他,公园,上午,7.13
2024-06-08,傅家实验小学,118.000548,36.768742,其他,学校,傍晚,7.28
2024-06-08,沂源县人民医院大张庄分院,118.028335,36.036198,其他,医院,下午,7.5
2024-06-08,淄博瑞生医院,118.040809,36.828672,其他,医院,傍晚,5.21
2024-06-08,淄博瑞生医院,118.040809,36.828672,其他,医院,上午,7.81
2024-06-08,高青县第二中学,117.826388,37.168863,其他,学校,上午,6.86
2024-06-08,王村醋博物馆,117.719747,36.681168,其他,文化场馆,晚上,3.29
2024-06-08,王村醋博物馆,117.719747,36.681168,其他,文化场馆,上午,5.45
2024-06-08,东源商场,118.056381,36.806026,其他,商场,傍晚,5.77
2024-06-08,福德寺,118.233143,36.766972,其他,旅游景点,傍晚,4.78
2024-06-08,德润医院,117.884854,36.555597,其他,医院,上午,8.29
2024-06-08,金牛山景区,117.905307,36.37245,其他,旅游景点,晚上,5.72
2024-06-08,淄博师专,117.908464,36.66217,其他,学校,下午,7.73
2024-06-08,孝妇河骑行公园,118.003375,36.747467,其他,公园,凌晨,3.78
2024-06-08,孝妇河骑行公园,118.003375,36.747467,其他,公园,下午,4.94
2024-06-08,周村区第三医院,117.911525,36.825789,其他,医院,深夜,5.21
2024-06-08,山东省博山电力技工学校,117.85858,36.478547,其他,学校,下午,7.07
2024-06-08,桓台县鱼龙中学,118.101559,37.0654,其他,学校,上午,6.73
2024-06-08,桓台县鱼龙中学,118.101559,37.0654,其他,学校,下午,8.74
2024-06-08,淄博市技师学院(东校区),118.080531,36.808427,其他,学校,傍晚,4.86
2024-06-08,淄博市技师学院(东校区),118.080531,36.808427,其他,学校,下午,4.35
2024-06-08,山东省淄博第六中学(总校区),117.826289,36.799133,其他,学校,傍晚,5.24
2024-06-08,山东省淄博第六中学(总校区),117.826289,36.799133,其他,学校,凌晨,5.01
2024-06-08,齐都大酒店,118.308852,36.811267,其他,餐饮,晚上,5.18
2024-06-08,高青县青城卫生院,117.689242,37.177882,其他,医院,下午,5.73
2024-06-08,淄博文姜大酒店,117.857909,36.48168,其他,餐饮,凌晨,5.51
2024-06-08,淄博文姜大酒店,117.857909,36.48168,其他,餐饮,深夜,4.84
2024-06-08,四季青医院西院区,117.972697,36.835747,其他,医院,深夜,6.61
2024-06-08,四季青医院西院区,117.972697,36.835747,其他,医院,中午,6.64
2024-06-08,崔家烤羊(中润·华侨城店),118.027231,36.841427,其他,餐饮,中午,7.07
2024-06-08,青岛红树林景区,118.174665,36.184223,其他,旅游景点,下午,5.39
2024-06-08,青岛红树林景区,118.174665,36.184223,其他,旅游景点,上午,7.08
2024-06-08,牛山郊野公园,118.351994,36.781567,其他,公园,凌晨,4.67
2024-06-08,牛山郊野公园,118.351994,36.781567,其他,公园,下午,5.33
2024-06-08,响袋24h无人自助台球(吾悦广场店),118.023236,36.784281,其他,体育场馆,凌晨,5.79
2024-06-08,响袋24h无人自助台球(吾悦广场店),118.023236,36.784281,其他,体育场馆,深夜,4.8
2024-06-08,淄博市博山区第二人民医院,118.052569,36.428533,其他,医院,中午,7.65
2024-06-08,淄博市博山区第二人民医院,118.052569,36.428533,其他,医院,傍晚,6.97
2024-06-08,巩本明鱼屋子,118.083466,37.056576,其他,餐饮,中午,5.47
2024-06-08,淄博市张店区铝城第一中学,118.040937,36.748754,其他,学校,凌晨,3.29
2024-06-08,淄博市张店区铝城第一中学,118.040937,36.748754,其他,学校,上午,5.18
2024-06-08,山东职业技工学校(章丘校区),117.703625,36.676497,其他,学校,中午,6.6
2024-06-08,山东职业技工学校(章丘校区),117.703625,36.676497,其他,学校,傍晚,6.92
2024-06-08,山东省淄博第十一中学,118.058549,36.850697,其他,学校,傍晚,6.8
2024-06-08,果里医院,118.078742,36.903025,其他,医院,晚上,5.03
2024-06-08,钟楼,117.960268,36.668146,其他,旅游景点,上午,6.88
2024-06-08,钟楼,117.960268,36.668146,其他,旅游景点,中午,6.57
2024-06-08,沁园社区卫生服务站,118.045357,36.814004,其他,医院,中午,5.89
2024-06-08,SOS台球俱乐部,118.029034,36.80782,其他,体育场馆,晚上,7.05
2024-06-08,SOS台球俱乐部,118.029034,36.80782,其他,体育场馆,傍晚,7.08
2024-06-08,淄博齐盛高级中学,117.976779,36.852334,其他,学校,凌晨,6.35
2024-06-08,李家疃明清建筑群,117.699341,36.661727,其他,旅游景点,深夜,4.83
2024-06-08,TULIPS MAPLE(齐园绿城店),118.288425,36.809494,其他,商场,深夜,3.87
2024-06-08,康平乒乓球俱乐部,118.281593,36.805622,其他,体育场馆,凌晨,3.93
2024-06-08,康平乒乓球俱乐部,118.281593,36.805622,其他,体育场馆,傍晚,5.8
2024-06-08,近江南御翅府,118.281748,36.810004,其他,餐饮,凌晨,3.11
2024-06-08,淄川区洪山卫生院,117.994054,36.625748,其他,医院,凌晨,6.35
2024-06-08,幽幽谷,118.080758,36.323183,其他,旅游景点,下午,5.34
2024-06-08,幽幽谷,118.080758,36.323183,其他,旅游景点,中午,5.32
2024-06-08,桓台县中医院,118.098618,36.968299,其他,医院,下午,6.65
2024-06-08,桓台县中医院,118.098618,36.968299,其他,医院,深夜,3.79
2024-06-09,心福烤鱼店,118.014583,36.791268,其他,餐饮,中午,6.16
2024-06-09,动力100游泳健身(吾悦广场店),117.866817,36.823078,其他,体育场馆,上午,6.78
2024-06-09,动力100游泳健身(吾悦广场店),117.866817,36.823078,其他,体育场馆,下午,6.74
2024-06-09,旗胜足球场,118.024355,36.773073,其他,体育场馆,傍晚,6.84
2024-06-09,优购商城,118.330515,36.805331,其他,商场,下午,6.07
2024-06-09,淄博修文外国语学校,117.975357,36.837448,其他,学校,晚上,3.97
2024-06-09,淄博修文外国语学校,117.975357,36.837448,其他,学校,傍晚,6.43
2024-06-09,重庆饭店(华光路店),118.058445,36.819347,其他,餐饮,下午,6.93
2024-06-09,重庆饭店(华光路店),118.058445,36.819347,其他,餐饮,上午,6.76
2024-06-09,西山公园,117.990818,36.634296,其他,公园,晚上,4.89
2024-06-09,茂业百货-北区,118.296237,36.819238,其他,商场,上午,5.83
2024-06-09,茂业百货-北区,118.296237,36.819238,其他,商场,凌晨,5.08
2024-06-09,莲花寺,117.873039,36.477942,其他,旅游景点,下午,5.54
2024-06-09,山东职业技工学校(章丘校区),117.703625,36.676497,其他,学校,凌晨,4.52
2024-06-09,山东职业技工学校(章丘校区),117.703625,36.676497,其他,学校,深夜,4.14
2024-06-09,闻韶园,118.307337,36.816489,其他,公园,凌晨,3.09
2024-06-09,闻韶园,118.307337,36.816489,其他,公园,下午,6.32
2024-06-09,颜文姜祠,117.855514,36.481729,其他,旅游景点,凌晨,4.67
2024-06-09,颜文姜祠,117.855514,36.481729,其他,旅游景点,上午,6.75
2024-06-09,信誉楼百货(桓台店),118.09803,36.94643,其他,商场,深夜,7.15
2024-06-09,淄博光正公司医院,117.947288,36.6059,其他,医院,中午,6.64
2024-06-09,淄博商厦,118.058471,36.802055,其他,商场,深夜,5.42
2024-06-09,淄博商厦,118.058471,36.802055,其他,商场,晚上,3.8
2024-06-09,红叶柿岩古村广场,117.804885,36.509313,其他,公园,中午,6.51
2024-06-09,红叶柿岩古村广场,117.804885,36.509313,其他,公园,凌晨,4.56
2024-06-09,卧虎山森林公园,117.795732,36.597132,其他,公园,下午,6.68
2024-06-09,天玑阁,117.945775,37.186481,其他,旅游景点,晚上,7.46
2024-06-09,TT台球俱乐部,117.97484,36.639349,其他,体育场馆,下午,4.08
2024-06-09,TT台球俱乐部,117.97484,36.639349,其他,体育场馆,傍晚,5.04
2024-06-09,淄博市临淄中学,118.341718,36.834299,其他,学校,上午,7.14
2024-06-09,西城食府,117.936398,36.653827,其他,餐饮,晚上,4.71
2024-06-09,西城食府,117.936398,36.653827,其他,餐饮,下午,7.04
2024-06-09,峨嵋山公园,117.863174,36.486709,其他,公园,晚上,5.18
2024-06-09,峨嵋山公园,117.863174,36.486709,其他,公园,凌晨,4.62
2024-06-09,三官庙,118.192014,36.453194,其他,旅游景点,晚上,5.89
2024-06-09,三官庙,118.192014,36.453194,其他,旅游景点,中午,4.89
2024-06-09,少儿游泳综合运动馆,118.02624,36.808166,其他,体育场馆,傍晚,6.68
2024-06-09,少儿游泳综合运动馆,118.02624,36.808166,其他,体育场馆,中午,7.35
2024-06-09,五阳湖生态旅游度假区,117.88886,36.395126,其他,旅游景点,中午,7.01
2024-06-09,淄博沂源九天洞景区,118.073101,36.271766,其他,旅游景点,凌晨,4.32
2024-06-09,联通路169号红星欧丽洛雅商场,118.010594,36.829104,其他,商场,下午,7.2
2024-06-09,万杰朝阳学校,117.852329,36.544411,其他,学校,傍晚,6.84
2024-06-09,万杰朝阳学校,117.852329,36.544411,其他,学校,晚上,7.26
2024-06-09,淄博市技师学院经开校区,118.051685,36.770831,其他,学校,中午,6.99
2024-06-09,齐德学校,117.989599,36.803053,其他,学校,晚上,5.87
2024-06-09,齐德学校,117.989599,36.803053,其他,学校,下午,8.35
2024-06-09,光辉百货,117.859345,36.786782,其他,商场,中午,6.08
2024-06-09,龙泉寺,117.897724,36.524553,其他,旅游景点,凌晨,4.94
2024-06-09,龙泉寺,117.897724,36.524553,其他,旅游景点,中午,6.24
2024-06-09,沁园社区卫生服务站,118.045357,36.814004,其他,医院,晚上,6.27
2024-06-09,沁园社区卫生服务站,118.045357,36.814004,其他,医院,傍晚,6.72
2024-06-09,孝妇河湿地公园喷泉广场,117.970314,36.801683,其他,公园,深夜,4.95
2024-06-09,孝妇河湿地公园喷泉广场,117.970314,36.801683,其他,公园,下午,5.95
2024-06-09,佳惠新天地生活广场,118.187319,36.192233,其他,商场,深夜,6.13
2024-06-09,佳惠新天地生活广场,118.187319,36.192233,其他,商场,中午,6.67
2024-06-09,山东工业职业学院,118.081232,36.88653,其他,学校,深夜,5.35
2024-06-09,陈小二炒鸡(润生家园店),118.188699,36.189234,其他,餐饮,中午,5.34
2024-06-09,新玛特名酒专柜(新玛特购物广场店),118.028595,36.837937,其他,商场,深夜,5.09
2024-06-09,新玛特名酒专柜(新玛特购物广场店),118.028595,36.837937,其他,商场,中午,7.59
2024-06-09,桓台县人民医院,118.093414,36.945519,其他,医院,晚上,7.58
2024-06-09,篮球场,117.983237,36.787736,其他,体育场馆,深夜,5.28
2024-06-09,颜神古镇,117.869314,36.471163,其他,旅游景点,上午,8.06
2024-06-09,颜神古镇,117.869314,36.471163,其他,旅游景点,凌晨,4.76
2024-06-09,张店区房镇祠堂,117.950836,36.848017,其他,旅游景点,深夜,7.08
2024-06-09,张店区房镇祠堂,117.950836,36.848017,其他,旅游景点,凌晨,5.7
2024-06-09,淄博鑫马吾悦广场,118.001652,36.824664,其他,商场,下午,8.15
2024-06-09,鲁中晨报,118.058442,36.837798,其他,文化场馆,凌晨,6.88
2024-06-09,鲁中晨报,118.058442,36.837798,其他,文化场馆,深夜,4.98
2024-06-09,淄博电子工程学校,118.152562,36.187551,其他,学校,下午,5.81
2024-06-09,淄博电子工程学校,118.152562,36.187551,其他,学校,晚上,4.34
2024-06-09,华严寺,117.980377,37.000746,其他,旅游景点,上午,6.79
2024-06-09,观音古寺,118.161694,36.365494,其他,旅游景点,晚上,4.28
2024-06-09,观音古寺,118.161694,36.365494,其他,旅游景点,下午,7.74
2024-06-09,中共淄川区龙泉镇台头村委员会,117.969534,36.573948,其他,学校,中午,6.23
2024-06-09,中共淄川区龙泉镇台头村委员会,117.969534,36.573948,其他,学校,晚上,5.26
2024-06-09,中国琉璃艺术殿堂,117.853656,36.488408,其他,旅游景点,中午,6.32
2024-06-09,中国琉璃艺术殿堂,117.853656,36.488408,其他,旅游景点,深夜,6.17
2024-06-09,伊特蛋糕(紫荆园店),118.053414,36.832825,其他,餐饮,傍晚,5.75
2024-06-09,淄博理工学校,117.984673,36.645065,其他,学校,晚上,5.74
2024-06-09,银座商城超市(柳泉路店),118.050484,36.805618,其他,商场,中午,4.89
2024-06-09,世纪花园-中心公园,118.020012,36.833157,其他,公园,中午,4.98
2024-06-09,世纪花园-中心公园,118.020012,36.833157,其他,公园,上午,8.1
2024-06-09,福记小馆(朝阳花苑凯旋城店),117.871797,36.811256,其他,餐饮,傍晚,5.66
2024-06-09,福记小馆(朝阳花苑凯旋城店),117.871797,36.811256,其他,餐饮,上午,6.31
2024-06-09,石炊百味云南蒸汽石锅鱼,118.01485,36.791229,其他,餐饮,中午,5.05
2024-06-09,九顶山公园,118.149906,36.825267,其他,公园,凌晨,5.04
2024-06-09,鲁村中心卫生院,118.048379,36.195733,其他,医院,上午,5.44
2024-06-09,鲁村中心卫生院,118.048379,36.195733,其他,医院,深夜,6.22
2024-06-09,淄博广电医院,118.048349,36.815733,其他,医院,中午,5.97
2024-06-09,吉祥泡椒凤爪,118.031029,36.799203,其他,餐饮,傍晚,4.94
2024-06-09,蒙之涮(植物园店),118.03324,36.789241,其他,餐饮,深夜,5.47
2024-06-09,蒙之涮(植物园店),118.03324,36.789241,其他,餐饮,晚上,4.12
2024-06-09,翊炀羽毛球馆,117.933706,36.811639,其他,体育场馆,下午,7.35
2024-06-09,稷下文化园,118.274123,36.81748,其他,公园,晚上,7.3
2024-06-09,稷下文化园,118.274123,36.81748,其他,公园,深夜,5.21
2024-06-09,盛世·璟点台球,118.031094,36.798846,其他,体育场馆,晚上,5.66
2024-06-09,盛世·璟点台球,118.031094,36.798846,其他,体育场馆,上午,6.24
2024-06-09,喜力私教健身(华润店),118.060887,36.803298,其他,体育场馆,晚上,6.25
2024-06-09,银座商城(淄博店),118.050481,36.805504,其他,商场,傍晚,7.69
2024-06-09,钱裕园文化广场,118.00181,36.81628,其他,公园,傍晚,4.83
2024-06-09,钱裕园文化广场,118.00181,36.81628,其他,公园,上午,6.58
2024-06-09,马尚中心卫生院,117.995696,36.81971,其他,医院,深夜,4.21
2024-06-09,淄博商厦周村家电广场,117.857922,36.807819,其他,商场,中午,5.43
2024-06-09,淄博商厦周村家电广场,117.857922,36.807819,其他,商场,深夜,4.77
2024-06-09,淄博饭店商场,118.060186,36.806071,其他,商场,中午,6.24
2024-06-09,淄川体育公园,117.975396,36.63122,其他,公园,深夜,4.43
2024-06-09,淄川体育公园,117.975396,36.63122,其他,公园,凌晨,4.06
2024-06-09,淄博市中心医院西院区培训部,117.97317,36.809077,其他,医院,下午,4.83
2024-06-09,淄博市中心医院西院区培训部,117.97317,36.809077,其他,医院,凌晨,3.31
2024-06-09,谈小娱24h自助台球棋牌(莲池店),118.036283,36.831241,其他,体育场馆,上午,6.5
2024-06-09,谈小娱24h自助台球棋牌(莲池店),118.036283,36.831241,其他,体育场馆,晚上,3.67
2024-06-09,临淄区凤凰中心卫生院,118.231515,36.882201,其他,医院,晚上,6.0
2024-06-09,临淄区凤凰中心卫生院,118.231515,36.882201,其他,医院,下午,6.45
2024-06-09,海鸥ZONE健身工作室,117.866042,36.822629,其他,体育场馆,傍晚,6.58
2024-06-09,海鸥ZONE健身工作室,117.866042,36.822629,其他,体育场馆,下午,4.95
2024-06-09,兰雁广场,118.040105,36.804364,其他,公园,下午,8.02
2024-06-09,万杰国际大酒店,117.854192,36.541102,其他,餐饮,下午,7.94
2024-06-09,张店区肌因体育健康服务部,118.008977,36.840866,其他,医院,深夜,3.98
2024-06-09,留仙湖公园,117.957398,36.6373,其他,公园,上午,6.06
2024-06-09,淄博齐盛高级中学,117.976779,36.852334,其他,学校,下午,5.22
2024-06-09,淄博齐盛高级中学,117.976779,36.852334,其他,学校,凌晨,4.58
2024-06-09,动力100游泳健身(荣盛广场店),117.999996,36.825192,其他,体育场馆,下午,6.88
2024-06-09,动力100游泳健身(荣盛广场店),117.999996,36.825192,其他,体育场馆,中午,5.91
2024-06-10,德润医院,117.884854,36.555597,其他,医院,晚上,7.94
2024-06-10,桓台县中医院门诊部,118.098523,36.967718,其他,医院,上午,7.92
2024-06-10,银座中心店2期,118.049828,36.804971,其他,商场,凌晨,5.5
2024-06-10,银座商城超市(柳泉路店),118.050484,36.805618,其他,商场,傍晚,5.68
2024-06-10,银座商城超市(柳泉路店),118.050484,36.805618,其他,商场,中午,6.03
2024-06-10,盛达商业广场B区,117.863716,36.504063,其他,商场,深夜,5.26
2024-06-10,盛达商业广场B区,117.863716,36.504063,其他,商场,上午,6.12
2024-06-10,淄川区西河中心卫生院,117.942726,36.502452,其他,医院,晚上,5.09
2024-06-10,江南濠景生态美食园,118.009609,36.805242,其他,餐饮,凌晨,5.2
2024-06-10,江南濠景生态美食园,118.009609,36.805242,其他,餐饮,深夜,6.49
2024-06-10,孙庄党建主题公园,118.123778,36.846458,其他,公园,晚上,7.53
2024-06-10,天隆购物广场,117.86096,36.503301,其他,商场,上午,7.46
2024-06-10,天隆购物广场,117.86096,36.503301,其他,商场,凌晨,6.47
2024-06-10,友谊商场,118.168712,36.183769,其他,商场,下午,7.03
2024-06-10,山东省淄博第十八中学,118.055517,36.818262,其他,学校,上午,8.14
2024-06-10,山东省淄博第十八中学,118.055517,36.818262,其他,学校,傍晚,5.05
2024-06-10,樵岭前风景区,117.821669,36.446687,其他,旅游景点,凌晨,5.65
2024-06-10,张店区人民医院,118.072384,36.817652,其他,医院,傍晚,6.37
2024-06-10,德扬学校,117.981468,36.911981,其他,学校,深夜,5.91
2024-06-10,德扬学校,117.981468,36.911981,其他,学校,凌晨,4.29
2024-06-10,豹岩观,117.72937,36.651491,其他,旅游景点,中午,5.97
2024-06-10,银座·奥特莱斯(柳泉路店),118.056075,36.834419,其他,商场,中午,7.38
2024-06-10,金银山公园,118.053645,36.424029,其他,公园,凌晨,4.69
2024-06-10,齐祖广场,118.365747,36.810073,其他,公园,凌晨,3.59
2024-06-10,齐祖广场,118.365747,36.810073,其他,公园,晚上,5.13
2024-06-10,蓝溪国际滑雪场(暂停营业),118.358638,36.781914,其他,体育场馆,上午,6.36
2024-06-10,百家姓主题纪念公园,117.995852,36.885687,其他,公园,中午,5.58
2024-06-10,鲁西黄牛肉,117.863454,36.807768,其他,餐饮,上午,7.48
2024-06-10,鲁西黄牛肉,117.863454,36.807768,其他,餐饮,傍晚,6.39
2024-06-10,四砂医院,118.028215,36.730963,其他,医院,下午,6.74
2024-06-10,四砂医院,118.028215,36.730963,其他,医院,晚上,6.49
2024-06-10,淄川二中,117.978648,36.655917,其他,学校,上午,6.8
2024-06-10,淄川二中,117.978648,36.655917,其他,学校,下午,6.65
2024-06-10,八月美食小馆(银泰时代广场店),118.035926,36.849517,其他,餐饮,晚上,7.64
2024-06-10,桓台博物馆,118.096944,36.959551,其他,文化场馆,傍晚,8.1
2024-06-10,山川禅寺,117.961374,36.616908,其他,旅游景点,傍晚,6.12
2024-06-10,山川禅寺,117.961374,36.616908,其他,旅游景点,上午,7.1
2024-06-10,陈庄公园,117.917705,37.008687,其他,公园,凌晨,5.46
2024-06-10,陈庄公园,117.917705,37.008687,其他,公园,中午,6.2
2024-06-10,淄博宝华中医医院,118.02428,36.816938,其他,医院,凌晨,4.17
2024-06-10,灵芝洞,118.079323,36.267212,其他,旅游景点,上午,6.56
2024-06-10,利群集团淄博购物广场,118.060455,36.800429,其他,商场,傍晚,7.27
2024-06-10,利群集团淄博购物广场,118.060455,36.800429,其他,商场,深夜,4.9
2024-06-10,海岱楼钟书阁,117.98889,36.841714,其他,旅游景点,下午,7.86
2024-06-10,海岱楼钟书阁,117.98889,36.841714,其他,旅游景点,凌晨,3.04
2024-06-10,博山羽毛球运动中心,117.832353,36.514638,其他,体育场馆,上午,7.66
2024-06-10,淄博市市立医院,118.306982,36.813461,其他,医院,凌晨,4.54
2024-06-10,淄博市市立医院,118.306982,36.813461,其他,医院,晚上,5.06
2024-06-10,李家大院铁锅炖,118.049874,36.841887,其他,餐饮,上午,7.85
2024-06-10,钰朋购物中心(沣水店),118.090277,36.756057,其他,商场,凌晨,5.37
2024-06-10,钰朋购物中心(沣水店),118.090277,36.756057,其他,商场,晚上,3.97
2024-06-10,张店区第三中学,118.05725,36.807199,其他,学校,凌晨,4.85
2024-06-10,青年公园,118.040537,36.760851,其他,公园,下午,6.82
2024-06-10,青年公园,118.040537,36.760851,其他,公园,中午,7.09
2024-06-10,民法典主题公园,117.828674,36.796596,其他,公园,上午,7.21
2024-06-10,民法典主题公园,117.828674,36.796596,其他,公园,中午,6.44
2024-06-10,云川羽毛球俱乐部,118.096937,36.936719,其他,体育场馆,深夜,7.73
2024-06-10,临淄区齐都中心卫生院,118.350312,36.854112,其他,医院,下午,6.24
2024-06-10,临淄区齐都中心卫生院,118.350312,36.854112,其他,医院,傍晚,5.72
2024-06-10,淄博高新区外国语学校,118.124979,36.830867,其他,学校,凌晨,6.02
2024-06-10,傅家实验小学,118.000548,36.768742,其他,学校,上午,5.51
2024-06-10,傅家实验小学,118.000548,36.768742,其他,学校,傍晚,6.62
2024-06-10,淄博第十中学,117.905264,36.581359,其他,学校,下午,6.91
2024-06-10,淄博第十中学,117.905264,36.581359,其他,学校,傍晚,6.79
2024-06-10,革命历史纪念馆,118.17537,36.18447,其他,旅游景点,上午,6.32
2024-06-10,革命历史纪念馆,118.17537,36.18447,其他,旅游景点,晚上,5.07
2024-06-10,影私空间(淄博王府井广场店),118.051466,36.8059,其他,餐饮,上午,5.69
2024-06-10,影私空间(淄博王府井广场店),118.051466,36.8059,其他,餐饮,晚上,6.2
2024-06-10,淄博齐盛高级中学,117.976779,36.852334,其他,学校,深夜,5.78
2024-06-10,人民东路小学,118.064812,36.810418,其他,学校,晚上,5.48
2024-06-10,天明寺,118.065457,36.543319,其他,旅游景点,上午,5.25
2024-06-10,临淄拿铁健身俱乐部(棠悦店),118.326372,36.833733,其他,体育场馆,深夜,6.74
2024-06-10,淄博高新区第一小学,118.070519,36.844717,其他,学校,傍晚,5.74
2024-06-10,淄博高新区第一小学,118.070519,36.844717,其他,学校,上午,7.5
2024-06-10,周村人民广场-四德主题公园,117.858127,36.799089,其他,公园,深夜,6.09
2024-06-10,七夕广场,117.977751,36.789213,其他,公园,下午,7.05
2024-06-10,七夕广场,117.977751,36.789213,其他,公园,傍晚,6.67
2024-06-10,大管家,118.067791,36.843187,其他,餐饮,上午,8.45
2024-06-10,鑫乔羽毛球馆,118.076222,36.817135,其他,体育场馆,下午,6.6
2024-06-10,宝德商场,117.909726,37.038757,其他,商场,中午,4.92
2024-06-10,宝德商场,117.909726,37.038757,其他,商场,深夜,5.64
2024-06-10,乔氏桌球(晏婴路店),118.311476,36.819986,其他,体育场馆,深夜,6.58
2024-06-10,乔氏桌球(晏婴路店),118.311476,36.819986,其他,体育场馆,中午,7.36
2024-06-10,思迈健身会所(山东新星集团新星商厦店),118.023065,36.781464,其他,体育场馆,下午,7.19
2024-06-10,淄博市植物园,118.029484,36.792359,其他,公园,傍晚,6.72
2024-06-10,淄博市植物园,118.029484,36.792359,其他,公园,上午,7.05
2024-06-10,留仙湖公园-淄川健康主题公园,117.956814,36.634343,其他,公园,深夜,6.21
2024-06-10,玉黛湖-慧圆寺,118.143872,36.808691,其他,旅游景点,晚上,6.89
2024-06-10,玉黛湖-慧圆寺,118.143872,36.808691,其他,旅游景点,深夜,6.07
2024-06-10,华仁中医医院,118.042517,36.807609,其他,医院,中午,7.76
2024-06-10,禹王山林区,117.780704,36.482885,其他,旅游景点,深夜,4.78
2024-06-10,禹王山林区,117.780704,36.482885,其他,旅游景点,上午,6.05
2024-06-10,淄博市张店区实验中学,118.025832,36.799455,其他,学校,傍晚,7.32
2024-06-10,赵执信纪念馆,117.869469,36.492849,其他,旅游景点,傍晚,7.61
2024-06-10,寇氏游泳健身馆,118.339486,36.814335,其他,体育场馆,深夜,4.79
2024-06-10,山东省高青一中,117.849096,37.174481,其他,学校,下午,7.23
2024-06-10,淄博博山鲁中中医院,117.846959,36.533807,其他,医院,凌晨,4.38
2024-06-10,柳泉湿地公园,117.949355,36.633584,其他,公园,上午,5.78
2024-06-10,柳泉湿地公园,117.949355,36.633584,其他,公园,下午,6.34
2024-06-10,东方实验学校,118.078156,36.821028,其他,文化场馆,凌晨,6.6
2024-06-10,东方实验学校,118.078156,36.821028,其他,文化场馆,傍晚,7.18
2024-06-10,紫羅山观音寺,117.950841,36.422362,其他,旅游景点,晚上,4.62
2024-06-10,紫羅山观音寺,117.950841,36.422362,其他,旅游景点,上午,7.53
2024-06-10,包子客牛肉汤包(金乔社区北区店),118.070925,36.817875,其他,餐饮,傍晚,6.5
2024-06-10,汇达台球俱乐部,118.006687,36.816106,其他,体育场馆,上午,6.81
2024-06-10,马莲台风景区,118.347879,36.774682,其他,旅游景点,深夜,5.64
2024-06-10,沂源县人民医院,118.170794,36.188628,其他,医院,晚上,6.72
2024-06-10,周村区第二中学,117.859542,36.803863,其他,学校,深夜,5.78
2024-06-10,张店区第八中学,117.996954,36.825344,其他,学校,凌晨,5.8
2024-06-10,清梅居食品厂(白虎店),117.851202,36.499334,其他,餐饮,下午,7.15
2024-06-10,高青双语学校,117.860078,37.158281,其他,学校,深夜,7.44
2024-06-10,淄川普安寺,117.884049,36.62809,其他,旅游景点,凌晨,4.62
2024-06-10,淄川普安寺,117.884049,36.62809,其他,旅游景点,傍晚,7.46
2024-06-10,齐文化博物馆,118.364788,36.813558,其他,文化场馆,中午,7.24
2024-06-10,齐文化博物馆,118.364788,36.813558,其他,文化场馆,凌晨,3.86
2024-06-11,小寨游园,117.864398,36.808559,其他,公园,中午,5.5
2024-06-11,神清宫,118.160918,36.093633,其他,旅游景点,晚上,4.98
2024-06-11,天行健游泳健身俱乐部,118.32095,36.834906,其他,体育场馆,下午,6.0
2024-06-11,天行健游泳健身俱乐部,118.32095,36.834906,其他,体育场馆,中午,4.93
2024-06-11,海岱楼,117.988604,36.841309,其他,旅游景点,上午,7.8
2024-06-11,北大医疗淄博医院,118.041309,36.755311,其他,医院,凌晨,3.34
2024-06-11,权记洋行,118.061074,36.80042,其他,旅游景点,晚上,5.35
2024-06-11,权记洋行,118.061074,36.80042,其他,旅游景点,深夜,4.06
2024-06-11,山东省桓台第一中学,118.072887,36.960668,其他,学校,深夜,5.86
2024-06-11,山东省桓台第一中学,118.072887,36.960668,其他,学校,上午,7.23
2024-06-11,博山区第六中学,117.869513,36.503004,其他,学校,上午,6.21
2024-06-11,淄博张店馨膳坊饭店,118.028635,36.80315,其他,餐饮,上午,7.15
2024-06-11,淄博张店馨膳坊饭店,118.028635,36.80315,其他,餐饮,晚上,5.45
2024-06-11,青云大酒店(中共淄川区洪山镇委员会东),118.002062,36.623339,其他,餐饮,下午,6.72
2024-06-11,青云大酒店(中共淄川区洪山镇委员会东),118.002062,36.623339,其他,餐饮,傍晚,5.22
2024-06-11,石佛寺,117.862538,36.675462,其他,旅游景点,下午,4.57
2024-06-11,淄博市中心医院高青院区,117.836181,37.169301,其他,医院,晚上,6.32
2024-06-11,淄博中学,118.120439,36.831177,其他,学校,深夜,4.81
2024-06-11,的幸·强无敌张店羽球国际主题馆羽毛球馆,118.072624,36.780393,其他,体育场馆,上午,7.25
2024-06-11,的幸·强无敌张店羽球国际主题馆羽毛球馆,118.072624,36.780393,其他,体育场馆,凌晨,4.36
2024-06-11,唐家村文化广场,118.013876,36.745709,其他,公园,下午,5.23
2024-06-11,茂业百货(商城店),118.319772,36.811152,其他,商场,深夜,5.59
2024-06-11,牛山禅寺,118.351095,36.791842,其他,旅游景点,晚上,4.78
2024-06-11,牛山禅寺,118.351095,36.791842,其他,旅游景点,凌晨,4.93
2024-06-11,原山国家森林公园-吕祖庙,117.83522,36.478136,其他,旅游景点,深夜,4.12
2024-06-11,广凯久久鸭脖王,118.103084,36.960928,其他,餐饮,凌晨,3.9
2024-06-11,广凯久久鸭脖王,118.103084,36.960928,其他,餐饮,傍晚,5.33
2024-06-11,银座商城(高青店),117.840226,37.164654,其他,商场,深夜,5.49
2024-06-11,张店区第八中学,117.996954,36.825344,其他,学校,深夜,3.57
2024-06-11,张店区第八中学,117.996954,36.825344,其他,学校,傍晚,7.71
2024-06-11,桓台县唐山镇邢家卫生院,118.063625,37.005697,其他,医院,深夜,2.42
2024-06-11,桓台县唐山镇邢家卫生院,118.063625,37.005697,其他,医院,晚上,4.82
2024-06-11,星巴克(淄博印象汇店),118.053299,36.822489,其他,餐饮,中午,6.59
2024-06-11,星巴克(淄博印象汇店),118.053299,36.822489,其他,餐饮,下午,5.34
2024-06-11,闯山东铁锅炖(天隆购物广场店),117.860416,36.503609,其他,餐饮,中午,5.91
2024-06-11,闯山东铁锅炖(天隆购物广场店),117.860416,36.503609,其他,餐饮,下午,6.19
2024-06-11,龙二村文化广场,117.98276,36.579372,其他,公园,傍晚,6.59
2024-06-11,龙二村文化广场,117.98276,36.579372,其他,公园,中午,7.01
2024-06-11,淄博动物园-东北虎园区,118.149612,36.808627,其他,公园,晚上,5.56
2024-06-11,淄博动物园-东北虎园区,118.149612,36.808627,其他,公园,中午,5.85
2024-06-11,西部炭火(周村店),117.849038,36.81031,其他,餐饮,晚上,4.27
2024-06-11,西部炭火(周村店),117.849038,36.81031,其他,餐饮,傍晚,6.55
2024-06-11,淄博万象汇,118.061399,36.802119,其他,商场,下午,6.49
2024-06-11,淄博万象汇,118.061399,36.802119,其他,商场,上午,5.3
2024-06-11,壹加壹(后埠新村店),118.083719,36.936016,其他,商场,深夜,4.74
2024-06-11,淄博市体育中心体育场,117.98856,36.813629,其他,体育场馆,傍晚,4.32
2024-06-11,禹王山林区,117.780704,36.482885,其他,旅游景点,上午,4.62
2024-06-11,禹王山林区,117.780704,36.482885,其他,旅游景点,下午,4.39
2024-06-11,文昌湖公园,117.870499,36.711934,其他,公园,晚上,3.69
2024-06-11,银座商城(沂源店),118.155451,36.186046,其他,商场,下午,5.91
2024-06-11,猛犸兄弟私教健身会所,118.053542,36.825692,其他,体育场馆,凌晨,2.91
2024-06-11,猛犸兄弟私教健身会所,118.053542,36.825692,其他,体育场馆,上午,7.41
2024-06-11,7+健身·普拉提工作室,117.993385,36.822541,其他,体育场馆,下午,5.46
2024-06-11,桓台县中医院门诊部,118.098523,36.967718,其他,医院,晚上,5.47
2024-06-11,桓台县中医院门诊部,118.098523,36.967718,其他,医院,深夜,4.42
2024-06-11,孙廷铨故居,117.856617,36.49113,其他,旅游景点,晚上,6.14
2024-06-11,动力100游泳健身会所(银泰城店),118.036422,36.848499,其他,体育场馆,深夜,6.56
2024-06-11,齐鲁石化公司党委党校,118.284505,36.817216,其他,学校,深夜,3.36
2024-06-11,中国石化齐鲁石化公司培训中心,118.283599,36.815594,其他,学校,中午,4.07
2024-06-11,中国石化齐鲁石化公司培训中心,118.283599,36.815594,其他,学校,晚上,4.8
2024-06-11,贵都商城,118.164154,36.186187,其他,商场,傍晚,6.29
2024-06-11,百姓商厦,117.859366,36.497653,其他,商场,凌晨,3.72
2024-06-11,盛达商业广场,117.862789,36.504028,其他,商场,上午,5.9
2024-06-11,大自然庄园,118.300918,36.859325,其他,餐饮,下午,5.79
2024-06-11,品海蒸鲜(曦园店),118.00047,36.846274,其他,餐饮,凌晨,6.25
2024-06-11,品海蒸鲜(曦园店),118.00047,36.846274,其他,餐饮,下午,4.82
2024-06-11,淄博市周村区第一中学(东校区),117.838026,36.791925,其他,学校,上午,6.16
2024-06-11,淄博市周村区第一中学(东校区),117.838026,36.791925,其他,学校,晚上,3.92
2024-06-11,lv台球器材店,118.023503,36.793153,其他,体育场馆,下午,6.48
2024-06-11,lv台球器材店,118.023503,36.793153,其他,体育场馆,傍晚,4.94
2024-06-11,盛和商场,117.662941,37.107877,其他,商场,中午,6.1
2024-06-11,盛和商场,117.662941,37.107877,其他,商场,上午,5.71
2024-06-11,金沙健身(易达店),117.837132,36.497611,其他,体育场馆,傍晚,3.43
2024-06-11,金沙健身(易达店),117.837132,36.497611,其他,体育场馆,晚上,4.45
2024-06-11,康平乒乓球俱乐部,118.281593,36.805622,其他,体育场馆,傍晚,4.59
2024-06-11,康平乒乓球俱乐部,118.281593,36.805622,其他,体育场馆,下午,4.5
2024-06-11,张店区中医院肛肠楼,118.052541,36.800414,其他,医院,深夜,3.52
2024-06-11,齐陵医院,118.377483,36.799623,其他,医院,凌晨,4.42
2024-06-11,齐陵医院,118.377483,36.799623,其他,医院,上午,4.72
2024-06-11,大海商场(欢乐城精品购物广场店),118.023098,36.824572,其他,商场,深夜,4.83
2024-06-11,大海商场(欢乐城精品购物广场店),118.023098,36.824572,其他,商场,晚上,4.61
2024-06-11,淄博职业技术大学东校区,117.93429,36.83009,其他,文化场馆,下午,5.45
2024-06-11,高青县实验中学,117.819735,37.165726,其他,学校,傍晚,7.62
2024-06-11,鸿巢老年病医院,118.068017,36.919936,其他,医院,中午,3.4
2024-06-11,家饭拌饭烤肉,118.04537,36.822497,其他,餐饮,凌晨,3.0
2024-06-11,周村区市南路小学,117.854538,36.788305,其他,学校,晚上,4.82
2024-06-11,利群时代(柳泉路店),118.047509,36.801921,其他,商场,晚上,6.69
2024-06-11,利群时代(柳泉路店),118.047509,36.801921,其他,商场,深夜,4.86
2024-06-11,淄博高新区文体公园,118.07024,36.840741,其他,公园,深夜,4.53
2024-06-11,淄博高新区文体公园,118.07024,36.840741,其他,公园,傍晚,5.25
2024-06-11,法兰度西餐厅(天齐东路店),118.331778,36.814367,其他,餐饮,深夜,4.86
2024-06-11,法兰度西餐厅(天齐东路店),118.331778,36.814367,其他,餐饮,下午,7.44
2024-06-11,唐山医院,118.046553,36.958095,其他,医院,上午,4.4
2024-06-11,中共淄川区龙泉镇台头村委员会,117.969534,36.573948,其他,学校,晚上,3.47
2024-06-11,中共淄川区龙泉镇台头村委员会,117.969534,36.573948,其他,学校,深夜,5.71
2024-06-11,沂源鲁山溶洞群景区,118.040261,36.298894,其他,旅游景点,晚上,4.5
2024-06-11,沂源鲁山溶洞群景区,118.040261,36.298894,其他,旅游景点,凌晨,3.89
2024-06-11,曼巴台球俱乐部(兴桓路店),118.099896,36.953136,其他,体育场馆,中午,5.16
2024-06-11,曼巴台球俱乐部(兴桓路店),118.099896,36.953136,其他,体育场馆,上午,5.31
2024-06-11,淄川小箭扣,118.060602,36.452925,其他,旅游景点,中午,6.97
2024-06-11,红莲湖公园,118.074569,36.934136,其他,公园,深夜,4.72
2024-06-11,桓台县马桥镇陈庄卫生院,117.922181,37.009725,其他,医院,深夜,3.96
2024-06-11,桓台县马桥镇陈庄卫生院,117.922181,37.009725,其他,医院,晚上,4.62
2024-06-11,彩世界精品皮草广场,118.029104,36.822275,其他,商场,凌晨,4.74
2024-06-11,梁荣贵台球俱乐部锐胜旗舰店(齐纳店),118.331847,36.813853,其他,体育场馆,晚上,6.01
2024-06-11,临淄区闻韶银山百货商场(方正2009小区店),118.331701,36.817583,其他,商场,上午,4.66
2024-06-12,锅圈食汇火锅烧烤食材超市(齐都花园店),118.290581,36.827659,其他,餐饮,中午,4.06
2024-06-12,锅圈食汇火锅烧烤食材超市(齐都花园店),118.290581,36.827659,其他,餐饮,深夜,4.75
2024-06-12,桓台县实验中学,118.103854,36.964247,其他,学校,中午,5.02
2024-06-12,太公湖国家水利风景区,118.363994,36.80938,其他,旅游景点,傍晚,5.26
2024-06-12,太公湖国家水利风景区,118.363994,36.80938,其他,旅游景点,上午,5.47
2024-06-12,荣德医院,118.102162,36.848838,其他,医院,下午,6.32
2024-06-12,鸿泰医院,117.836937,36.797978,其他,医院,傍晚,3.73
2024-06-12,鸿泰医院,117.836937,36.797978,其他,医院,中午,5.98
2024-06-12,龙二村文化广场,117.98276,36.579372,其他,公园,上午,6.09
2024-06-12,玉黛湖-慧圆寺,118.143872,36.808691,其他,旅游景点,傍晚,7.15
2024-06-12,陈庄公园,117.917705,37.008687,其他,公园,凌晨,5.38
2024-06-12,陈庄公园,117.917705,37.008687,其他,公园,下午,7.02
2024-06-12,全民健身广场,118.188243,36.193088,其他,体育场馆,傍晚,4.9
2024-06-12,全民健身广场,118.188243,36.193088,其他,体育场馆,凌晨,4.83
2024-06-12,十六台球器材,118.284746,36.814537,其他,体育场馆,下午,5.98
2024-06-12,清梅居食品厂(白虎店),117.851202,36.499334,其他,餐饮,下午,7.57
2024-06-12,鲁泰文苑动物园,117.99668,36.64233,其他,公园,中午,6.3
2024-06-12,活力广场,118.063957,36.867657,其他,公园,深夜,4.83
2024-06-12,蒲松龄纪念馆,118.011484,36.630581,其他,旅游景点,中午,4.39
2024-06-12,山东轻工职业学院(文昌湖校区),117.864573,36.720544,其他,学校,凌晨,4.09
2024-06-12,齐山风景区,118.199833,36.5147,其他,旅游景点,凌晨,3.38
2024-06-12,齐山风景区,118.199833,36.5147,其他,旅游景点,下午,5.72
2024-06-12,盛和商场,117.662941,37.107877,其他,商场,下午,6.63
2024-06-12,九级村新时代文化广场,118.021111,36.817354,其他,公园,凌晨,2.32
2024-06-12,淄博市周村区第一中学(东校区),117.838026,36.791925,其他,学校,中午,6.42
2024-06-12,淄博市周村区第一中学(东校区),117.838026,36.791925,其他,学校,深夜,3.64
2024-06-12,百姓商厦,117.859366,36.497653,其他,商场,晚上,6.41
2024-06-12,淄博柳泉艺术学校,118.077172,36.813576,其他,学校,上午,4.25
2024-06-12,灵芝洞,118.079323,36.267212,其他,旅游景点,傍晚,6.64
2024-06-12,灵芝洞,118.079323,36.267212,其他,旅游景点,下午,4.65
2024-06-12,大马头崮,118.170564,36.228669,其他,旅游景点,凌晨,5.98
2024-06-12,大马头崮,118.170564,36.228669,其他,旅游景点,晚上,4.66
2024-06-12,人民公社湘菜馆(联通路),118.045252,36.827996,其他,餐饮,凌晨,5.18
2024-06-12,齐赛园社区卫生服务站,118.026971,36.813954,其他,医院,深夜,5.98
2024-06-12,张店市民公园,118.021792,36.804554,其他,公园,晚上,4.72
2024-06-12,张店市民公园,118.021792,36.804554,其他,公园,深夜,5.4
2024-06-12,沁园社区卫生服务站,118.045357,36.814004,其他,医院,中午,4.34
2024-06-12,山东职业技工学校(章丘校区),117.703625,36.676497,其他,学校,上午,6.27
2024-06-12,临淄一中,118.313495,36.812152,其他,学校,下午,7.08
2024-06-12,临淄一中,118.313495,36.812152,其他,学校,中午,5.83
2024-06-12,超意兴快餐(金鼎·学府壹号店),118.000327,36.826454,其他,餐饮,深夜,4.36
2024-06-12,超意兴快餐(金鼎·学府壹号店),118.000327,36.826454,其他,餐饮,中午,5.04
2024-06-12,历山公园,118.153721,36.21082,其他,公园,深夜,4.5
2024-06-12,憩园广场,117.861353,36.496955,其他,公园,深夜,6.29
2024-06-12,石佛寺,117.862538,36.675462,其他,旅游景点,晚上,6.59
2024-06-12,石佛寺,117.862538,36.675462,其他,旅游景点,凌晨,2.72
2024-06-12,太公湖公园,118.364861,36.810869,其他,公园,傍晚,5.6
2024-06-12,太公湖公园,118.364861,36.810869,其他,公园,凌晨,4.21
2024-06-12,乌河入湖口湿地公园,118.106519,36.944644,其他,公园,凌晨,4.22
2024-06-12,乌河入湖口湿地公园,118.106519,36.944644,其他,公园,深夜,4.81
2024-06-12,淄博宝华中医医院,118.02428,36.816938,其他,医院,傍晚,4.56
2024-06-12,世纪花园小学,118.02149,36.830225,其他,学校,凌晨,4.37
2024-06-12,世纪花园小学,118.02149,36.830225,其他,学校,晚上,4.23
2024-06-12,黄河楼广场,117.889658,37.259927,其他,公园,中午,6.21
2024-06-12,幸运咖(周村店),117.852673,36.80738,其他,餐饮,深夜,4.57
2024-06-12,矾沟肉油饼,117.863953,36.476117,其他,餐饮,深夜,4.61
2024-06-12,矾沟肉油饼,117.863953,36.476117,其他,餐饮,中午,5.5
2024-06-12,0533乔氏台球会所,118.052345,36.805821,其他,体育场馆,深夜,3.87
2024-06-12,神清宫,118.160918,36.093633,其他,旅游景点,晚上,5.42
2024-06-12,周村人民广场-四德主题公园,117.858127,36.799089,其他,公园,中午,5.21
2024-06-12,京味涮肉坊(紫馨园店),118.015711,36.798004,其他,餐饮,下午,5.55
2024-06-12,张店区齐润小学,118.002303,36.81991,其他,学校,下午,5.53
2024-06-12,唐家村文化广场,118.013876,36.745709,其他,公园,上午,5.8
2024-06-12,唐家村文化广场,118.013876,36.745709,其他,公园,中午,5.78
2024-06-12,百家姓主题纪念公园,117.995852,36.885687,其他,公园,傍晚,5.55
2024-06-12,百家姓主题纪念公园,117.995852,36.885687,其他,公园,晚上,5.77
2024-06-12,沂源牛郎织女景区,118.260858,36.109421,其他,旅游景点,下午,7.45
2024-06-12,沂源牛郎织女景区,118.260858,36.109421,其他,旅游景点,上午,5.89
2024-06-12,临淄区稷下小学,118.315531,36.810223,其他,学校,上午,5.91
2024-06-12,星小奥少儿运动馆(福园校区),118.027301,36.808121,其他,体育场馆,傍晚,5.87
2024-06-12,星小奥少儿运动馆(福园校区),118.027301,36.808121,其他,体育场馆,上午,5.69
2024-06-12,淄博创大医院,118.062584,36.672291,其他,医院,傍晚,3.68
2024-06-12,淄博创大医院,118.062584,36.672291,其他,医院,深夜,5.5
2024-06-12,管仲纪念馆,118.351952,36.793594,其他,旅游景点,凌晨,5.61
2024-06-12,管仲纪念馆,118.351952,36.793594,其他,旅游景点,傍晚,5.56
2024-06-12,西寨煎饼-猪头肉(西寨小区店),117.855764,36.499442,其他,餐饮,傍晚,5.95
2024-06-12,华严胜境,117.978841,37.001051,其他,旅游景点,中午,4.9
2024-06-12,华严胜境,117.978841,37.001051,其他,旅游景点,上午,6.44
2024-06-12,淄博淄川,117.961309,36.643502,其他,商场,中午,6.72
2024-06-12,以马内利,118.027782,36.763214,其他,旅游景点,晚上,4.25
2024-06-12,淄博东方双语学校,118.071636,36.808338,其他,学校,深夜,3.71
2024-06-12,东源商场,118.056381,36.806026,其他,商场,中午,5.26
2024-06-12,东源商场,118.056381,36.806026,其他,商场,上午,6.59
2024-06-12,那些年潮汕牛肉火锅,118.104438,36.959564,其他,餐饮,深夜,5.33
2024-06-12,那些年潮汕牛肉火锅,118.104438,36.959564,其他,餐饮,晚上,4.17
2024-06-12,钱记小院,117.854785,36.48077,其他,餐饮,下午,5.67
2024-06-12,钱记小院,117.854785,36.48077,其他,餐饮,傍晚,6.64
2024-06-13,海洋王国,118.296117,36.817556,其他,公园,中午,5.03
2024-06-13,海洋王国,118.296117,36.817556,其他,公园,傍晚,6.3
2024-06-13,淄博会展中心,117.988167,36.833619,其他,文化场馆,深夜,4.17
2024-06-13,桓台商厦,118.105225,36.959466,其他,商场,傍晚,4.74
2024-06-13,临淄青年学生抗日志愿军训团纪念碑,118.343774,36.856906,其他,旅游景点,晚上,6.23
2024-06-13,米兰法式甜品,117.852921,36.495677,其他,餐饮,上午,6.99
2024-06-13,临淄齐国故城考古遗址公园,118.344057,36.890173,其他,公园,上午,5.15
2024-06-13,银座二店,117.975212,36.645192,其他,商场,晚上,4.52
2024-06-13,淄博市特殊教育中心,118.099177,36.820103,其他,学校,深夜,3.6
2024-06-13,淄博市特殊教育中心,118.099177,36.820103,其他,学校,傍晚,5.63
2024-06-13,汇通消防培训,118.090384,36.822305,其他,文化场馆,上午,4.76
2024-06-13,汇通消防培训,118.090384,36.822305,其他,文化场馆,中午,4.96
2024-06-13,淄博恒太城(装修中),117.982957,36.823315,其他,商场,中午,5.45
2024-06-13,淄博恒太城(装修中),117.982957,36.823315,其他,商场,下午,6.89
2024-06-13,淄川区医院西院区,117.91546,36.653396,其他,医院,凌晨,6.03
2024-06-13,淄川区医院西院区,117.91546,36.653396,其他,医院,下午,6.91
2024-06-13,银座商城(人民店),117.860457,36.504428,其他,商场,凌晨,2.83
2024-06-13,齐鲁化工区金山安全实训中心,118.275895,36.756892,其他,文化场馆,深夜,4.31
2024-06-13,齐鲁化工区金山安全实训中心,118.275895,36.756892,其他,文化场馆,下午,7.02
2024-06-13,淄博市张店区融媒体中心,118.0451,36.796042,其他,文化场馆,凌晨,2.79
2024-06-13,淄博市育才中学,117.969795,36.641159,其他,学校,傍晚,4.66
2024-06-13,山东轻工职业学院,117.86148,36.77357,其他,学校,晚上,5.66
2024-06-13,飞扬台球俱乐部,118.059651,36.802584,其他,体育场馆,凌晨,4.32
2024-06-13,飞扬台球俱乐部,118.059651,36.802584,其他,体育场馆,深夜,5.04
2024-06-13,淄博市技师学院(东校区),118.080531,36.808427,其他,学校,中午,4.98
2024-06-13,宝塔文化广场,117.997516,36.713892,其他,公园,凌晨,4.39
2024-06-13,宝塔文化广场,117.997516,36.713892,其他,公园,晚上,4.6
2024-06-13,超意兴快餐(金鼎·学府壹号店),118.000327,36.826454,其他,餐饮,中午,4.45
2024-06-13,TOP-1私教健身(东岳店),118.076828,36.948274,其他,体育场馆,傍晚,8.09
2024-06-13,TOP-1私教健身(东岳店),118.076828,36.948274,其他,体育场馆,凌晨,5.06
2024-06-13,海岱楼·钟书阁,117.98889,36.841714,其他,文化场馆,上午,4.28
2024-06-13,金地禅寺,117.914574,36.539096,其他,旅游景点,凌晨,3.65
2024-06-13,银座购物广场(博山店),117.860767,36.494224,其他,商场,凌晨,4.0
2024-06-13,银座购物广场(博山店),117.860767,36.494224,其他,商场,上午,5.98
2024-06-13,准神台球俱乐部(银泰商城店),117.851963,36.797549,其他,体育场馆,傍晚,6.76
2024-06-13,准神台球俱乐部(银泰商城店),117.851963,36.797549,其他,体育场馆,深夜,2.24
2024-06-13,山东省桓台第一中学,118.072887,36.960668,其他,学校,晚上,5.14
2024-06-13,山东省桓台第一中学,118.072887,36.960668,其他,学校,深夜,5.79
2024-06-13,优壹佳健身(东三路店),118.073359,36.797066,其他,体育场馆,凌晨,5.74
2024-06-13,华盛商厦,117.829677,37.171987,其他,商场,晚上,3.95
2024-06-13,裕翔球馆,118.041251,36.84489,其他,体育场馆,傍晚,7.25
2024-06-13,裕翔球馆,118.041251,36.84489,其他,体育场馆,上午,4.66
2024-06-13,周村烧饼博物馆,117.841826,36.79823,其他,餐饮,凌晨,4.07
2024-06-13,邱氏瓜子干果老店(城里大街店),117.964129,36.646437,其他,餐饮,中午,6.25
2024-06-13,邱氏瓜子干果老店(城里大街店),117.964129,36.646437,其他,餐饮,下午,6.85
2024-06-13,广利来(步行街店),117.852554,36.80653,其他,餐饮,深夜,6.5
2024-06-13,淄博高新区文体公园,118.07024,36.840741,其他,公园,下午,5.32
2024-06-13,沂河源水景公园,118.154262,36.190032,其他,公园,晚上,5.76
2024-06-13,沂河源水景公园,118.154262,36.190032,其他,公园,凌晨,6.26
2024-06-13,淄博市红螺山公园,118.32544,36.789942,其他,公园,凌晨,2.87
2024-06-13,淄博市红螺山公园,118.32544,36.789942,其他,公园,晚上,4.01
2024-06-13,运粮河湿地公园,118.307362,36.892481,其他,公园,傍晚,5.17
2024-06-13,运粮河湿地公园,118.307362,36.892481,其他,公园,下午,6.29
2024-06-13,淄博长城医院,118.030906,36.797646,其他,医院,中午,4.22
2024-06-13,淄博长城医院,118.030906,36.797646,其他,医院,凌晨,4.47
2024-06-13,欢乐城精品购物广场,118.023549,36.825043,其他,商场,傍晚,6.37
2024-06-13,潘南印巷,118.080566,36.80708,其他,餐饮,傍晚,5.59
2024-06-13,骑士台球棋牌俱乐部,118.020878,36.828858,其他,体育场馆,上午,7.44
2024-06-13,世纪篮球俱乐部(金筷子校区),118.063452,36.84307,其他,体育场馆,下午,7.23
2024-06-13,公园新村小学,118.045659,36.805159,其他,学校,晚上,6.04
2024-06-13,公园新村小学,118.045659,36.805159,其他,学校,上午,5.84
2024-06-13,淄博柳泉中学,117.977727,36.819203,其他,学校,晚上,4.5
2024-06-13,淄博市技师学院经开校区,118.051685,36.770831,其他,学校,下午,7.57
2024-06-13,张店区中医院肛肠楼,118.052541,36.800414,其他,医院,上午,5.51
2024-06-13,张店区中医院肛肠楼,118.052541,36.800414,其他,医院,深夜,4.07
2024-06-13,淄川普安寺,117.884049,36.62809,其他,旅游景点,下午,7.67
2024-06-13,莲花寺,117.873039,36.477942,其他,旅游景点,上午,5.97
2024-06-13,博山山头周氏顺祥斋,117.87409,36.465945,其他,旅游景点,晚上,4.84
2024-06-13,贝特城多元运动中心蹦床公园(淄博店),118.001073,36.786047,其他,体育场馆,凌晨,4.16
2024-06-13,贝特城多元运动中心蹦床公园(淄博店),118.001073,36.786047,其他,体育场馆,中午,4.15
2024-06-13,淄博人民公园,118.048798,36.810627,其他,公园,傍晚,6.2
2024-06-13,淄博和平学校,117.824973,36.791633,其他,学校,傍晚,7.44
2024-06-13,淄博和平学校,117.824973,36.791633,其他,学校,晚上,6.79
2024-06-13,万益农业生态观光园,118.149011,36.531756,其他,公园,深夜,3.95
2024-06-13,万益农业生态观光园,118.149011,36.531756,其他,公园,傍晚,6.99
2024-06-13,石佛寺,117.862538,36.675462,其他,旅游景点,傍晚,6.25
2024-06-13,莲池法治文化公园,118.03423,36.823497,其他,公园,上午,5.76
2024-06-13,杨寨中学,117.992787,36.712631,其他,学校,深夜,4.89
2024-06-13,杨寨中学,117.992787,36.712631,其他,学校,上午,5.09
2024-06-13,沂河头村文化广场,118.244623,36.172628,其他,公园,上午,5.52
2024-06-13,蜂山公园,118.244184,36.747659,其他,公园,凌晨,3.8
2024-06-14,华严胜境,117.978841,37.001051,其他,旅游景点,上午,7.7
2024-06-14,鲁村中心卫生院,118.048379,36.195733,其他,医院,上午,6.65
2024-06-14,鲁村中心卫生院,118.048379,36.195733,其他,医院,凌晨,2.74
2024-06-14,齐长城遗址--风门道关,117.76158,36.517788,其他,旅游景点,下午,5.73
2024-06-14,市民广场,118.017803,36.804819,其他,公园,中午,5.17
2024-06-14,马踏湖鲜鱼馆香和院,118.059533,37.062755,其他,餐饮,中午,7.54
2024-06-14,马踏湖鲜鱼馆香和院,118.059533,37.062755,其他,餐饮,晚上,5.19
2024-06-14,飞扬台球俱乐部,118.059651,36.802584,其他,体育场馆,上午,6.66
2024-06-14,淄博职业学院(南校区),117.927048,36.828086,其他,学校,凌晨,4.19
2024-06-14,淄博职业学院(南校区),117.927048,36.828086,其他,学校,下午,5.96
2024-06-14,稷山,118.334976,36.769201,其他,旅游景点,晚上,6.53
2024-06-14,原山国家森林公园,117.836257,36.480938,其他,旅游景点,上午,4.71
2024-06-14,淄博陶瓷琉璃国艺馆,117.986224,36.826285,其他,文化场馆,下午,4.8
2024-06-14,齐悦国际大饭店,117.85344,36.795005,其他,餐饮,深夜,3.6
2024-06-14,齐悦国际大饭店,117.85344,36.795005,其他,餐饮,上午,7.89
2024-06-14,淄博一四八医院,117.852864,36.793363,其他,医院,上午,5.34
2024-06-14,淄博一四八医院,117.852864,36.793363,其他,医院,傍晚,5.22
2024-06-14,DH健身,118.062042,36.810552,其他,体育场馆,深夜,3.46
2024-06-14,DH健身,118.062042,36.810552,其他,体育场馆,晚上,7.05
2024-06-14,玉皇宫,117.852755,36.486698,其他,旅游景点,晚上,6.85
2024-06-14,邱氏瓜子干果老店(城里大街店),117.964129,36.646437,其他,餐饮,晚上,6.54
2024-06-14,邱氏瓜子干果老店(城里大街店),117.964129,36.646437,其他,餐饮,中午,5.74
2024-06-14,王渔洋故居,117.943579,36.951573,其他,旅游景点,傍晚,4.64
2024-06-14,禹王山林区,117.780704,36.482885,其他,旅游景点,凌晨,3.68
2024-06-14,禹王山林区,117.780704,36.482885,其他,旅游景点,晚上,5.25
2024-06-14,天后台球,118.052038,36.803252,其他,体育场馆,下午,6.63
2024-06-14,天后台球,118.052038,36.803252,其他,体育场馆,上午,4.56
2024-06-14,淄博诺锋医院(骨科医院),118.035342,36.801729,其他,医院,下午,5.35
2024-06-14,悦城公园,117.861436,36.815855,其他,公园,傍晚,3.81
2024-06-14,巩本明鱼屋子,118.083466,37.056576,其他,餐饮,下午,5.25
2024-06-14,淄博大成商场,118.055089,36.805645,其他,商场,上午,5.58
2024-06-14,淄博大成商场,118.055089,36.805645,其他,商场,晚上,4.41
2024-06-14,天行健游泳健身俱乐部,118.32095,36.834906,其他,体育场馆,凌晨,2.93
2024-06-14,齐故城排水道口,118.343869,36.890737,其他,旅游景点,下午,5.51
2024-06-14,齐故城排水道口,118.343869,36.890737,其他,旅游景点,晚上,4.07
2024-06-14,幸运咖(周村店),117.852673,36.80738,其他,餐饮,中午,6.45
2024-06-14,华盛商厦,117.829677,37.171987,其他,商场,晚上,5.13
2024-06-14,淄博市中心医院,118.053088,36.807533,其他,医院,深夜,4.98
2024-06-14,淄博稷下实验学校,117.965198,36.816474,其他,学校,凌晨,2.53
2024-06-14,响袋24小时自助棋牌台球(淄博潘庄店),118.059775,36.819697,其他,体育场馆,深夜,5.68
2024-06-14,响袋24小时自助棋牌台球(淄博潘庄店),118.059775,36.819697,其他,体育场馆,上午,7.25
2024-06-14,福门商城(特色街区·西冶街店),117.858483,36.495995,其他,商场,下午,4.66
2024-06-14,福门商城(特色街区·西冶街店),117.858483,36.495995,其他,商场,凌晨,3.45
2024-06-14,红宝龙购物商场(东里店),118.362609,36.018054,其他,商场,晚上,3.62
2024-06-14,红宝龙购物商场(东里店),118.362609,36.018054,其他,商场,下午,6.48
2024-06-14,佳美果蔬商行(鑫城公寓东区店),118.018,36.801909,其他,餐饮,傍晚,6.67
2024-06-14,淄博市第四人民医院,118.043297,36.76628,其他,医院,上午,4.3
2024-06-14,淄博市第四人民医院,118.043297,36.76628,其他,医院,中午,7.98
2024-06-14,龙泉寺,117.897724,36.524553,其他,旅游景点,深夜,3.33
2024-06-14,懋隆大酒店,117.872949,36.471324,其他,餐饮,上午,6.42
2024-06-14,新玛特购物广场(中润店),118.028591,36.837958,其他,商场,凌晨,2.99
2024-06-14,拿铁计划健身馆,117.928208,36.835469,其他,体育场馆,下午,5.26
2024-06-14,拿铁计划健身馆,117.928208,36.835469,其他,体育场馆,傍晚,6.3
2024-06-14,福记小馆(朝阳花苑凯旋城店),117.871797,36.811256,其他,餐饮,下午,5.77
2024-06-14,福记小馆(朝阳花苑凯旋城店),117.871797,36.811256,其他,餐饮,凌晨,2.79
2024-06-14,太公湖公园,118.364861,36.810869,其他,公园,深夜,4.65
2024-06-14,淄博高新区第五小学,118.10309,36.837509,其他,学校,晚上,5.16
2024-06-14,桥下公园,117.968623,36.851769,其他,公园,中午,5.03
2024-06-14,桥下公园,117.968623,36.851769,其他,公园,深夜,2.19
2024-06-14,世博高新医院营养中心,118.105384,36.829265,其他,医院,晚上,4.67
2024-06-14,万隆台球,117.969942,36.837366,其他,体育场馆,下午,6.33
2024-06-14,万隆台球,117.969942,36.837366,其他,体育场馆,傍晚,5.04
2024-06-14,齐盛湖公园,117.989284,36.841662,其他,公园,晚上,6.3
2024-06-14,龙泉镇卫生院,117.97584,36.575459,其他,医院,晚上,4.53
2024-06-14,临淄区金岭卫生院,118.191787,36.798419,其他,医院,傍晚,4.93
2024-06-14,临淄区金岭卫生院,118.191787,36.798419,其他,医院,晚上,5.73
2024-06-14,湿地公园,117.896909,36.71004,其他,公园,上午,5.68
2024-06-14,福瑞园蛋糕(邮政局宿舍店),118.098388,36.961395,其他,餐饮,上午,5.62
2024-06-14,众羽羽毛球馆,118.002165,36.786206,其他,体育场馆,凌晨,4.14
2024-06-14,世纪广场,117.865179,36.505887,其他,公园,傍晚,6.72
2024-06-14,世纪广场,117.865179,36.505887,其他,公园,凌晨,3.54
2024-06-14,义乌商城(博大广场店),118.017503,36.822875,其他,商场,中午,4.42
2024-06-14,义乌商城(博大广场店),118.017503,36.822875,其他,商场,傍晚,6.71
2024-06-14,希尔顿国际广场(建设中),117.869006,36.821829,其他,公园,凌晨,4.33
2024-06-14,临淄区雪宫中学,118.302392,36.815593,其他,学校,晚上,4.98
2024-06-14,临淄区雪宫中学,118.302392,36.815593,其他,学校,傍晚,7.45
2024-06-14,流苏园,117.918142,36.823744,其他,公园,晚上,4.28
2024-06-14,淄博和平学校,117.824973,36.791633,其他,学校,下午,7.32
2024-06-14,南定小学,118.052121,36.741479,其他,学校,下午,5.58
2024-06-14,奎三广场,117.937206,36.563022,其他,公园,上午,7.11
2024-06-14,梓橦山旅游区,118.03096,36.665088,其他,旅游景点,凌晨,4.99
2024-06-14,波力羽毛球馆,117.990499,36.62364,其他,体育场馆,凌晨,2.7
2024-06-14,博山区博山镇中心卫生院,117.963515,36.382327,其他,医院,上午,5.56
2024-06-14,博山区博山镇中心卫生院,117.963515,36.382327,其他,医院,傍晚,6.1
2024-06-14,鲁山全羊烧烤,118.041147,36.84383,其他,餐饮,晚上,4.33
2024-06-14,鲁山全羊烧烤,118.041147,36.84383,其他,餐饮,中午,4.33
2024-06-14,淄博市红螺山公园,118.32544,36.789942,其他,公园,凌晨,5.62
2024-06-14,山东铝业职业学院,118.048078,36.75552,其他,学校,凌晨,4.0
2024-06-14,山东铝业职业学院,118.048078,36.75552,其他,学校,傍晚,4.94
2024-06-14,淄博市革命烈士陵园,117.88136,36.762238,其他,旅游景点,晚上,5.79
2024-06-14,淄博市革命烈士陵园,117.88136,36.762238,其他,旅游景点,凌晨,2.99
2024-06-14,临淄二中,118.304006,36.837102,其他,学校,上午,4.07
2024-06-14,临淄二中,118.304006,36.837102,其他,学校,傍晚,7.0
2024-06-14,张店区人民医院(南院区),118.059541,36.791552,其他,医院,傍晚,4.46
2024-06-14,张店军屯空中草原,118.130249,36.81412,其他,旅游景点,深夜,3.89
2024-06-14,淄博市市级机关医院,118.055697,36.811686,其他,医院,深夜,3.59
2024-06-14,四世宫保,117.946244,36.950355,其他,旅游景点,晚上,6.7
2024-06-14,四世宫保,117.946244,36.950355,其他,旅游景点,深夜,4.21
2024-06-15,圣元商厦,117.908667,37.038908,其他,商场,上午,5.83
2024-06-15,圣元商厦,117.908667,37.038908,其他,商场,中午,4.49
2024-06-15,淄博市中心医院北病房楼,118.05276,36.808721,其他,医院,凌晨,2.57
2024-06-15,沂源牛郎织女景区-织女洞森林公园,118.261632,36.10731,其他,公园,凌晨,5.02
2024-06-15,沂源牛郎织女景区-织女洞森林公园,118.261632,36.10731,其他,公园,傍晚,6.86
2024-06-15,过桥缘过桥米线(水晶街店),118.003476,36.816582,其他,餐饮,晚上,4.44
2024-06-15,过桥缘过桥米线(水晶街店),118.003476,36.816582,其他,餐饮,深夜,4.17
2024-06-15,淄博市中心医院门诊部,118.053567,36.806576,其他,医院,深夜,5.08
2024-06-15,桓台实验学校,118.082203,36.967572,其他,学校,中午,8.14
2024-06-15,清梅居食品(翡翠园店),117.872113,36.512931,其他,餐饮,下午,7.52
2024-06-15,罗村中学,118.073269,36.679739,其他,学校,上午,6.26
2024-06-15,罗村中学,118.073269,36.679739,其他,学校,中午,7.12
2024-06-15,牛山禅寺,118.351095,36.791842,其他,旅游景点,晚上,6.52
2024-06-15,峨庄国家森林公园,118.150576,36.503571,其他,公园,下午,5.2
2024-06-15,博山区第六中学,117.869513,36.503004,其他,学校,晚上,5.36
2024-06-15,乐华滋披萨(振兴路店),118.163299,36.186017,其他,餐饮,下午,6.81
2024-06-15,沂河源省级湿地公园,118.150174,36.196341,其他,公园,凌晨,5.24
2024-06-15,沂河源省级湿地公园,118.150174,36.196341,其他,公园,晚上,4.72
2024-06-15,淄博市老年大学,118.043279,36.808417,其他,学校,深夜,3.91
2024-06-15,淄博市老年大学,118.043279,36.808417,其他,学校,凌晨,4.73
2024-06-15,董家灵泉公园,117.98105,36.694829,其他,公园,凌晨,4.07
2024-06-15,华岩寺,117.842443,36.613711,其他,旅游景点,傍晚,5.08
2024-06-15,华岩寺,117.842443,36.613711,其他,旅游景点,深夜,2.72
2024-06-15,沂源县人民医院大张庄分院,118.028335,36.036198,其他,医院,傍晚,5.01
2024-06-15,北岭古窑,117.867789,36.494568,其他,旅游景点,中午,8.37
2024-06-15,北岭古窑,117.867789,36.494568,其他,旅游景点,深夜,3.41
2024-06-15,WIN体能私教工作室,118.032,36.810034,其他,体育场馆,傍晚,7.06
2024-06-15,中德智能制造产教融合示范基地,118.112588,36.830991,其他,文化场馆,下午,6.52
2024-06-15,青云大酒店(中共淄川区洪山镇委员会东),118.002062,36.623339,其他,餐饮,上午,6.05
2024-06-15,青云大酒店(中共淄川区洪山镇委员会东),118.002062,36.623339,其他,餐饮,凌晨,5.62
2024-06-15,山东省桓台第一中学,118.072887,36.960668,其他,学校,上午,6.86
2024-06-15,英才中学,118.302649,36.793456,其他,学校,下午,6.06
2024-06-15,淄博鑫马吾悦广场,118.001652,36.824664,其他,商场,傍晚,7.03
2024-06-15,淄博鑫马吾悦广场,118.001652,36.824664,其他,商场,深夜,4.49
2024-06-15,宁家村文明实践广场,117.824974,36.733846,其他,公园,下午,6.0
2024-06-15,宁家村文明实践广场,117.824974,36.733846,其他,公园,晚上,3.5
2024-06-15,秀水地下商城(振华商厦店),118.055741,36.80212,其他,商场,傍晚,6.03
2024-06-15,盛达商业广场B区,117.863716,36.504063,其他,商场,晚上,5.35
2024-06-15,漫巴台球,117.926954,36.83419,其他,体育场馆,上午,7.48
2024-06-15,漫巴台球,117.926954,36.83419,其他,体育场馆,凌晨,4.46
2024-06-15,大马头崮,118.170564,36.228669,其他,旅游景点,上午,5.99
2024-06-15,大马头崮,118.170564,36.228669,其他,旅游景点,下午,6.71
2024-06-15,如月湖湿地公园,117.892587,36.442721,其他,旅游景点,深夜,4.63
2024-06-15,淄博市张店区融媒体中心,118.0451,36.796042,其他,文化场馆,下午,7.48
2024-06-15,淄博市职业病防治院,118.011185,36.835737,其他,医院,下午,8.08
2024-06-15,淄博市职业病防治院,118.011185,36.835737,其他,医院,中午,5.21
2024-06-15,六点水新世界,118.177816,36.196675,其他,公园,中午,6.08
2024-06-15,山旺村健身广场,117.89136,36.76054,其他,公园,中午,7.41
2024-06-15,上地广场,118.295909,36.813781,其他,商场,凌晨,4.76
2024-06-15,上地广场,118.295909,36.813781,其他,商场,晚上,4.4
2024-06-15,淄博益宁医院,118.077476,36.816863,其他,医院,傍晚,4.18
2024-06-15,淄博益宁医院,118.077476,36.816863,其他,医院,凌晨,4.61
2024-06-15,淄博北站北广场,118.026254,36.898065,其他,公园,中午,6.57
2024-06-15,黑山八大景万佛城,117.913628,36.466375,其他,旅游景点,下午,5.14
2024-06-15,黑山八大景万佛城,117.913628,36.466375,其他,旅游景点,中午,6.0
2024-06-15,观音古寺,118.161694,36.365494,其他,旅游景点,中午,5.43
2024-06-15,老刺参酒楼,118.321585,36.817706,其他,餐饮,下午,5.5
2024-06-15,天隆购物广场,117.86096,36.503301,其他,商场,下午,8.21
2024-06-15,张店区沣水中心卫生院,118.091631,36.752094,其他,医院,傍晚,6.26
2024-06-15,张店区沣水中心卫生院,118.091631,36.752094,其他,医院,中午,6.46
2024-06-15,泰东生活广场,118.330347,36.816999,其他,商场,中午,5.33
2024-06-15,泰东生活广场,118.330347,36.816999,其他,商场,凌晨,4.57
2024-06-15,山东农业工程学院(淄博校区),117.934861,36.845859,其他,学校,下午,6.87
2024-06-15,阿光正传重庆地摊火锅(博山店),117.865354,36.501459,其他,餐饮,凌晨,5.89
2024-06-15,湘满天下(沿河西路店),118.152484,36.191022,其他,餐饮,中午,6.01
2024-06-15,湘满天下(沿河西路店),118.152484,36.191022,其他,餐饮,晚上,7.18
2024-06-15,杨光会重庆鲜货火锅,117.847591,36.502307,其他,餐饮,深夜,5.39
2024-06-15,足球主题公园,118.371633,36.804896,其他,公园,下午,6.89
2024-06-15,海棠园,117.994754,36.839891,其他,旅游景点,上午,7.62
2024-06-15,海棠园,117.994754,36.839891,其他,旅游景点,晚上,6.57
2024-06-15,明医堂,118.037682,36.797434,其他,医院,中午,7.94
2024-06-15,樵岭前风景区,117.821669,36.446687,其他,旅游景点,中午,6.39
2024-06-15,伊特蛋糕(紫荆园店),118.053414,36.832825,其他,餐饮,下午,4.31
2024-06-15,伊特蛋糕(紫荆园店),118.053414,36.832825,其他,餐饮,傍晚,7.96
2024-06-15,淄博市农业科学研究院(商场西街),118.030106,36.804568,其他,文化场馆,上午,8.22
2024-06-15,淄博市农业科学研究院(商场西街),118.030106,36.804568,其他,文化场馆,晚上,5.81
2024-06-15,岁月烧烤,117.867159,36.816672,其他,餐饮,上午,8.78
2024-06-15,岁月烧烤,117.867159,36.816672,其他,餐饮,傍晚,7.13
2024-06-15,神舟堂,118.04436,36.820507,其他,旅游景点,深夜,4.63
2024-06-15,柳泉潜流湿地,117.937449,36.621568,其他,旅游景点,上午,5.81
2024-06-15,柳泉潜流湿地,117.937449,36.621568,其他,旅游景点,中午,6.95
2024-06-15,众羽羽毛球馆,118.002165,36.786206,其他,体育场馆,中午,5.96
2024-06-15,山水缘广场,117.959894,36.632743,其他,公园,上午,8.07
2024-06-15,山水缘广场,117.959894,36.632743,其他,公园,晚上,6.26
2024-06-15,淄博高新区黉门文化艺术学校,118.052261,36.856862,其他,学校,上午,5.12
2024-06-15,淄博高新区黉门文化艺术学校,118.052261,36.856862,其他,学校,中午,6.72
2024-06-15,萌水医院,117.921402,36.727733,其他,医院,晚上,4.73
2024-06-15,萌水医院,117.921402,36.727733,其他,医院,中午,7.41
2024-06-15,法兰度西餐厅(天齐东路店),118.331778,36.814367,其他,餐饮,傍晚,6.88
2024-06-15,法兰度西餐厅(天齐东路店),118.331778,36.814367,其他,餐饮,上午,4.86
2024-06-15,延边高丽村养生汤馆(名仕嘉园店),118.297755,36.819583,其他,餐饮,深夜,5.39
2024-06-15,金乔游园,118.076624,36.814346,其他,公园,傍晚,5.32
2024-06-15,山铝游泳馆,118.042806,36.754588,其他,体育场馆,深夜,2.99
2024-06-15,方和茂,118.300029,36.81432,其他,商场,凌晨,4.84
2024-06-15,方和茂,118.300029,36.81432,其他,商场,傍晚,5.36
2024-06-15,风云台球俱乐部(汇美·弘域店),118.001339,36.816564,其他,体育场馆,上午,7.0
2024-06-15,品海蒸鲜(曦园店),118.00047,36.846274,其他,餐饮,凌晨,3.87
2024-06-15,淄博市周村夏源商贸有限公司,117.85205,36.798008,其他,商场,晚上,5.79
2024-06-15,淄博市周村夏源商贸有限公司,117.85205,36.798008,其他,商场,中午,5.83
2024-06-15,柳泉湿地公园,117.949355,36.633584,其他,公园,晚上,3.81
2024-06-15,傅家镇黄家小学,118.006121,36.736265,其他,学校,傍晚,7.39
2024-06-15,傅家镇黄家小学,118.006121,36.736265,其他,学校,下午,6.95
2024-06-15,世纪花园小学,118.02149,36.830225,其他,学校,下午,4.86
2024-06-15,萌山公园,117.894094,36.713084,其他,公园,傍晚,6.8
2024-06-15,星巴克(淄博印象汇店),118.053299,36.822489,其他,餐饮,上午,8.77
2024-06-15,星巴克(淄博印象汇店),118.053299,36.822489,其他,餐饮,深夜,6.51
2024-06-15,凤凰广场,118.010316,36.699943,其他,公园,深夜,3.03
2024-06-16,福润斯游泳健身会所,118.05429,36.805671,其他,体育场馆,上午,6.09
2024-06-16,福润斯游泳健身会所,118.05429,36.805671,其他,体育场馆,下午,7.9
2024-06-16,矾沟肉油饼,117.863953,36.476117,其他,餐饮,中午,7.38
2024-06-16,矾沟肉油饼,117.863953,36.476117,其他,餐饮,凌晨,2.59
2024-06-16,山格洞中韩料理餐厅,117.845718,36.80366,其他,餐饮,深夜,3.42
2024-06-16,山格洞中韩料理餐厅,117.845718,36.80366,其他,餐饮,上午,7.97
2024-06-16,桓台县中医院,118.098618,36.968299,其他,医院,深夜,5.57
2024-06-16,桓台县中医院,118.098618,36.968299,其他,医院,中午,7.25
2024-06-16,清真寺,117.988974,36.630483,其他,旅游景点,晚上,5.17
2024-06-16,山东沂源二中,118.149219,36.17686,其他,学校,下午,8.58
2024-06-16,山东沂源二中,118.149219,36.17686,其他,学校,晚上,6.52
2024-06-16,乡韵金典餐饮(西台店),118.149075,36.191675,其他,餐饮,下午,8.01
2024-06-16,乡韵金典餐饮(西台店),118.149075,36.191675,其他,餐饮,深夜,4.53
2024-06-16,双龙池食品店,117.876685,36.506296,其他,餐饮,晚上,5.26
2024-06-16,双龙池食品店,117.876685,36.506296,其他,餐饮,傍晚,6.03
2024-06-16,古茗(中润新玛特购物广场店),118.028312,36.837953,其他,餐饮,晚上,4.39
2024-06-16,古茗(中润新玛特购物广场店),118.028312,36.837953,其他,餐饮,深夜,4.32
2024-06-16,圆心楼商城,117.844755,36.618944,其他,商场,下午,7.44
2024-06-16,圆心楼商城,117.844755,36.618944,其他,商场,上午,6.52
2024-06-16,淄博高新区第四小学,118.035838,36.887786,其他,学校,傍晚,4.36
2024-06-16,淄博高新区第四小学,118.035838,36.887786,其他,学校,中午,5.27
2024-06-16,桓台县周家中学,117.982346,36.905885,其他,学校,上午,7.34
2024-06-16,桓台县周家中学,117.982346,36.905885,其他,学校,傍晚,5.14
2024-06-16,卓小健少儿综合运动馆,118.02709,36.807664,其他,体育场馆,上午,6.69
2024-06-16,福德寺,118.233143,36.766972,其他,旅游景点,晚上,3.68
2024-06-16,博山区第一中学,117.848509,36.495344,其他,学校,中午,6.72
2024-06-16,博山区第一中学,117.848509,36.495344,其他,学校,凌晨,5.52
2024-06-16,蒙山蚂蚱鸡(大顺路店),118.297962,36.82577,其他,餐饮,晚上,6.6
2024-06-16,蒙山蚂蚱鸡(大顺路店),118.297962,36.82577,其他,餐饮,上午,5.65
2024-06-16,淄博市市级机关医院,118.055697,36.811686,其他,医院,傍晚,6.01
2024-06-16,钱记小院,117.854785,36.48077,其他,餐饮,深夜,5.55
2024-06-16,海福缘酒楼博山菜,118.05069,36.818672,其他,餐饮,晚上,5.33
2024-06-16,海福缘酒楼博山菜,118.05069,36.818672,其他,餐饮,傍晚,5.66
2024-06-16,淄博市实验幼儿园,117.977691,36.820993,其他,学校,晚上,6.97
2024-06-16,淄博市实验幼儿园,117.977691,36.820993,其他,学校,深夜,6.41
2024-06-16,淄博市第一医院总院,117.86452,36.490278,其他,医院,中午,7.78
2024-06-16,银座购物广场(博山店),117.860767,36.494224,其他,商场,凌晨,5.05
2024-06-16,淄博国际会展中心,117.996092,36.790779,其他,文化场馆,凌晨,4.34
2024-06-16,淄博国际会展中心,117.996092,36.790779,其他,文化场馆,深夜,3.37
2024-06-16,中铝党校,118.047129,36.756803,其他,学校,凌晨,5.38
2024-06-16,中铝党校,118.047129,36.756803,其他,学校,深夜,6.94
2024-06-16,海洋王国,118.296117,36.817556,其他,公园,中午,6.67
2024-06-16,海洋王国,118.296117,36.817556,其他,公园,凌晨,4.78
2024-06-16,友谊商场,118.168712,36.183769,其他,商场,下午,7.14
2024-06-16,唐山医院,118.046553,36.958095,其他,医院,下午,6.74
2024-06-16,唐山医院,118.046553,36.958095,其他,医院,上午,7.09
2024-06-16,沂源文化苑,118.158,36.191738,其他,公园,上午,6.03
2024-06-16,沂源文化苑,118.158,36.191738,其他,公园,下午,6.73
2024-06-16,北山饭店,118.354064,36.796083,其他,餐饮,中午,6.97
2024-06-16,北山饭店,118.354064,36.796083,其他,餐饮,凌晨,4.17
2024-06-16,沁园社区卫生服务站,118.045357,36.814004,其他,医院,中午,5.74
2024-06-16,淄川区西河中心卫生院,117.942726,36.502452,其他,医院,下午,8.78
2024-06-16,金色之韵量贩KTV(龙御大厦店),118.024504,36.821458,其他,餐饮,傍晚,6.21
2024-06-16,金色之韵量贩KTV(龙御大厦店),118.024504,36.821458,其他,餐饮,深夜,3.63
2024-06-16,海岱楼,117.988604,36.841309,其他,旅游景点,傍晚,3.79
2024-06-16,海岱楼,117.988604,36.841309,其他,旅游景点,凌晨,2.29
2024-06-16,沂源县沂河源学校,118.190142,36.195699,其他,学校,晚上,6.9
2024-06-16,沂源县沂河源学校,118.190142,36.195699,其他,学校,上午,5.42
2024-06-16,思迈健身会所(山东新星集团新星商厦店),118.023065,36.781464,其他,体育场馆,中午,6.88
2024-06-16,思迈健身会所(山东新星集团新星商厦店),118.023065,36.781464,其他,体育场馆,傍晚,5.32
2024-06-16,张店区实验小学,118.016861,36.801754,其他,学校,凌晨,7.1
2024-06-16,悦味坊酒店,118.0079,36.832232,其他,餐饮,上午,6.28
2024-06-16,山东理工大学信息楼,118.004206,36.80863,其他,文化场馆,下午,5.92
2024-06-16,山东理工大学信息楼,118.004206,36.80863,其他,文化场馆,中午,8.23
2024-06-16,安澜湾,117.896269,37.260744,其他,旅游景点,深夜,4.1
2024-06-16,齐文化博物馆,118.364788,36.813558,其他,文化场馆,晚上,3.65
2024-06-16,齐文化博物馆,118.364788,36.813558,其他,文化场馆,上午,6.88
2024-06-16,惊宇动力健康管理中心·游泳健身,117.997351,36.790241,其他,体育场馆,傍晚,4.54
2024-06-16,惊宇动力健康管理中心·游泳健身,117.997351,36.790241,其他,体育场馆,深夜,6.77
2024-06-16,南博山卫生院,117.959816,36.350531,其他,医院,下午,4.91
2024-06-16,南博山卫生院,117.959816,36.350531,其他,医院,深夜,4.08
2024-06-16,核心商城(鲁中装饰材料城店),118.02041,36.785217,其他,商场,傍晚,5.3
2024-06-16,运粮河湿地公园,118.307362,36.892481,其他,公园,凌晨,4.17
2024-06-16,运粮河湿地公园,118.307362,36.892481,其他,公园,深夜,5.74
2024-06-16,蜂山公园,118.244184,36.747659,其他,公园,深夜,3.27
2024-06-16,张店区上海路小学,117.974778,36.819207,其他,学校,凌晨,5.33
2024-06-16,张店区上海路小学,117.974778,36.819207,其他,学校,傍晚,7.4
2024-06-16,齐山风景区,118.199833,36.5147,其他,旅游景点,深夜,3.8
2024-06-16,乌河入湖口湿地公园,118.106519,36.944644,其他,公园,深夜,4.2
2024-06-16,乌河入湖口湿地公园,118.106519,36.944644,其他,公园,下午,4.77
2024-06-16,颜山商城,117.862649,36.496325,其他,商场,晚上,5.67
2024-06-16,怡康游园,118.190152,36.796997,其他,公园,深夜,4.11
2024-06-16,滨州医学院淄博教学基地,118.055554,36.807226,其他,学校,上午,7.28
2024-06-16,滨州医学院淄博教学基地,118.055554,36.807226,其他,学校,凌晨,6.07
2024-06-16,索镇供销大楼,118.114774,36.956654,其他,商场,中午,5.56
2024-06-16,小寨游园,117.864398,36.808559,其他,公园,傍晚,7.01
2024-06-16,小寨游园,117.864398,36.808559,其他,公园,下午,6.36
2024-06-16,V8乔氏台球,118.042351,36.815814,其他,体育场馆,傍晚,6.55
2024-06-16,淄博市育才中学,117.969795,36.641159,其他,学校,中午,5.98
2024-06-16,公社炒鸡老菜馆(八大局店),118.075206,36.808527,其他,餐饮,傍晚,4.39
2024-06-16,公社炒鸡老菜馆(八大局店),118.075206,36.808527,其他,餐饮,上午,6.92
2024-06-16,淘宝商城(鲁中国际商贸城店),117.953475,36.641625,其他,商场,上午,5.61
2024-06-16,淄博高新区文体公园,118.07024,36.840741,其他,公园,深夜,3.86
2024-06-16,淄博中学,118.120439,36.831177,其他,学校,晚上,5.59
2024-06-16,留仙湖公园,117.957398,36.6373,其他,公园,傍晚,5.89
2024-06-17,张店区中医院康复楼,118.052783,36.800109,其他,医院,下午,4.77
2024-06-17,响袋24小时自助棋牌台球(淄博潘庄店),118.059775,36.819697,其他,体育场馆,深夜,6.65
2024-06-17,中共高青县委党校,117.849188,37.155973,其他,文化场馆,凌晨,4.08
2024-06-17,中共高青县委党校,117.849188,37.155973,其他,文化场馆,深夜,5.26
2024-06-17,张店区人民医院(南院区),118.059541,36.791552,其他,医院,傍晚,4.16
2024-06-17,张店区人民医院(南院区),118.059541,36.791552,其他,医院,下午,6.88
2024-06-17,中埠镇卫生院,118.18759,36.846438,其他,医院,上午,5.69
2024-06-17,淄博市美达菲双语高级中学,117.966026,36.815861,其他,学校,中午,6.1
2024-06-17,淄博市美达菲双语高级中学,117.966026,36.815861,其他,学校,上午,5.29
2024-06-17,淄博市周村区第一中学(东校区),117.838026,36.791925,其他,学校,凌晨,4.7
2024-06-17,淄博市周村区第一中学(东校区),117.838026,36.791925,其他,学校,晚上,4.24
2024-06-17,淄川体育公园,117.975396,36.63122,其他,公园,中午,4.56
2024-06-17,泽升游泳馆,117.96147,36.670221,其他,体育场馆,中午,4.69
2024-06-17,铁锅砖家·正宗东北铁锅炖(名士豪庭店),118.053772,36.85251,其他,餐饮,下午,4.65
2024-06-17,明医堂,118.037682,36.797434,其他,医院,深夜,6.09
2024-06-17,明医堂,118.037682,36.797434,其他,医院,中午,5.05
2024-06-17,文昌湖区总体国家安全观主题公园,117.873194,36.713743,其他,公园,下午,6.27
2024-06-17,文昌湖区总体国家安全观主题公园,117.873194,36.713743,其他,公园,凌晨,5.85
2024-06-17,淄博和平学校,117.824973,36.791633,其他,学校,晚上,5.71
2024-06-17,天明寺,118.065457,36.543319,其他,旅游景点,晚上,3.47
2024-06-17,唐山镇文体公园,118.049167,36.963014,其他,公园,下午,6.64
2024-06-17,TULIPS MAPLE(齐园绿城店),118.288425,36.809494,其他,商场,凌晨,4.71
2024-06-17,长寿山广场,117.823867,36.552209,其他,公园,深夜,4.33
2024-06-17,长寿山广场,117.823867,36.552209,其他,公园,晚上,5.45
2024-06-17,东海鲜味园,117.849453,36.805836,其他,餐饮,傍晚,5.24
2024-06-17,淄川区城南卫生院,117.954695,36.623403,其他,医院,傍晚,6.24
2024-06-17,淄川区城南卫生院,117.954695,36.623403,其他,医院,下午,7.54
2024-06-17,淼铭园特色大骨头店,118.026602,36.768651,其他,餐饮,中午,4.54
2024-06-17,淼铭园特色大骨头店,118.026602,36.768651,其他,餐饮,上午,6.08
2024-06-17,淄博公园,117.977602,36.785251,其他,公园,上午,6.66
2024-06-17,淄博公园,117.977602,36.785251,其他,公园,凌晨,2.66
2024-06-17,张氏蛤蜊鸡(总店),117.863549,36.805103,其他,餐饮,下午,5.27
2024-06-17,淄博万象汇,118.061399,36.802119,其他,商场,傍晚,5.34
2024-06-17,淄博万象汇,118.061399,36.802119,其他,商场,凌晨,5.01
2024-06-17,张店区大拿乔氏台球厅,118.035919,36.830971,其他,体育场馆,下午,5.62
2024-06-17,壹加壹台球网咖(商业步行街店),118.041919,36.807328,其他,体育场馆,傍晚,7.34
2024-06-17,锅圈食汇火锅烧烤食材超市(齐都花园店),118.290581,36.827659,其他,餐饮,中午,4.13
2024-06-17,锅圈食汇火锅烧烤食材超市(齐都花园店),118.290581,36.827659,其他,餐饮,凌晨,4.05
2024-06-17,淄博市中医医院(院总部)(装修中),117.934625,36.802749,其他,医院,晚上,4.78
2024-06-17,淄博市中医医院(院总部)(装修中),117.934625,36.802749,其他,医院,中午,4.27
2024-06-17,茂业百货(泰客荣店),118.302802,36.813754,其他,商场,深夜,3.96
2024-06-17,淄博黉门中学,118.035602,36.806253,其他,学校,深夜,3.34
2024-06-17,银泰·金街/时代广场,118.035034,36.849708,其他,商场,晚上,3.52
2024-06-17,银泰·金街/时代广场,118.035034,36.849708,其他,商场,上午,6.83
2024-06-17,凤凰广场,118.010316,36.699943,其他,公园,中午,6.04
2024-06-17,李二鲜鱼火锅,118.311561,36.821384,其他,餐饮,深夜,4.96
2024-06-17,山东省桓台世纪中学,118.108796,36.959324,其他,学校,凌晨,3.9
2024-06-17,山东省桓台世纪中学,118.108796,36.959324,其他,学校,上午,5.65
2024-06-17,淄博国际商贸城,117.99447,36.789472,其他,商场,上午,5.62
2024-06-17,二郎庙,118.054265,36.426773,其他,旅游景点,深夜,4.27
2024-06-17,二郎庙,118.054265,36.426773,其他,旅游景点,下午,6.64
2024-06-17,淄博市第四人民医院,118.043297,36.76628,其他,医院,中午,6.39
2024-06-17,淄博市第四人民医院,118.043297,36.76628,其他,医院,傍晚,6.88
2024-06-17,文昌湖西马桥景点,117.85869,36.690796,其他,旅游景点,凌晨,6.1
2024-06-17,文昌湖西马桥景点,117.85869,36.690796,其他,旅游景点,深夜,4.93
2024-06-17,青年公园,118.040537,36.760851,其他,公园,深夜,5.95
2024-06-17,青年公园,118.040537,36.760851,其他,公园,凌晨,4.07
2024-06-17,淄博师专,117.908464,36.66217,其他,学校,中午,4.4
2024-06-17,淄博师专,117.908464,36.66217,其他,学校,凌晨,2.44
2024-06-17,红莲湖公园西湖区,118.065928,36.935049,其他,公园,中午,6.26
2024-06-17,周村城北中学,117.861555,36.842978,其他,学校,傍晚,5.75
2024-06-17,周村城北中学,117.861555,36.842978,其他,学校,中午,5.8
2024-06-17,优壹佳健身(东三路店),118.073359,36.797066,其他,体育场馆,中午,5.84
2024-06-17,鲁山国家森林公园-大雄宝殿,118.072669,36.297529,其他,旅游景点,傍晚,5.59
2024-06-17,鲁山国家森林公园-大雄宝殿,118.072669,36.297529,其他,旅游景点,深夜,3.02
2024-06-17,乔氏桌球(晏婴路店),118.311476,36.819986,其他,体育场馆,中午,4.49
2024-06-17,淄博长城医院,118.030906,36.797646,其他,医院,凌晨,5.74
2024-06-17,少海公园,118.082339,36.960297,其他,旅游景点,凌晨,3.16
2024-06-17,少海公园,118.082339,36.960297,其他,旅游景点,上午,6.22
2024-06-17,张店区盛湖小学,117.983951,36.845121,其他,学校,傍晚,3.53
2024-06-17,虡盛文化公园,118.196724,36.202578,其他,公园,下午,5.06
2024-06-17,虡盛文化公园,118.196724,36.202578,其他,公园,上午,6.76
2024-06-17,华严胜境,117.978841,37.001051,其他,旅游景点,凌晨,1.69
2024-06-17,稷下文化园,118.274123,36.81748,其他,公园,上午,4.33
2024-06-17,稷下文化园,118.274123,36.81748,其他,公园,中午,5.03
2024-06-17,晏婴公园,118.292655,36.820218,其他,公园,下午,6.62
2024-06-17,晏婴公园,118.292655,36.820218,其他,公园,晚上,2.94
2024-06-17,优壹佳健身(华光路店),118.042423,36.820796,其他,体育场馆,上午,6.08
2024-06-17,优壹佳健身(华光路店),118.042423,36.820796,其他,体育场馆,傍晚,5.07
2024-06-17,蒲松龄书馆,117.738211,36.677812,其他,旅游景点,深夜,4.05
2024-06-17,荣德医院,118.102162,36.848838,其他,医院,傍晚,5.96
2024-06-17,荣德医院,118.102162,36.848838,其他,医院,下午,7.23
2024-06-17,来力台球俱乐部(文昌路店),117.890451,36.661357,其他,体育场馆,凌晨,5.29
2024-06-17,张店区第九中学,118.022021,36.815689,其他,学校,傍晚,4.64
2024-06-17,张店区第九中学,118.022021,36.815689,其他,学校,凌晨,4.17
2024-06-17,联启羽毛球馆,117.867129,36.776279,其他,体育场馆,中午,5.09
2024-06-17,孙庄党建主题公园,118.123778,36.846458,其他,公园,下午,5.56
2024-06-17,孙庄党建主题公园,118.123778,36.846458,其他,公园,深夜,4.09
2024-06-17,清真双盛馆,118.196175,36.805724,其他,餐饮,下午,5.55
2024-06-17,清真双盛馆,118.196175,36.805724,其他,餐饮,深夜,4.66
2024-06-17,胜利广场,117.854169,36.781992,其他,公园,上午,5.35
2024-06-17,淄博星空台球(水晶街店),118.003627,36.816338,其他,体育场馆,上午,7.31
2024-06-17,高青县第四中学,117.812928,37.172148,其他,学校,深夜,4.56
2024-06-17,雁阳小学,118.001471,36.653546,其他,学校,中午,4.31
2024-06-18,众益商务广场,117.840236,37.171428,其他,公园,中午,4.65
2024-06-18,众益商务广场,117.840236,37.171428,其他,公园,晚上,4.32
2024-06-18,淄建集团医院,118.064021,36.801248,其他,医院,晚上,3.51
2024-06-18,淄建集团医院,118.064021,36.801248,其他,医院,中午,7.03
2024-06-18,典雅服装商场,117.988939,36.74058,其他,商场,傍晚,4.75
2024-06-18,遄台中学,118.316847,36.818062,其他,学校,中午,5.02
2024-06-18,遄台中学,118.316847,36.818062,其他,学校,下午,4.02
2024-06-18,钱记小院,117.854785,36.48077,其他,餐饮,上午,6.2
2024-06-18,淄博世纪英才外语学校,118.065,36.842399,其他,学校,中午,4.36
2024-06-18,寨里中心卫生院,118.044576,36.64904,其他,医院,晚上,4.11
2024-06-18,寨里中心卫生院,118.044576,36.64904,其他,医院,傍晚,6.39
2024-06-18,华岩寺,117.842443,36.613711,其他,旅游景点,上午,7.17
2024-06-18,淄博高新区石桥中心医院,118.045962,36.886421,其他,医院,上午,4.98
2024-06-18,飞龙台球棋牌(百脑汇店),118.04808,36.803115,其他,体育场馆,下午,6.96
2024-06-18,淄博外国语实验学校,117.987589,36.636598,其他,学校,凌晨,3.84
2024-06-18,黄河公园,117.896406,37.260764,其他,公园,晚上,4.0
2024-06-18,黑旺卫生院,118.147953,36.626963,其他,医院,晚上,3.42
2024-06-18,淄博博苑实验幼儿园,117.999673,36.819831,其他,学校,下午,6.67
2024-06-18,淄博博苑实验幼儿园,117.999673,36.819831,其他,学校,中午,4.03
2024-06-18,山东农业工程学院(淄博校区),117.934861,36.845859,其他,学校,中午,3.84
2024-06-18,山东农业工程学院(淄博校区),117.934861,36.845859,其他,学校,晚上,6.6
2024-06-18,淄博市第四人民医院,118.043297,36.76628,其他,医院,凌晨,5.45
2024-06-18,淄博市第四人民医院,118.043297,36.76628,其他,医院,下午,6.87
2024-06-18,皇城医院,118.41921,36.874255,其他,医院,晚上,5.08
2024-06-18,皇城医院,118.41921,36.874255,其他,医院,中午,4.54
2024-06-18,小燕子窝(中润·华侨城十五组团店),118.031897,36.835967,其他,餐饮,下午,5.79
2024-06-18,小燕子窝(中润·华侨城十五组团店),118.031897,36.835967,其他,餐饮,上午,6.44
2024-06-18,西城食府,117.936398,36.653827,其他,餐饮,凌晨,3.09
2024-06-18,群星乒乓球俱乐部,118.302705,36.80855,其他,体育场馆,凌晨,2.92
2024-06-18,群星乒乓球俱乐部,118.302705,36.80855,其他,体育场馆,中午,6.59
2024-06-18,云明山风景区,118.175224,36.446787,其他,旅游景点,上午,5.34
2024-06-18,奎樱古寺,117.908429,36.553642,其他,旅游景点,凌晨,4.1
2024-06-18,奎樱古寺,117.908429,36.553642,其他,旅游景点,晚上,4.17
2024-06-18,国良烧烤,117.903396,37.04802,其他,餐饮,傍晚,5.29
2024-06-18,国良烧烤,117.903396,37.04802,其他,餐饮,凌晨,2.63
2024-06-18,安源蛋糕,118.166964,36.18527,其他,餐饮,中午,5.11
2024-06-18,张店区人民医院,118.072384,36.817652,其他,医院,晚上,5.14
2024-06-18,淄博市张店区铝城第一中学,118.040937,36.748754,其他,学校,下午,7.89
2024-06-18,淄博市张店区铝城第一中学,118.040937,36.748754,其他,学校,晚上,5.29
2024-06-18,齐祖广场,118.365747,36.810073,其他,公园,晚上,4.59
2024-06-18,乡韵金典餐饮(西台店),118.149075,36.191675,其他,餐饮,傍晚,4.79
2024-06-18,周村烧饼博物馆,117.841826,36.79823,其他,餐饮,上午,4.6
2024-06-18,周村烧饼博物馆,117.841826,36.79823,其他,餐饮,凌晨,3.61
2024-06-18,SOS台球俱乐部,118.029034,36.80782,其他,体育场馆,傍晚,7.55
2024-06-18,黄河楼广场,117.889658,37.259927,其他,公园,下午,4.54
2024-06-18,黄河楼广场,117.889658,37.259927,其他,公园,晚上,5.82
2024-06-18,金惠丽百货,118.065748,37.06301,其他,商场,傍晚,6.9
2024-06-18,进无止境台球俱乐部,117.99665,36.7996,其他,体育场馆,凌晨,3.69
2024-06-18,进无止境台球俱乐部,117.99665,36.7996,其他,体育场馆,上午,7.48
2024-06-18,蓝溪国际滑雪场(暂停营业),118.358638,36.781914,其他,体育场馆,下午,6.86
2024-06-18,蓝溪国际滑雪场(暂停营业),118.358638,36.781914,其他,体育场馆,晚上,3.68
2024-06-18,中濠饭店(海岱楼店),117.998939,36.844294,其他,餐饮,傍晚,7.8
2024-06-18,中濠饭店(海岱楼店),117.998939,36.844294,其他,餐饮,凌晨,3.97
2024-06-18,陶然香火锅居(将军路店),117.971523,36.629764,其他,餐饮,凌晨,2.12
2024-06-18,权记洋行,118.061074,36.80042,其他,旅游景点,晚上,5.3
2024-06-18,权记洋行,118.061074,36.80042,其他,旅游景点,凌晨,3.64
2024-06-18,凤凰山经济林生态观光区,118.136722,36.567543,其他,旅游景点,上午,5.33
2024-06-18,齐长城遗址,117.855184,36.485532,其他,旅游景点,晚上,6.02
2024-06-18,齐长城遗址,117.855184,36.485532,其他,旅游景点,中午,4.81
2024-06-18,高青友好医院,117.860551,37.173783,其他,医院,中午,5.77
2024-06-18,鸿泰医院,117.836937,36.797978,其他,医院,上午,7.16
2024-06-18,淄川齐梦乐华梓潼山滑雪场,118.029397,36.667973,其他,体育场馆,上午,7.2
2024-06-18,淄川齐梦乐华梓潼山滑雪场,118.029397,36.667973,其他,体育场馆,晚上,4.76
2024-06-18,安澜湾,117.896269,37.260744,其他,旅游景点,中午,4.97
2024-06-18,锤子女子健身,117.991131,36.847568,其他,体育场馆,傍晚,7.41
2024-06-18,锤子女子健身,117.991131,36.847568,其他,体育场馆,下午,6.94
2024-06-18,大海商厦,117.958091,36.643402,其他,商场,晚上,5.25
2024-06-18,大海商厦,117.958091,36.643402,其他,商场,下午,5.78
2024-06-18,市民广场,118.017803,36.804819,其他,公园,凌晨,3.73
2024-06-18,市民广场,118.017803,36.804819,其他,公园,中午,4.3
2024-06-18,星动重塑女性健身,118.024703,36.825757,其他,体育场馆,傍晚,5.96
2024-06-18,星动重塑女性健身,118.024703,36.825757,其他,体育场馆,上午,5.38
2024-06-18,六点水新世界,118.177816,36.196675,其他,公园,中午,6.35
2024-06-18,牵电医院,118.077809,36.802433,其他,医院,中午,5.93
2024-06-18,优壹佳健身(东三路店),118.073359,36.797066,其他,体育场馆,深夜,4.52
2024-06-18,优壹佳健身(东三路店),118.073359,36.797066,其他,体育场馆,凌晨,3.54
2024-06-18,淄博光正公司医院,117.947288,36.6059,其他,医院,傍晚,6.11
2024-06-18,临淄区金山中学,118.229933,36.735894,其他,学校,凌晨,4.26
2024-06-18,鲁山国家森林公园-大雄宝殿,118.072669,36.297529,其他,旅游景点,傍晚,7.66
2024-06-18,鲁山国家森林公园-大雄宝殿,118.072669,36.297529,其他,旅游景点,深夜,4.53
2024-06-18,孙廷铨故居,117.856617,36.49113,其他,旅游景点,傍晚,6.94
2024-06-18,法王院,118.032929,36.713602,其他,旅游景点,傍晚,4.77
2024-06-18,法王院,118.032929,36.713602,其他,旅游景点,凌晨,3.82
2024-06-18,博山篮球运动中心,117.832791,36.514627,其他,体育场馆,傍晚,4.37
2024-06-18,博山篮球运动中心,117.832791,36.514627,其他,体育场馆,深夜,5.02
2024-06-18,留仙湖公园-淄川健康主题公园,117.956814,36.634343,其他,公园,傍晚,5.14
2024-06-18,留仙湖公园-淄川健康主题公园,117.956814,36.634343,其他,公园,上午,6.32
2024-06-18,XIK酷点台球俱乐部,118.104709,36.958861,其他,体育场馆,傍晚,6.01
2024-06-18,XIK酷点台球俱乐部,118.104709,36.958861,其他,体育场馆,深夜,2.74
2024-06-18,高青县第五中学,117.881124,37.151187,其他,学校,傍晚,5.18
2024-06-18,博山风景名胜区,117.820186,36.513045,其他,旅游景点,凌晨,3.12
2024-06-18,唐山医院,118.046553,36.958095,其他,医院,傍晚,5.85
2024-06-18,唐山医院,118.046553,36.958095,其他,医院,晚上,5.53
2024-06-18,金梦园(新村西路店),118.027431,36.803256,其他,餐饮,上午,6.89
2024-06-18,金梦园(新村西路店),118.027431,36.803256,其他,餐饮,中午,5.28
2024-06-18,博山经济开发区卫生院,117.846082,36.522515,其他,医院,晚上,4.21
2024-06-18,桉树披萨(淄川店),117.976008,36.644428,其他,餐饮,深夜,5.26
2024-06-18,桉树披萨(淄川店),117.976008,36.644428,其他,餐饮,晚上,5.68
2024-06-19,桉树披萨(福门商城店),117.859109,36.496209,其他,餐饮,下午,6.94
2024-06-19,桉树披萨(福门商城店),117.859109,36.496209,其他,餐饮,中午,6.92
2024-06-19,邱氏瓜子干果老店(城里大街店),117.964129,36.646437,其他,餐饮,凌晨,5.26
2024-06-19,八宝灵山寺,118.125937,36.352686,其他,旅游景点,晚上,4.68
2024-06-19,马家文昌阁,117.987232,36.619682,其他,旅游景点,深夜,4.07
2024-06-19,马家文昌阁,117.987232,36.619682,其他,旅游景点,上午,7.94
2024-06-19,峨庄瀑布群风景区,118.190568,36.438902,其他,旅游景点,晚上,3.68
2024-06-19,山东省桓台第二中学,118.07255,36.952882,其他,学校,深夜,6.03
2024-06-19,汇达台球俱乐部,118.006687,36.816106,其他,体育场馆,上午,3.8
2024-06-19,山水缘广场,117.959894,36.632743,其他,公园,傍晚,5.86
2024-06-19,山水缘广场,117.959894,36.632743,其他,公园,中午,6.6
2024-06-19,淄博市职业病防治院,118.011185,36.835737,其他,医院,深夜,4.1
2024-06-19,山铝植物园,118.04532,36.754336,其他,公园,深夜,4.0
2024-06-19,裕翔球馆,118.041251,36.84489,其他,体育场馆,下午,5.61
2024-06-19,裕翔球馆,118.041251,36.84489,其他,体育场馆,晚上,4.69
2024-06-19,博山区中医院-门诊住院,117.826869,36.489714,其他,医院,晚上,6.56
2024-06-19,淄博市周村区实验中学,117.844915,36.787422,其他,学校,上午,4.5
2024-06-19,淄博市周村区实验中学,117.844915,36.787422,其他,学校,中午,6.5
2024-06-19,618战备电台旧址,118.001624,36.229969,其他,旅游景点,凌晨,2.09
2024-06-19,618战备电台旧址,118.001624,36.229969,其他,旅游景点,下午,5.94
2024-06-19,聚合购物,118.102169,36.819988,其他,商场,中午,4.97
2024-06-19,宁家村文明实践广场,117.824974,36.733846,其他,公园,深夜,5.43
2024-06-19,钱裕园文化广场,118.00181,36.81628,其他,公园,深夜,4.54
2024-06-19,钱裕园文化广场,118.00181,36.81628,其他,公园,凌晨,3.93
2024-06-19,壹加壹(后埠新村店),118.083719,36.936016,其他,商场,中午,5.88
2024-06-19,王母祠,118.003392,36.707352,其他,旅游景点,中午,3.38
2024-06-19,辛店街道中体体育公园,118.309062,36.798078,其他,公园,上午,6.56
2024-06-19,淄川区实验小学南校区,117.964219,36.625985,其他,学校,晚上,4.45
2024-06-19,淄川区实验小学南校区,117.964219,36.625985,其他,学校,深夜,3.71
2024-06-19,玉兰广场,117.965491,36.80035,其他,公园,中午,4.4
2024-06-19,淘宝商城(鲁中国际商贸城店),117.953475,36.641625,其他,商场,傍晚,3.74
2024-06-19,颜山公园,117.849791,36.488876,其他,公园,深夜,3.85
2024-06-19,颜山公园,117.849791,36.488876,其他,公园,凌晨,4.07
2024-06-19,吾悦广场(淄博店),118.025098,36.783679,其他,商场,深夜,2.7
2024-06-19,吾悦广场(淄博店),118.025098,36.783679,其他,商场,中午,4.97
2024-06-19,临淄蹴鞠小镇,118.371823,36.805196,其他,体育场馆,晚上,3.83
2024-06-19,临淄蹴鞠小镇,118.371823,36.805196,其他,体育场馆,下午,8.36
2024-06-19,柒月·普拉提·塑形(居然之家店),118.05623,36.841163,其他,体育场馆,深夜,3.62
2024-06-19,银座商城超市(柳泉路店),118.050484,36.805618,其他,商场,深夜,3.9
2024-06-19,世纪东方购物中心,118.162663,36.185787,其他,商场,下午,6.69
2024-06-19,世纪东方购物中心,118.162663,36.185787,其他,商场,上午,4.57
2024-06-19,淄博市体育中心综合体育馆,117.984612,36.814996,其他,体育场馆,晚上,6.25
2024-06-19,Top台球俱乐部(奥朗特购物广场店),118.012654,36.810435,其他,体育场馆,凌晨,6.01
2024-06-19,临淄区闻韶银山百货商场(方正2009小区店),118.331701,36.817583,其他,商场,傍晚,6.29
2024-06-19,临淄区闻韶银山百货商场(方正2009小区店),118.331701,36.817583,其他,商场,中午,6.27
2024-06-19,张庄乡张庄村卫生室,118.066716,36.52363,其他,医院,上午,5.61
2024-06-19,张庄乡张庄村卫生室,118.066716,36.52363,其他,医院,晚上,3.33
2024-06-19,品海蒸鲜(曦园店),118.00047,36.846274,其他,餐饮,下午,6.09
2024-06-19,凤凰山公园,117.838883,36.741488,其他,公园,晚上,4.56
2024-06-19,联通路169号红星欧丽洛雅商场,118.010594,36.829104,其他,商场,中午,7.01
2024-06-19,淄川体育公园东区,117.978905,36.629127,其他,公园,晚上,5.28
2024-06-19,淄川体育公园东区,117.978905,36.629127,其他,公园,下午,5.09
2024-06-19,淄博商厦,118.058471,36.802055,其他,商场,中午,3.82
2024-06-19,鲁中安全生产考试中心,118.125613,36.838574,其他,文化场馆,深夜,5.27
2024-06-19,鲁中安全生产考试中心,118.125613,36.838574,其他,文化场馆,中午,5.61
2024-06-19,铁锅砖家·正宗东北铁锅炖(名士豪庭店),118.053772,36.85251,其他,餐饮,深夜,5.79
2024-06-19,临淄区淄江中学,118.345542,36.812707,其他,学校,上午,6.38
2024-06-19,卫固医院,118.144778,36.867143,其他,医院,傍晚,6.12
2024-06-19,巩本明鱼屋子,118.083466,37.056576,其他,餐饮,晚上,6.34
2024-06-19,DH健身,118.062042,36.810552,其他,体育场馆,傍晚,3.48
2024-06-19,DH健身,118.062042,36.810552,其他,体育场馆,深夜,4.49
2024-06-19,万隆台球,117.969942,36.837366,其他,体育场馆,晚上,3.44
2024-06-19,高青县中医院,117.830285,37.184154,其他,医院,下午,4.63
2024-06-19,淄川区昆仑中心卫生院,117.917455,36.584912,其他,医院,下午,4.71
2024-06-19,淄川区昆仑中心卫生院,117.917455,36.584912,其他,医院,傍晚,7.6
2024-06-19,淄博丽人医院,118.047595,36.820418,其他,医院,下午,5.06
2024-06-19,毕自严故居,117.738277,36.677793,其他,旅游景点,晚上,3.26
2024-06-19,银座(天齐店),118.331189,36.813099,其他,商场,凌晨,3.11
2024-06-19,银座(天齐店),118.331189,36.813099,其他,商场,傍晚,6.6
2024-06-19,文体公园,118.080968,36.945162,其他,公园,晚上,5.74
2024-06-20,TOP-1私教健身(东岳店),118.076828,36.948274,其他,体育场馆,深夜,5.09
