日期,地点名称,经度,纬度,区域,类型,时间段,情绪值
2024-07-01,张店区体育馆,118.036155,36.796165,其他,体育场馆,下午,4.69
2024-07-01,张店区体育馆,118.036155,36.796165,其他,体育场馆,上午,6.82
2024-07-01,刘春村文化广场,117.885178,37.255864,其他,公园,傍晚,7.42
2024-07-01,刘春村文化广场,117.885178,37.255864,其他,公园,中午,6.46
2024-07-01,聚合购物,118.102169,36.819988,其他,商场,上午,7.8
2024-07-01,聚合购物,118.102169,36.819988,其他,商场,深夜,4.94
2024-07-01,太公小学,118.335491,36.816887,其他,学校,上午,4.68
2024-07-01,大海商场(欢乐城精品购物广场店),118.023098,36.824572,其他,商场,上午,6.04
2024-07-01,大海商场(欢乐城精品购物广场店),118.023098,36.824572,其他,商场,深夜,4.08
2024-07-01,陶涛羽毛球训练营(利群时代广场店),118.047869,36.80187,其他,体育场馆,中午,5.09
2024-07-01,陶涛羽毛球训练营(利群时代广场店),118.047869,36.80187,其他,体育场馆,傍晚,4.61
2024-07-01,沂源县普安禅寺,118.126756,36.195465,其他,旅游景点,下午,4.56
2024-07-01,泸溪河桃酥(淄博吾悦广场店),118.025209,36.78382,其他,餐饮,傍晚,4.78
2024-07-01,泸溪河桃酥(淄博吾悦广场店),118.025209,36.78382,其他,餐饮,中午,6.11
2024-07-01,博山区山头街道卫生院,117.862367,36.476361,其他,医院,上午,7.23
2024-07-01,博山区山头街道卫生院,117.862367,36.476361,其他,医院,晚上,3.89
2024-07-01,淄川体育公园东区,117.978905,36.629127,其他,公园,中午,4.82
2024-07-01,淄川体育公园东区,117.978905,36.629127,其他,公园,凌晨,2.72
2024-07-01,齐悦国际大饭店,117.85344,36.795005,其他,餐饮,上午,4.88
2024-07-01,齐悦国际大饭店,117.85344,36.795005,其他,餐饮,晚上,3.96
2024-07-01,淄博工业学校梧台校区,118.302241,36.885074,其他,学校,凌晨,3.72
2024-07-01,小面侠(雪宫路店),118.303634,36.815928,其他,餐饮,傍晚,4.26
2024-07-01,小面侠(雪宫路店),118.303634,36.815928,其他,餐饮,深夜,5.88
2024-07-01,奎三广场,117.937206,36.563022,其他,公园,晚上,6.24
2024-07-01,奎三广场,117.937206,36.563022,其他,公园,傍晚,5.84
2024-07-01,夏庄小区广场,118.054937,36.766191,其他,公园,傍晚,5.79
2024-07-01,夏庄小区广场,118.054937,36.766191,其他,公园,深夜,4.0
2024-07-01,周村古商城-三星庙,117.840331,36.799726,其他,旅游景点,晚上,6.33
2024-07-01,马桥植物园,117.917271,37.035436,其他,公园,傍晚,6.04
2024-07-01,马桥植物园,117.917271,37.035436,其他,公园,下午,6.39
2024-07-01,蒲松龄书馆,117.738211,36.677812,其他,旅游景点,凌晨,3.16
2024-07-01,蒲松龄书馆,117.738211,36.677812,其他,旅游景点,晚上,4.53
2024-07-01,淄博宝华中医医院,118.02428,36.816938,其他,医院,凌晨,5.31
2024-07-01,权记洋行,118.061074,36.80042,其他,旅游景点,中午,4.76
2024-07-01,活力城,117.868293,36.799214,其他,商场,晚上,3.92
2024-07-01,活力城,117.868293,36.799214,其他,商场,深夜,3.59
2024-07-01,银座商城(人民店),117.860457,36.504428,其他,商场,晚上,3.88
2024-07-01,银座商城(人民店),117.860457,36.504428,其他,商场,下午,4.8
2024-07-01,李家村四德文化广场,117.959985,36.76604,其他,公园,晚上,5.4
2024-07-01,李家村四德文化广场,117.959985,36.76604,其他,公园,中午,6.3
2024-07-01,周家医院,117.987118,36.910093,其他,医院,中午,4.69
2024-07-01,周家医院,117.987118,36.910093,其他,医院,傍晚,4.77
2024-07-01,朱台镇新时代文明实践广场,118.260278,36.938944,其他,公园,傍晚,3.89
2024-07-01,朱台镇新时代文明实践广场,118.260278,36.938944,其他,公园,中午,4.66
2024-07-01,第五季·玩库商业中心(博山旗舰店),117.859289,36.49598,其他,商场,下午,6.23
2024-07-01,御茗府茶楼,118.292699,36.809172,其他,餐饮,下午,7.28
2024-07-01,牛山郊野公园,118.351994,36.781567,其他,公园,凌晨,4.49
2024-07-01,牛山郊野公园,118.351994,36.781567,其他,公园,中午,6.24
2024-07-01,鸿运蛤蜊鸡(尚美第三城店),118.039274,36.809909,其他,餐饮,凌晨,4.36
2024-07-01,淄川区土峪村天主教堂,118.040593,36.579527,其他,旅游景点,深夜,4.88
2024-07-01,英才中学,118.302649,36.793456,其他,学校,中午,5.75
2024-07-01,金沙游泳健身(万象汇店),118.060989,36.803223,其他,体育场馆,下午,6.48
2024-07-01,淄博文姜大酒店,117.857909,36.48168,其他,餐饮,下午,6.35
2024-07-01,淄博国际商贸城B馆,117.995315,36.787933,其他,商场,傍晚,5.85
2024-07-01,全民健身广场,118.188243,36.193088,其他,体育场馆,深夜,3.31
2024-07-01,悦动乒乓球,118.026732,36.808963,其他,体育场馆,深夜,3.57
2024-07-01,悦动乒乓球,118.026732,36.808963,其他,体育场馆,傍晚,5.03
2024-07-01,黑山八大景万佛城,117.913628,36.466375,其他,旅游景点,上午,8.05
2024-07-01,骑士台球棋牌俱乐部,118.020878,36.828858,其他,体育场馆,上午,5.06
2024-07-01,骑士台球棋牌俱乐部,118.020878,36.828858,其他,体育场馆,中午,7.11
2024-07-01,革命烈士纪念碑,118.20324,36.877451,其他,旅游景点,凌晨,3.2
2024-07-01,革命烈士纪念碑,118.20324,36.877451,其他,旅游景点,晚上,5.17
2024-07-01,李二鲜鱼火锅,118.311561,36.821384,其他,餐饮,凌晨,5.44
2024-07-01,李二鲜鱼火锅,118.311561,36.821384,其他,餐饮,傍晚,4.34
2024-07-01,天行健健身会所,118.004368,36.836872,其他,体育场馆,凌晨,5.17
2024-07-01,天行健健身会所,118.004368,36.836872,其他,体育场馆,傍晚,7.72
2024-07-01,高青燕园学校,117.800862,37.170935,其他,学校,傍晚,5.39
2024-07-01,高青燕园学校,117.800862,37.170935,其他,学校,下午,5.92
2024-07-01,石炊百味云南蒸汽石锅鱼,118.01485,36.791229,其他,餐饮,下午,5.57
2024-07-01,文昌湖公园,117.870499,36.711934,其他,公园,上午,6.44
2024-07-01,淄博瑞生医院,118.040809,36.828672,其他,医院,深夜,4.4
2024-07-01,淄博瑞生医院,118.040809,36.828672,其他,医院,下午,6.09
2024-07-01,淄博市第四人民医院门诊,118.043333,36.767198,其他,医院,傍晚,5.96
2024-07-01,淄博市第四人民医院门诊,118.043333,36.767198,其他,医院,深夜,4.35
2024-07-01,高青县革命历史纪念馆,117.792837,37.182566,其他,旅游景点,凌晨,5.04
2024-07-01,山东药品食品职业学院淄博校区,118.030617,36.806068,其他,学校,深夜,5.29
2024-07-01,淄博天齐渊公园,118.336561,36.795289,其他,公园,上午,4.46
2024-07-01,奥搏体育羽毛球馆,118.095336,36.97154,其他,体育场馆,傍晚,6.04
2024-07-01,极光健身工作室(中欧国际馆),117.993377,36.820954,其他,体育场馆,上午,5.66
2024-07-01,极光健身工作室(中欧国际馆),117.993377,36.820954,其他,体育场馆,傍晚,6.45
2024-07-01,波力羽毛球馆,117.990499,36.62364,其他,体育场馆,上午,8.19
2024-07-01,萌水医院,117.921402,36.727733,其他,医院,傍晚,6.22
2024-07-01,萌水医院,117.921402,36.727733,其他,医院,深夜,4.21
2024-07-02,淄博大成商场,118.055089,36.805645,其他,商场,上午,7.91
2024-07-02,淄博大成商场,118.055089,36.805645,其他,商场,傍晚,5.0
2024-07-02,西河健身广场,117.944417,36.728492,其他,公园,深夜,3.6
2024-07-02,西河健身广场,117.944417,36.728492,其他,公园,上午,5.88
2024-07-02,胜炼公园,118.259219,36.771678,其他,公园,深夜,4.17
2024-07-02,胜炼公园,118.259219,36.771678,其他,公园,晚上,6.3
2024-07-02,田庄中心卫生院,117.998333,36.979573,其他,医院,凌晨,2.86
2024-07-02,田庄中心卫生院,117.998333,36.979573,其他,医院,傍晚,6.8
2024-07-02,张店区体育馆广场,118.036343,36.797352,其他,公园,上午,4.87
2024-07-02,桓台后金眼科医院,117.922909,37.052407,其他,医院,凌晨,5.47
2024-07-02,桓台后金眼科医院,117.922909,37.052407,其他,医院,深夜,3.99
2024-07-02,八陡老街,117.931293,36.455814,其他,公园,上午,4.45
2024-07-02,八陡老街,117.931293,36.455814,其他,公园,凌晨,3.95
2024-07-02,齐鲁石化公司党委党校,118.284505,36.817216,其他,学校,凌晨,2.74
2024-07-02,齐鲁石化公司党委党校,118.284505,36.817216,其他,学校,晚上,5.18
2024-07-02,湖田考场,118.11584,36.795345,其他,文化场馆,上午,8.01
2024-07-02,陶然香火锅居(昆仑店),117.91889,36.58653,其他,餐饮,凌晨,4.49
2024-07-02,陶然香火锅居(昆仑店),117.91889,36.58653,其他,餐饮,下午,5.25
2024-07-02,汇源绿色广场,118.149404,36.200553,其他,公园,晚上,6.08
2024-07-02,东方购物广场(沂源店),118.160871,36.184001,其他,商场,晚上,6.09
2024-07-02,百家姓主题纪念公园,117.995852,36.885687,其他,公园,深夜,6.43
2024-07-02,九龙商场,118.078194,36.904107,其他,商场,凌晨,4.51
2024-07-02,中华武馆(张桓路),118.044124,36.824793,其他,体育场馆,晚上,4.37
2024-07-02,杨寨塔,117.992288,36.716165,其他,旅游景点,上午,6.57
2024-07-02,杨寨塔,117.992288,36.716165,其他,旅游景点,傍晚,6.68
2024-07-02,王村人民广场,117.733561,36.68375,其他,公园,深夜,2.52
2024-07-02,淄博职业技术大学,117.932027,36.83381,其他,学校,傍晚,6.21
2024-07-02,淄博职业技术大学,117.932027,36.83381,其他,学校,凌晨,2.6
2024-07-02,乐豆璟点台球俱乐部,118.10584,36.960057,其他,体育场馆,傍晚,6.52
2024-07-02,锅圈食汇火锅烧烤食材超市(齐都花园店),118.290581,36.827659,其他,餐饮,上午,6.02
2024-07-02,张店区中医院肛肠楼,118.052541,36.800414,其他,医院,傍晚,5.34
2024-07-02,淄博第十五中学,117.999981,36.621757,其他,学校,深夜,4.74
2024-07-02,准神台球俱乐部(银泰商城店),117.851963,36.797549,其他,体育场馆,中午,4.91
2024-07-02,圣禾馄炖,118.297034,36.820673,其他,餐饮,深夜,5.31
2024-07-02,圣禾馄炖,118.297034,36.820673,其他,餐饮,上午,6.07
2024-07-02,玉垚凉皮(山铝店),118.045764,36.753859,其他,餐饮,傍晚,4.07
2024-07-02,玉垚凉皮(山铝店),118.045764,36.753859,其他,餐饮,下午,5.02
2024-07-02,凯瑞小学,118.014388,36.810389,其他,学校,中午,5.34
2024-07-02,凯瑞小学,118.014388,36.810389,其他,学校,傍晚,6.78
2024-07-02,金地禅寺,117.914574,36.539096,其他,旅游景点,傍晚,4.31
2024-07-02,金地禅寺,117.914574,36.539096,其他,旅游景点,上午,6.49
2024-07-02,周村区第三中学,117.878606,36.796485,其他,学校,凌晨,4.53
2024-07-02,沂源县普安禅寺,118.126756,36.195465,其他,旅游景点,傍晚,6.49
2024-07-02,沂源县普安禅寺,118.126756,36.195465,其他,旅游景点,深夜,3.0
2024-07-02,蟠龙山道观,118.142951,36.874787,其他,旅游景点,傍晚,5.29
2024-07-02,山东理工大学大学生艺术广场,117.999815,36.812747,其他,公园,深夜,3.63
2024-07-02,张店区第三中学,118.05725,36.807199,其他,学校,下午,5.5
2024-07-02,唐山镇文体公园,118.049167,36.963014,其他,公园,下午,6.2
2024-07-02,禹王山林区,117.780704,36.482885,其他,旅游景点,深夜,3.54
2024-07-02,禹王山林区,117.780704,36.482885,其他,旅游景点,中午,6.0
2024-07-02,奎山公园,117.938323,36.56463,其他,公园,傍晚,5.0
2024-07-02,淄博新区水系公园,117.989777,36.820477,其他,旅游景点,下午,7.47
2024-07-02,宁家村文明实践广场,117.824974,36.733846,其他,公园,深夜,4.95
2024-07-02,亿丰商场,118.002092,36.816668,其他,商场,深夜,5.63
2024-07-02,亿丰商场,118.002092,36.816668,其他,商场,上午,8.05
2024-07-02,淄博创大医院,118.062584,36.672291,其他,医院,深夜,2.71
2024-07-02,淄博创大医院,118.062584,36.672291,其他,医院,凌晨,5.55
2024-07-02,沁园社区卫生服务站,118.045357,36.814004,其他,医院,中午,4.47
2024-07-02,临淄青年学生抗日志愿军训团纪念碑,118.343774,36.856906,其他,旅游景点,凌晨,4.78
2024-07-02,法王院,118.032929,36.713602,其他,旅游景点,下午,5.26
2024-07-02,盛世·璟点台球,118.031094,36.798846,其他,体育场馆,晚上,5.4
2024-07-02,响袋24小时自助棋牌台球(淄博潘庄店),118.059775,36.819697,其他,体育场馆,傍晚,6.5
2024-07-02,响袋24小时自助棋牌台球(淄博潘庄店),118.059775,36.819697,其他,体育场馆,深夜,5.01
2024-07-02,山东理工大学,118.000702,36.81037,其他,学校,上午,6.99
2024-07-02,山东理工大学,118.000702,36.81037,其他,学校,下午,6.63
2024-07-02,鲁青商城,117.694342,37.184669,其他,商场,深夜,4.38
2024-07-02,鲁青商城,117.694342,37.184669,其他,商场,中午,5.19
2024-07-02,荣耀广场,117.9893,36.829735,其他,公园,凌晨,3.24
2024-07-02,金百盛商场,117.854008,36.794975,其他,商场,上午,7.51
2024-07-02,金百盛商场,117.854008,36.794975,其他,商场,凌晨,4.07
2024-07-02,彩世界精品皮草广场,118.029104,36.822275,其他,商场,晚上,5.57
2024-07-02,淄博国际商贸城,117.99447,36.789472,其他,商场,中午,4.83
2024-07-02,卧虎山森林公园,117.795732,36.597132,其他,公园,下午,5.07
2024-07-02,卧虎山森林公园,117.795732,36.597132,其他,公园,凌晨,3.97
2024-07-02,南博山中村文化广场,117.964417,36.35139,其他,公园,上午,7.76
2024-07-02,老何牛肉面,118.186653,36.768356,其他,餐饮,傍晚,5.36
2024-07-02,悦动乒乓球,118.026732,36.808963,其他,体育场馆,傍晚,8.06
2024-07-02,淄川区城南卫生院,117.954695,36.623403,其他,医院,凌晨,4.73
2024-07-02,谈小娱24h自助台球(迎春街店),118.060762,36.826108,其他,体育场馆,晚上,4.69
2024-07-03,成语公园,117.985906,36.696047,其他,公园,晚上,5.53
2024-07-03,成语公园,117.985906,36.696047,其他,公园,中午,4.95
2024-07-03,大理寺过桥米线麻辣烫(银泰城店),118.034457,36.850433,其他,餐饮,下午,5.0
2024-07-03,大理寺过桥米线麻辣烫(银泰城店),118.034457,36.850433,其他,餐饮,傍晚,6.79
2024-07-03,亿客家购物广场,118.180858,36.200662,其他,商场,深夜,5.12
2024-07-03,由熙(尚美店),118.037704,36.810171,其他,餐饮,下午,5.02
2024-07-03,萌山水库公园,117.861283,36.697633,其他,公园,晚上,4.57
2024-07-03,桓台百货大楼,118.105923,36.958434,其他,商场,晚上,4.22
2024-07-03,稷山,118.334976,36.769201,其他,旅游景点,上午,5.88
2024-07-03,稷山,118.334976,36.769201,其他,旅游景点,晚上,3.3
2024-07-03,淄博和平学校,117.824973,36.791633,其他,学校,下午,6.93
2024-07-03,周家医院,117.987118,36.910093,其他,医院,中午,5.96
2024-07-03,金三角亿峰台球,118.297741,36.821013,其他,体育场馆,凌晨,3.47
2024-07-03,金三角亿峰台球,118.297741,36.821013,其他,体育场馆,下午,5.93
2024-07-03,鸿运蛤蜊鸡(尚美第三城店),118.039274,36.809909,其他,餐饮,深夜,5.61
2024-07-03,九合台球俱乐部(凤阳大厦店),118.042796,36.801969,其他,体育场馆,上午,5.7
2024-07-03,九合台球俱乐部(凤阳大厦店),118.042796,36.801969,其他,体育场馆,深夜,5.24
2024-07-03,桓台县新时代文明实践中心-健康主题公园,118.084407,36.946436,其他,公园,傍晚,6.87
2024-07-03,淄博市中心医院西院区培训部,117.97317,36.809077,其他,医院,下午,7.56
2024-07-03,淄川天主堂,118.001386,36.639336,其他,旅游景点,上午,4.42
2024-07-03,玉龙商场,118.295926,36.814766,其他,商场,傍晚,3.43
2024-07-03,816私教健身俱乐部(福园店),118.02634,36.8065,其他,体育场馆,晚上,5.22
2024-07-03,816私教健身俱乐部(福园店),118.02634,36.8065,其他,体育场馆,下午,5.02
2024-07-03,淄博矿业集团公司双山医院,117.853711,36.498469,其他,医院,凌晨,2.94
2024-07-03,淄博矿业集团公司双山医院,117.853711,36.498469,其他,医院,中午,6.18
2024-07-03,三台山旅游风景区,117.87812,36.606249,其他,旅游景点,下午,4.85
2024-07-03,茂业百货(时代店),118.296056,36.817538,其他,商场,晚上,2.68
2024-07-03,程程团购,117.77299,36.640175,其他,商场,傍晚,5.74
2024-07-03,华严胜境,117.978841,37.001051,其他,旅游景点,深夜,5.45
2024-07-03,加一桌,117.851289,36.776556,其他,餐饮,凌晨,4.05
2024-07-03,加一桌,117.851289,36.776556,其他,餐饮,上午,6.04
2024-07-03,淄博市博山区第二人民医院,118.052569,36.428533,其他,医院,凌晨,4.15
2024-07-03,文化广场,118.232387,35.998889,其他,公园,凌晨,4.7
2024-07-03,淄博终结者台球俱乐部(旗舰店),118.018569,36.82364,其他,体育场馆,晚上,6.2
2024-07-03,淄博终结者台球俱乐部(旗舰店),118.018569,36.82364,其他,体育场馆,凌晨,3.66
2024-07-03,石佛寺,117.862538,36.675462,其他,旅游景点,深夜,3.98
2024-07-03,石佛寺,117.862538,36.675462,其他,旅游景点,凌晨,5.39
2024-07-03,吾悦广场(淄博周村店),117.866457,36.823203,其他,商场,上午,8.06
2024-07-03,万海格斗,118.060994,36.807167,其他,体育场馆,凌晨,4.14
2024-07-03,山东省桓台世纪中学,118.108796,36.959324,其他,学校,傍晚,7.4
2024-07-03,山东省桓台世纪中学,118.108796,36.959324,其他,学校,凌晨,3.5
2024-07-03,沂源县第二人民医院,118.360611,36.019273,其他,医院,中午,6.03
2024-07-03,沂源县第二人民医院,118.360611,36.019273,其他,医院,深夜,5.8
2024-07-03,卓小健少儿综合运动馆,118.02709,36.807664,其他,体育场馆,下午,5.44
2024-07-03,淄博市中心医院西院区住院五部,117.973382,36.811715,其他,医院,中午,6.33
2024-07-03,高青县中心路小学,117.835773,37.157631,其他,学校,下午,5.63
2024-07-03,文昌湖省级旅游度假区,117.868352,36.692256,其他,旅游景点,晚上,2.62
2024-07-03,潘南小学,118.059069,36.815301,其他,学校,傍晚,7.24
2024-07-03,潘南小学,118.059069,36.815301,其他,学校,上午,3.91
2024-07-03,淘宝商城(鲁中国际商贸城店),117.953475,36.641625,其他,商场,上午,7.0
2024-07-03,淘宝商城(鲁中国际商贸城店),117.953475,36.641625,其他,商场,晚上,4.37
2024-07-03,李芳·普拉提·婵柔运动馆,118.030875,36.837947,其他,体育场馆,深夜,4.21
2024-07-03,高青县青城卫生院,117.689242,37.177882,其他,医院,晚上,5.56
2024-07-03,高青县青城卫生院,117.689242,37.177882,其他,医院,中午,4.32
2024-07-03,清梅居食品厂(白虎店),117.851202,36.499334,其他,餐饮,深夜,5.79
2024-07-03,清梅居食品厂(白虎店),117.851202,36.499334,其他,餐饮,中午,5.02
2024-07-03,家饭拌饭烤肉,118.04537,36.822497,其他,餐饮,凌晨,4.92
2024-07-03,颜文姜祠,117.855514,36.481729,其他,旅游景点,中午,3.96
2024-07-03,颜文姜祠,117.855514,36.481729,其他,旅游景点,下午,5.63
2024-07-03,重庆饭店(华光路店),118.058445,36.819347,其他,餐饮,上午,5.62
2024-07-03,重庆饭店(华光路店),118.058445,36.819347,其他,餐饮,凌晨,5.41
2024-07-03,淄博梓童山武术学校,118.031502,36.667658,其他,学校,深夜,3.71
2024-07-03,淄博梓童山武术学校,118.031502,36.667658,其他,学校,晚上,3.16
2024-07-03,六点水法润自然主题公园,118.174965,36.199727,其他,公园,傍晚,4.23
2024-07-03,六点水法润自然主题公园,118.174965,36.199727,其他,公园,下午,6.54
2024-07-03,凤凰山经济林生态观光区,118.136722,36.567543,其他,旅游景点,晚上,4.43
2024-07-03,自由界健身游泳俱乐部,118.32318,36.812518,其他,体育场馆,上午,6.03
2024-07-03,自由界健身游泳俱乐部,118.32318,36.812518,其他,体育场馆,晚上,3.04
2024-07-03,淄博市文化馆,117.98608,36.827249,其他,文化场馆,傍晚,7.04
2024-07-03,淄博市文化馆,117.98608,36.827249,其他,文化场馆,凌晨,5.55
2024-07-03,宝塔文化广场,117.997516,36.713892,其他,公园,晚上,3.4
2024-07-03,德扬学校,117.981468,36.911981,其他,学校,晚上,5.03
2024-07-03,德扬学校,117.981468,36.911981,其他,学校,凌晨,4.08
2024-07-03,淄川区实验小学,117.982993,36.639028,其他,学校,中午,6.87
2024-07-03,稷下学宫遗址(不对外开放),118.332365,36.853936,其他,旅游景点,深夜,4.21
2024-07-03,淄博中心广场,118.038484,36.803235,其他,公园,凌晨,5.43
2024-07-03,淄博信息工程学校,118.067903,36.805023,其他,学校,深夜,5.74
2024-07-03,华盛商厦,117.829677,37.171987,其他,商场,中午,4.68
2024-07-03,华盛商厦,117.829677,37.171987,其他,商场,晚上,6.5
2024-07-03,礼拜堂,118.121455,36.962463,其他,旅游景点,傍晚,5.22
2024-07-03,志速城市滑雪空间(淄博万象汇),118.061233,36.80143,其他,体育场馆,傍晚,6.84
2024-07-03,淄博市高新区第一中学,118.036423,36.855487,其他,学校,上午,4.77
2024-07-03,沂河源,118.150174,36.196341,其他,公园,晚上,5.29
2024-07-03,沂河源,118.150174,36.196341,其他,公园,上午,5.63
2024-07-03,山东省生建八三医院,117.711653,36.664447,其他,医院,下午,5.61
2024-07-03,山东省生建八三医院,117.711653,36.664447,其他,医院,上午,6.14
2024-07-03,淄博齐盛高级中学,117.976779,36.852334,其他,学校,下午,6.34
2024-07-03,翊炀羽毛球馆,117.933706,36.811639,其他,体育场馆,傍晚,5.4
2024-07-03,淄博一四八医院,117.852864,36.793363,其他,医院,上午,7.79
2024-07-03,淄博一四八医院,117.852864,36.793363,其他,医院,下午,5.94
2024-07-03,桓台县中医院,118.098618,36.968299,其他,医院,深夜,4.76
2024-07-03,桓台县中医院,118.098618,36.968299,其他,医院,下午,5.9
2024-07-04,淄博师专附属小学,117.981028,36.644906,其他,学校,中午,5.62
2024-07-04,金凯悦正阳路店,117.867168,36.817928,其他,餐饮,晚上,6.43
2024-07-04,金凯悦正阳路店,117.867168,36.817928,其他,餐饮,上午,4.83
2024-07-04,中国课本博物馆,118.107847,36.831431,其他,文化场馆,中午,5.83
2024-07-04,淄博新区水系公园,117.989777,36.820477,其他,旅游景点,傍晚,7.67
2024-07-04,淄博市第一医院北院区,117.877401,36.532754,其他,医院,中午,5.17
2024-07-04,淄博市第一医院北院区,117.877401,36.532754,其他,医院,傍晚,6.39
2024-07-04,木和烤肉饭-重庆一绝渝香米线,117.852712,36.799754,其他,餐饮,晚上,5.78
2024-07-04,木和烤肉饭-重庆一绝渝香米线,117.852712,36.799754,其他,餐饮,凌晨,3.48
2024-07-04,贝特城多元运动中心蹦床公园(淄博店),118.001073,36.786047,其他,体育场馆,中午,5.51
2024-07-04,贝特城多元运动中心蹦床公园(淄博店),118.001073,36.786047,其他,体育场馆,上午,5.86
2024-07-04,四季屋快餐(商业街店),117.963677,36.646516,其他,餐饮,下午,4.46
2024-07-04,四季屋快餐(商业街店),117.963677,36.646516,其他,餐饮,深夜,4.33
2024-07-04,瑷肯体育公园,118.06226,36.83922,其他,公园,晚上,5.71
2024-07-04,瑷肯体育公园,118.06226,36.83922,其他,公园,凌晨,3.72
2024-07-04,翊炀羽毛球馆,117.933706,36.811639,其他,体育场馆,上午,7.42
2024-07-04,DH健身,118.062042,36.810552,其他,体育场馆,深夜,3.39
2024-07-04,DH健身,118.062042,36.810552,其他,体育场馆,中午,7.11
2024-07-04,法兰度西餐厅(天齐东路店),118.331778,36.814367,其他,餐饮,中午,6.63
2024-07-04,张店区房镇祠堂,117.950836,36.848017,其他,旅游景点,上午,7.13
2024-07-04,利群购物中心(桓公路店),118.301688,36.81396,其他,商场,中午,5.88
2024-07-04,利群购物中心(桓公路店),118.301688,36.81396,其他,商场,晚上,4.29
2024-07-04,梓潼关,117.887834,36.71048,其他,旅游景点,中午,5.72
2024-07-04,梓潼关,117.887834,36.71048,其他,旅游景点,深夜,2.68
2024-07-04,淄博天齐渊公园,118.336561,36.795289,其他,公园,深夜,4.58
2024-07-04,百信商场,118.05071,36.803084,其他,商场,中午,3.7
2024-07-04,银泰商城,117.851987,36.798059,其他,商场,晚上,5.46
2024-07-04,银泰商城,117.851987,36.798059,其他,商场,凌晨,4.68
2024-07-04,淄博市中心医院南病房楼,118.052622,36.807439,其他,医院,下午,7.08
2024-07-04,淄博中学,118.120439,36.831177,其他,学校,中午,3.7
2024-07-04,淄博中学,118.120439,36.831177,其他,学校,凌晨,3.02
2024-07-04,淄博市黉山风景名胜旅游区,118.033871,36.659632,其他,旅游景点,深夜,4.39
2024-07-04,野香蕉团课健身,118.078014,36.816783,其他,体育场馆,深夜,4.27
2024-07-04,野香蕉团课健身,118.078014,36.816783,其他,体育场馆,晚上,5.74
2024-07-04,七夕广场,117.977751,36.789213,其他,公园,晚上,4.92
2024-07-04,富源商城,118.19445,36.189208,其他,商场,上午,4.85
2024-07-04,富源商城,118.19445,36.189208,其他,商场,凌晨,5.22
2024-07-04,君爵桌球俱乐部,117.974739,36.638948,其他,体育场馆,上午,5.77
2024-07-04,君爵桌球俱乐部,117.974739,36.638948,其他,体育场馆,傍晚,6.55
2024-07-04,金陵寺,118.200509,36.924832,其他,旅游景点,傍晚,7.58
2024-07-04,齐园,118.292227,36.807527,其他,公园,上午,5.18
2024-07-04,齐园,118.292227,36.807527,其他,公园,凌晨,5.65
2024-07-04,印象汇,118.053114,36.822911,其他,商场,中午,4.54
2024-07-04,志速城市滑雪空间(淄博万象汇),118.061233,36.80143,其他,体育场馆,深夜,5.71
2024-07-04,志速城市滑雪空间(淄博万象汇),118.061233,36.80143,其他,体育场馆,中午,6.56
2024-07-04,淄博高新华庚医院,118.06279,36.843618,其他,医院,凌晨,4.11
2024-07-04,新东方羽绒服饰广场,117.958291,36.646783,其他,商场,凌晨,2.61
2024-07-04,朱台镇新时代文明实践广场,118.260278,36.938944,其他,公园,中午,6.89
2024-07-04,朱台镇新时代文明实践广场,118.260278,36.938944,其他,公园,上午,5.19
2024-07-04,淄博恒太城(装修中),117.982957,36.823315,其他,商场,凌晨,2.06
2024-07-04,淄博恒太城(装修中),117.982957,36.823315,其他,商场,中午,6.41
2024-07-04,齐乐梦华嬉雪乐园,118.028288,36.665735,其他,体育场馆,晚上,5.37
2024-07-04,齐乐梦华嬉雪乐园,118.028288,36.665735,其他,体育场馆,深夜,4.86
2024-07-04,东里滨水运动公园,118.364645,36.014678,其他,公园,晚上,3.73
2024-07-04,高青县实验中学,117.819735,37.165726,其他,学校,上午,7.38
2024-07-04,高青县革命历史纪念馆,117.792837,37.182566,其他,旅游景点,下午,5.24
2024-07-04,旭阳灶台鱼,118.02153,36.765224,其他,餐饮,凌晨,1.75
2024-07-04,旭阳灶台鱼,118.02153,36.765224,其他,餐饮,晚上,5.96
2024-07-04,老华盛商场,117.830529,37.168815,其他,商场,上午,7.23
2024-07-04,老华盛商场,117.830529,37.168815,其他,商场,下午,4.69
2024-07-04,英才中学,118.302649,36.793456,其他,学校,下午,6.56
2024-07-04,英才中学,118.302649,36.793456,其他,学校,深夜,5.81
2024-07-04,九号台球(银座商城店),117.840632,37.164546,其他,体育场馆,中午,5.4
2024-07-04,淄博商厦,118.058471,36.802055,其他,商场,晚上,4.0
2024-07-04,欧巴春川铁板鸡(吉祥路商业街店),117.971771,36.654814,其他,餐饮,上午,5.33
2024-07-04,欧巴春川铁板鸡(吉祥路商业街店),117.971771,36.654814,其他,餐饮,中午,5.27
2024-07-04,安澜湾,117.896269,37.260744,其他,旅游景点,深夜,5.8
2024-07-04,安澜湾,117.896269,37.260744,其他,旅游景点,凌晨,4.24
2024-07-04,茂业百货(广场店),118.296332,36.819241,其他,商场,中午,3.88
2024-07-04,茂业百货(广场店),118.296332,36.819241,其他,商场,凌晨,2.24
2024-07-04,淄博市育才中学,117.969795,36.641159,其他,学校,上午,6.98
2024-07-04,淄博市育才中学,117.969795,36.641159,其他,学校,凌晨,5.14
2024-07-04,山格洞中韩料理餐厅,117.845718,36.80366,其他,餐饮,凌晨,3.96
2024-07-04,山格洞中韩料理餐厅,117.845718,36.80366,其他,餐饮,上午,5.11
2024-07-04,奕乐快餐烤肉拌饭鸡排饭(南苑绿洲社区店),118.02951,36.765167,其他,餐饮,深夜,6.14
2024-07-04,奕乐快餐烤肉拌饭鸡排饭(南苑绿洲社区店),118.02951,36.765167,其他,餐饮,凌晨,5.41
2024-07-04,山铝游泳馆,118.042806,36.754588,其他,体育场馆,深夜,6.41
2024-07-04,lv台球器材店,118.023503,36.793153,其他,体育场馆,深夜,3.42
2024-07-04,王村醋博物馆,117.719747,36.681168,其他,文化场馆,深夜,3.74
2024-07-04,青年路街道办事处社区卫生服务中心,117.84943,36.806324,其他,医院,傍晚,5.29
2024-07-04,憩园广场,117.861353,36.496955,其他,公园,晚上,3.72
2024-07-04,憩园广场,117.861353,36.496955,其他,公园,凌晨,4.32
2024-07-04,文昌湖萌宠动物园,117.86273,36.715628,其他,公园,深夜,4.18
2024-07-04,文昌湖萌宠动物园,117.86273,36.715628,其他,公园,下午,6.23
2024-07-04,王母祠,118.003392,36.707352,其他,旅游景点,中午,6.91
2024-07-04,王母祠,118.003392,36.707352,其他,旅游景点,下午,6.14
2024-07-04,老字号段家煮锅(青年路店),117.84698,36.806725,其他,餐饮,上午,5.74
2024-07-04,山东齐鲁武校,118.160609,36.698077,其他,学校,下午,4.27
2024-07-04,山东铝业职业学院,118.048078,36.75552,其他,学校,上午,5.34
2024-07-04,四世宫保,117.946244,36.950355,其他,旅游景点,深夜,5.13
2024-07-04,淄博世茂广场,117.98579,36.820734,其他,商场,凌晨,4.14
2024-07-04,小维度奶茶店,117.852553,36.800011,其他,餐饮,上午,7.05
2024-07-04,小维度奶茶店,117.852553,36.800011,其他,餐饮,中午,4.14
2024-07-04,淄博高新区第二小学,118.071541,36.876427,其他,学校,凌晨,4.52
2024-07-04,银座商城(人民店),117.860457,36.504428,其他,商场,下午,5.44
2024-07-04,银座商城(人民店),117.860457,36.504428,其他,商场,晚上,6.46
2024-07-04,淄博沂源唐山佛雕文化园,118.377407,36.004463,其他,旅游景点,下午,4.33
2024-07-04,淄博沂源唐山佛雕文化园,118.377407,36.004463,其他,旅游景点,傍晚,5.66
2024-07-04,世纪东方购物中心,118.162663,36.185787,其他,商场,下午,5.39
2024-07-04,85台球俱乐部,118.050951,36.820277,其他,体育场馆,下午,8.4
2024-07-04,85台球俱乐部,118.050951,36.820277,其他,体育场馆,凌晨,1.77
2024-07-04,步步高鸽子府,118.314622,36.806359,其他,餐饮,晚上,3.56
2024-07-04,沂源县人民医院悦庄分院,118.265979,36.206135,其他,医院,凌晨,4.01
2024-07-04,北大医疗鲁中医院,118.311811,36.817841,其他,医院,深夜,4.5
2024-07-04,北大医疗鲁中医院,118.311811,36.817841,其他,医院,中午,6.23
2024-07-04,体育中心篮球馆,117.984709,36.815222,其他,体育场馆,深夜,5.17
2024-07-04,临淄区凤凰中心卫生院,118.231515,36.882201,其他,医院,晚上,5.86
2024-07-04,莲池法治文化公园,118.03423,36.823497,其他,公园,深夜,6.4
2024-07-04,淄博市中医医院东院区,117.934679,36.802417,其他,医院,上午,7.15
2024-07-04,淄博市中医医院东院区,117.934679,36.802417,其他,医院,晚上,5.38
2024-07-04,曼巴台球俱乐部(兴桓路店),118.099896,36.953136,其他,体育场馆,傍晚,7.02
2024-07-04,沂源县人民医院新院区,118.202406,36.210612,其他,医院,凌晨,4.46
2024-07-05,高青县千乘湖生态文化园,117.846091,37.15932,其他,旅游景点,傍晚,5.75
2024-07-05,近江南御翅府,118.281748,36.810004,其他,餐饮,晚上,5.82
2024-07-05,果里医院,118.078742,36.903025,其他,医院,傍晚,6.13
2024-07-05,果里医院,118.078742,36.903025,其他,医院,晚上,3.38
2024-07-05,贵都商城,118.164154,36.186187,其他,商场,上午,5.43
2024-07-05,贵都商城,118.164154,36.186187,其他,商场,凌晨,3.41
2024-07-05,淄博市博物馆,118.038234,36.80401,其他,文化场馆,上午,5.42
2024-07-05,银泰·金街,118.034913,36.84867,其他,商场,晚上,3.39
2024-07-05,银泰·金街,118.034913,36.84867,其他,商场,下午,6.61
2024-07-05,花山坊,118.112959,36.821252,其他,旅游景点,中午,5.28
2024-07-05,花山坊,118.112959,36.821252,其他,旅游景点,深夜,5.18
2024-07-05,淄博高新华庚医院,118.06279,36.843618,其他,医院,傍晚,5.16
2024-07-05,老潍县朝天锅(华光路店),118.075226,36.817059,其他,餐饮,晚上,6.07
2024-07-05,幽幽谷,118.080758,36.323183,其他,旅游景点,中午,4.64
2024-07-05,龙泉寺,117.897724,36.524553,其他,旅游景点,傍晚,7.8
2024-07-05,桓台县陈庄中学,117.916557,37.008159,其他,学校,上午,6.79
2024-07-05,淄博市市级机关医院世纪花园门诊部,118.02004,36.834122,其他,医院,晚上,6.42
2024-07-05,淄博淄川,117.961309,36.643502,其他,商场,晚上,7.28
2024-07-05,淄博淄川,117.961309,36.643502,其他,商场,深夜,4.82
2024-07-05,人民东路小学,118.064812,36.810418,其他,学校,晚上,3.32
2024-07-05,文昌湖西马桥景点,117.85869,36.690796,其他,旅游景点,下午,6.8
2024-07-05,文昌湖西马桥景点,117.85869,36.690796,其他,旅游景点,中午,4.67
2024-07-05,淄川区昆仑中心卫生院,117.917455,36.584912,其他,医院,中午,5.66
2024-07-05,淄川区昆仑中心卫生院,117.917455,36.584912,其他,医院,傍晚,3.72
2024-07-05,泽升游泳馆,117.96147,36.670221,其他,体育场馆,晚上,5.73
2024-07-05,泽升游泳馆,117.96147,36.670221,其他,体育场馆,中午,5.53
2024-07-05,鑫群购物中心超市,118.196422,36.800932,其他,商场,傍晚,6.46
2024-07-05,老何牛肉面,118.186653,36.768356,其他,餐饮,深夜,4.56
2024-07-05,银泰城,118.034922,36.848671,其他,商场,晚上,3.62
2024-07-05,银泰城,118.034922,36.848671,其他,商场,深夜,5.93
2024-07-05,茶百道(义乌店),118.022182,36.82295,其他,餐饮,傍晚,5.92
2024-07-05,博山经济开发区卫生院,117.846082,36.522515,其他,医院,下午,7.16
2024-07-05,山东煤炭技术学院,117.985255,36.635242,其他,学校,中午,3.74
2024-07-05,山东煤炭技术学院,117.985255,36.635242,其他,学校,下午,5.13
2024-07-05,黑铁山抗日武装起义纪念馆,118.159912,36.843977,其他,旅游景点,中午,5.86
2024-07-05,速形特氧舱运动中心,118.048107,36.803525,其他,体育场馆,中午,5.17
2024-07-05,张店区第九中学,118.022021,36.815689,其他,学校,上午,5.82
2024-07-05,喜乐佳,118.100012,36.958738,其他,商场,凌晨,5.28
2024-07-05,东良进口商品(桓台店),118.093213,36.952988,其他,商场,傍晚,4.82
2024-07-05,东良进口商品(桓台店),118.093213,36.952988,其他,商场,晚上,6.97
2024-07-05,马尚中心卫生院,117.995696,36.81971,其他,医院,下午,5.6
2024-07-05,马尚中心卫生院,117.995696,36.81971,其他,医院,上午,6.72
2024-07-05,淄川天主堂,118.001386,36.639336,其他,旅游景点,深夜,5.73
2024-07-05,革命烈士纪念碑,118.20324,36.877451,其他,旅游景点,晚上,6.13
2024-07-05,革命烈士纪念碑,118.20324,36.877451,其他,旅游景点,中午,5.13
2024-07-05,桓台博物馆,118.096944,36.959551,其他,文化场馆,凌晨,3.71
2024-07-05,淄博国际商贸城B馆,117.995315,36.787933,其他,商场,下午,8.22
2024-07-05,淄博国际商贸城B馆,117.995315,36.787933,其他,商场,中午,6.44
2024-07-05,凤凰山经济林生态观光区,118.136722,36.567543,其他,旅游景点,深夜,6.06
2024-07-05,凤凰山经济林生态观光区,118.136722,36.567543,其他,旅游景点,傍晚,7.28
2024-07-05,临淄人民广场,118.308885,36.824891,其他,公园,上午,6.59
2024-07-05,淄博职业技术大学,117.932027,36.83381,其他,学校,凌晨,2.64
2024-07-05,金沙健身(易达店),117.837132,36.497611,其他,体育场馆,下午,8.04
2024-07-05,华藏寺,117.950788,36.556576,其他,旅游景点,下午,7.27
2024-07-05,华藏寺,117.950788,36.556576,其他,旅游景点,傍晚,5.49
2024-07-05,淄博文姜大酒店,117.857909,36.48168,其他,餐饮,傍晚,4.97
2024-07-05,正觉寺,117.898886,36.526624,其他,旅游景点,下午,7.64
2024-07-05,正觉寺,117.898886,36.526624,其他,旅游景点,中午,6.36
2024-07-05,北关小学,117.968487,36.650962,其他,学校,傍晚,7.51
2024-07-05,渭一窑址,117.961306,36.558392,其他,旅游景点,下午,4.5
2024-07-05,张店区人民医院(南院区),118.059541,36.791552,其他,医院,深夜,5.32
2024-07-05,张店区人民医院(南院区),118.059541,36.791552,其他,医院,晚上,4.84
2024-07-05,桓台县渔洋中学,118.103492,36.947909,其他,学校,凌晨,5.1
2024-07-05,桓台县渔洋中学,118.103492,36.947909,其他,学校,上午,5.61
2024-07-05,时代名都社区卫生服务站预防接种门诊,118.043376,36.839099,其他,医院,晚上,5.27
2024-07-05,淄博市技师学院经开校区,118.051685,36.770831,其他,学校,深夜,6.6
2024-07-05,涝淄河公园,118.071893,36.87101,其他,公园,上午,4.91
2024-07-05,涝淄河公园,118.071893,36.87101,其他,公园,深夜,4.74
2024-07-05,博山区山头街道卫生院,117.862367,36.476361,其他,医院,凌晨,4.62
2024-07-05,博山区山头街道卫生院,117.862367,36.476361,其他,医院,中午,5.24
2024-07-05,金银山公园,118.053645,36.424029,其他,公园,凌晨,3.72
2024-07-05,金银山公园,118.053645,36.424029,其他,公园,上午,3.93
2024-07-05,桉树披萨(福门商城店),117.859109,36.496209,其他,餐饮,上午,6.94
2024-07-05,桉树披萨(福门商城店),117.859109,36.496209,其他,餐饮,晚上,5.62
2024-07-05,焦裕禄纪念馆,117.992174,36.437097,其他,旅游景点,傍晚,5.67
2024-07-05,金色之韵量贩KTV(龙御大厦店),118.024504,36.821458,其他,餐饮,傍晚,6.76
2024-07-05,金色之韵量贩KTV(龙御大厦店),118.024504,36.821458,其他,餐饮,晚上,7.21
2024-07-05,礼拜堂,118.121455,36.962463,其他,旅游景点,深夜,5.96
2024-07-05,周村火车站广场,117.860867,36.792197,其他,公园,上午,6.76
2024-07-05,双龙池食品店,117.876685,36.506296,其他,餐饮,深夜,6.38
2024-07-05,双龙池食品店,117.876685,36.506296,其他,餐饮,上午,8.07
2024-07-05,万海格斗,118.060994,36.807167,其他,体育场馆,上午,6.51
2024-07-05,磁村中学,117.83889,36.62076,其他,学校,中午,4.45
2024-07-05,磁村中学,117.83889,36.62076,其他,学校,深夜,6.49
2024-07-05,西部炭火(周村店),117.849038,36.81031,其他,餐饮,上午,5.21
2024-07-05,食香阁(广青路店),117.694597,37.179924,其他,餐饮,上午,7.57
2024-07-05,食香阁(广青路店),117.694597,37.179924,其他,餐饮,中午,7.75
2024-07-05,正宗苗山炒鸡,117.834617,36.514924,其他,餐饮,傍晚,7.15
2024-07-05,正宗苗山炒鸡,117.834617,36.514924,其他,餐饮,下午,4.74
2024-07-05,俏神州大酒店,117.875879,36.507295,其他,餐饮,深夜,5.76
2024-07-05,钟楼,117.960268,36.668146,其他,旅游景点,上午,6.98
2024-07-05,夏庄小区广场,118.054937,36.766191,其他,公园,晚上,4.74
2024-07-05,夏庄小区广场,118.054937,36.766191,其他,公园,上午,4.69
2024-07-05,吉祥广场,117.973527,36.655065,其他,公园,下午,7.02
2024-07-05,吉祥广场,117.973527,36.655065,其他,公园,晚上,5.37
2024-07-05,淄博一四八医院门诊部,117.8529,36.793864,其他,医院,下午,5.93
2024-07-05,优购商城,118.330515,36.805331,其他,商场,深夜,3.21
2024-07-05,汇达台球俱乐部,118.006687,36.816106,其他,体育场馆,深夜,4.36
2024-07-05,临淄区齐都中心卫生院,118.350312,36.854112,其他,医院,傍晚,5.57
2024-07-05,八大局博物馆,118.063569,36.809082,其他,文化场馆,晚上,6.51
2024-07-05,汇源绿色广场,118.149404,36.200553,其他,公园,凌晨,5.06
2024-07-05,五阳山景区,117.911597,36.428971,其他,旅游景点,傍晚,7.35
2024-07-06,金沙健身(易达店),117.837132,36.497611,其他,体育场馆,深夜,5.23
2024-07-06,东泰广场(茂业百货店),118.296674,36.81926,其他,商场,深夜,6.54
2024-07-06,淄博高新区石桥中心医院,118.045962,36.886421,其他,医院,晚上,6.28
2024-07-06,淄博高新区石桥中心医院,118.045962,36.886421,其他,医院,傍晚,5.37
2024-07-06,临淄区雪宫中学,118.302392,36.815593,其他,学校,傍晚,7.62
2024-07-06,印月茶舍(桓公花园一区店),118.285316,36.814362,其他,餐饮,上午,5.22
2024-07-06,金属狗26小时共享健身,118.035745,36.831279,其他,体育场馆,深夜,4.24
2024-07-06,桓台夏庄昭亮医院,118.119908,37.061022,其他,医院,深夜,5.18
2024-07-06,淄博市高新区植物园,118.02744,36.859301,其他,公园,凌晨,3.82
2024-07-06,淄博市高新区植物园,118.02744,36.859301,其他,公园,中午,7.24
2024-07-06,圣洋游泳(淄博恒大翡翠华庭店),118.039832,36.848593,其他,体育场馆,晚上,3.37
2024-07-06,圣洋游泳(淄博恒大翡翠华庭店),118.039832,36.848593,其他,体育场馆,凌晨,3.98
2024-07-06,张店市民公园,118.021792,36.804554,其他,公园,傍晚,8.37
2024-07-06,银座商城超市(柳泉路店),118.050484,36.805618,其他,商场,中午,7.72
2024-07-06,银座商城超市(柳泉路店),118.050484,36.805618,其他,商场,傍晚,5.02
2024-07-06,山东理工大学东校区,118.039887,36.811417,其他,学校,傍晚,6.62
2024-07-06,山东理工大学东校区,118.039887,36.811417,其他,学校,下午,7.19
2024-07-06,临淄区淄江中学,118.345542,36.812707,其他,学校,凌晨,4.76
2024-07-06,临淄区淄江中学,118.345542,36.812707,其他,学校,傍晚,4.43
2024-07-06,临淄区人民医院门诊部,118.306519,36.813212,其他,医院,晚上,3.96
2024-07-06,富丽商城,118.056526,36.805114,其他,商场,深夜,5.67
2024-07-06,富丽商城,118.056526,36.805114,其他,商场,上午,7.92
2024-07-06,张氏蛤蜊鸡(总店),117.863549,36.805103,其他,餐饮,上午,6.7
2024-07-06,进无止境台球俱乐部,117.99665,36.7996,其他,体育场馆,深夜,5.4
2024-07-06,进无止境台球俱乐部,117.99665,36.7996,其他,体育场馆,中午,6.45
2024-07-06,张店区科苑街道黄金国际社区卫生服务站,118.029946,36.82267,其他,医院,下午,6.97
2024-07-06,露露韩国风味餐厅,117.858807,36.80243,其他,餐饮,上午,6.88
2024-07-06,露露韩国风味餐厅,117.858807,36.80243,其他,餐饮,深夜,5.11
2024-07-06,桓台县新时代文明实践中心-健康主题公园,118.084407,36.946436,其他,公园,深夜,4.54
2024-07-06,倔老头牛肉糁(银泰城店),118.033738,36.850051,其他,餐饮,中午,6.59
2024-07-06,美瑞口腔,118.05072,36.808419,其他,公园,下午,7.55
2024-07-06,杏园社区卫生服务中心,118.080025,36.785047,其他,医院,上午,7.92
2024-07-06,杏园社区卫生服务中心,118.080025,36.785047,其他,医院,中午,6.19
2024-07-06,铁冶村文化广场,118.187361,36.841286,其他,公园,中午,4.75
2024-07-06,铁冶村文化广场,118.187361,36.841286,其他,公园,晚上,5.87
2024-07-06,壹玖健身会,117.979273,36.845252,其他,体育场馆,中午,7.15
2024-07-06,壹玖健身会,117.979273,36.845252,其他,体育场馆,下午,6.62
2024-07-06,红军师师史馆,118.040402,36.814645,其他,旅游景点,下午,6.83
2024-07-06,壹加壹台球网咖(商业步行街店),118.041919,36.807328,其他,体育场馆,深夜,4.75
2024-07-06,极光健身工作室(中欧国际馆),117.993377,36.820954,其他,体育场馆,傍晚,8.2
2024-07-06,河南村党建文化广场,117.9315,36.500416,其他,公园,傍晚,4.84
2024-07-06,河南村党建文化广场,117.9315,36.500416,其他,公园,深夜,3.6
2024-07-06,白云湖湿地公园,117.831422,36.782527,其他,公园,上午,5.12
2024-07-06,白云湖湿地公园,117.831422,36.782527,其他,公园,傍晚,6.63
2024-07-06,淄博市农业科学研究院(商场西街),118.030106,36.804568,其他,文化场馆,上午,6.62
2024-07-06,淄博市农业科学研究院(商场西街),118.030106,36.804568,其他,文化场馆,傍晚,6.35
2024-07-06,乐豆璟点台球俱乐部,118.10584,36.960057,其他,体育场馆,深夜,4.74
2024-07-06,乐豆璟点台球俱乐部,118.10584,36.960057,其他,体育场馆,凌晨,4.25
2024-07-06,淄博聊斋城景区,118.016053,36.62869,其他,旅游景点,晚上,6.84
2024-07-06,幸运咖(周村店),117.852673,36.80738,其他,餐饮,凌晨,5.58
2024-07-06,幸运咖(周村店),117.852673,36.80738,其他,餐饮,中午,5.12
2024-07-06,金三角亿峰台球,118.297741,36.821013,其他,体育场馆,凌晨,3.22
2024-07-06,栖真观,118.013277,36.138917,其他,旅游景点,晚上,4.18
2024-07-06,淄川体育公园,117.975396,36.63122,其他,公园,凌晨,5.18
2024-07-06,淄川体育公园,117.975396,36.63122,其他,公园,上午,5.47
2024-07-06,启点健身(九宏大厦店),118.036119,36.838087,其他,体育场馆,下午,5.6
2024-07-06,友谊商场,118.168712,36.183769,其他,商场,傍晚,8.52
2024-07-06,友谊商场,118.168712,36.183769,其他,商场,中午,6.29
2024-07-06,淄博丽人医院,118.047595,36.820418,其他,医院,凌晨,4.06
2024-07-06,淄博丽人医院,118.047595,36.820418,其他,医院,深夜,6.31
2024-07-06,干锅鸭头老博山菜(白虎山路商业街店),117.86028,36.513678,其他,餐饮,下午,8.43
2024-07-06,干锅鸭头老博山菜(白虎山路商业街店),117.86028,36.513678,其他,餐饮,凌晨,3.28
2024-07-06,兄弟台球(吉祥路店),117.971646,36.654461,其他,体育场馆,晚上,6.25
2024-07-06,淄博市妇幼保健院东院区,118.060376,36.790092,其他,医院,中午,5.24
2024-07-06,淄博市妇幼保健院东院区,118.060376,36.790092,其他,医院,深夜,3.51
2024-07-06,银座购物广场(五里桥店),118.032224,36.813519,其他,商场,中午,5.46
2024-07-06,银座购物广场(五里桥店),118.032224,36.813519,其他,商场,上午,7.71
2024-07-06,桓台县渔洋中学,118.103492,36.947909,其他,学校,深夜,5.64
2024-07-06,祥瑞园小学,118.010582,36.824284,其他,学校,中午,5.7
2024-07-06,祥瑞园小学,118.010582,36.824284,其他,学校,下午,6.28
2024-07-06,博山羽毛球运动中心,117.832353,36.514638,其他,体育场馆,中午,6.92
2024-07-06,起凤中心卫生院,118.117231,37.056594,其他,医院,傍晚,8.43
2024-07-06,起凤中心卫生院,118.117231,37.056594,其他,医院,上午,5.0
2024-07-06,高青县实验中学,117.819735,37.165726,其他,学校,晚上,3.69
2024-07-06,高青县实验中学,117.819735,37.165726,其他,学校,上午,4.02
2024-07-06,周村季掌门牛骨馆(信誉楼百货店),117.851567,36.807758,其他,餐饮,凌晨,3.67
2024-07-06,天仙玉女碧霞元君万法宗坛,117.690201,37.184389,其他,旅游景点,凌晨,5.55
2024-07-06,0533乔氏台球会所,118.052345,36.805821,其他,体育场馆,上午,7.31
2024-07-06,0533乔氏台球会所,118.052345,36.805821,其他,体育场馆,晚上,7.5
2024-07-06,智德羽毛球馆,117.998564,36.792108,其他,体育场馆,中午,7.57
2024-07-06,利群集团淄博购物广场,118.060455,36.800429,其他,商场,下午,6.18
2024-07-06,云明山风景区,118.175224,36.446787,其他,旅游景点,凌晨,5.57
2024-07-06,齐乐梦华嬉雪乐园,118.028288,36.665735,其他,体育场馆,下午,5.06
2024-07-06,齐乐梦华嬉雪乐园,118.028288,36.665735,其他,体育场馆,傍晚,6.06
2024-07-06,新印马酒店,118.316041,36.82053,其他,餐饮,傍晚,6.3
2024-07-06,太公小学,118.335491,36.816887,其他,学校,傍晚,6.67
2024-07-06,淄博张店馨膳坊饭店,118.028635,36.80315,其他,餐饮,傍晚,4.57
2024-07-06,沂源县普安禅寺,118.126756,36.195465,其他,旅游景点,晚上,5.89
2024-07-06,加能健身,118.038489,36.84893,其他,体育场馆,下午,5.68
2024-07-06,加能健身,118.038489,36.84893,其他,体育场馆,深夜,5.26
2024-07-06,淄博长城医院,118.030906,36.797646,其他,医院,傍晚,6.32
2024-07-06,淄博长城医院,118.030906,36.797646,其他,医院,上午,6.12
2024-07-07,桓台实验学校,118.082203,36.967572,其他,学校,凌晨,4.84
2024-07-07,桓台实验学校,118.082203,36.967572,其他,学校,上午,6.43
2024-07-07,鲁山国家森林公园,118.048565,36.309523,其他,旅游景点,傍晚,6.92
2024-07-07,鲁山国家森林公园,118.048565,36.309523,其他,旅游景点,中午,6.56
2024-07-07,傅家镇黄家小学,118.006121,36.736265,其他,学校,下午,6.69
2024-07-07,黄河公园,117.896406,37.260764,其他,公园,中午,3.9
2024-07-07,博山羽毛球运动中心,117.832353,36.514638,其他,体育场馆,下午,6.01
2024-07-07,齐故城排水道口,118.343869,36.890737,其他,旅游景点,下午,6.42
2024-07-07,西边有个院,117.982107,36.830791,其他,旅游景点,深夜,6.62
2024-07-07,西边有个院,117.982107,36.830791,其他,旅游景点,上午,6.59
2024-07-07,银座商城(淄博店),118.050481,36.805504,其他,商场,深夜,7.38
2024-07-07,银座商城(淄博店),118.050481,36.805504,其他,商场,下午,5.66
2024-07-07,齐长城遗址--风门道关,117.76158,36.517788,其他,旅游景点,晚上,6.14
2024-07-07,齐长城遗址--风门道关,117.76158,36.517788,其他,旅游景点,深夜,3.8
2024-07-07,河南村党建文化广场,117.9315,36.500416,其他,公园,下午,6.64
2024-07-07,河南村党建文化广场,117.9315,36.500416,其他,公园,中午,6.77
2024-07-07,凤凰山广场,117.832022,36.741644,其他,公园,深夜,4.23
2024-07-07,凤凰山广场,117.832022,36.741644,其他,公园,上午,4.69
2024-07-07,和平大酒店(和平路店),117.820731,36.795699,其他,餐饮,凌晨,4.8
2024-07-07,和平大酒店(和平路店),117.820731,36.795699,其他,餐饮,晚上,4.02
2024-07-07,杨寨中学,117.992787,36.712631,其他,学校,凌晨,4.1
2024-07-07,农家木火炖,118.072517,36.85467,其他,餐饮,凌晨,5.56
2024-07-07,中共沂源县委旧址,118.258301,36.196757,其他,旅游景点,晚上,4.76
2024-07-07,张店区兴学街小学,118.054491,36.794399,其他,学校,凌晨,4.79
2024-07-07,基督教堂,118.314038,36.844829,其他,旅游景点,下午,7.39
2024-07-07,基督教堂,118.314038,36.844829,其他,旅游景点,傍晚,7.59
2024-07-07,和平小区小学,118.039303,36.799736,其他,学校,晚上,5.66
2024-07-07,和平小区小学,118.039303,36.799736,其他,学校,中午,6.03
2024-07-07,TOP-1私教健身(东岳店),118.076828,36.948274,其他,体育场馆,凌晨,3.19
2024-07-07,TOP-1私教健身(东岳店),118.076828,36.948274,其他,体育场馆,傍晚,5.72
2024-07-07,张店区南定镇卫生院,118.04596,36.745646,其他,医院,傍晚,7.27
2024-07-07,张店区南定镇卫生院,118.04596,36.745646,其他,医院,深夜,4.59
2024-07-07,希尔顿国际广场(建设中),117.869006,36.821829,其他,公园,上午,6.47
2024-07-07,淄博市体育运动学校,117.919092,36.80832,其他,文化场馆,下午,4.1
2024-07-07,老字号段家煮锅(青年路店),117.84698,36.806725,其他,餐饮,上午,5.15
2024-07-07,高新区四宝山卫生院,118.099801,36.821775,其他,医院,下午,8.13
2024-07-07,聚合购物,118.102169,36.819988,其他,商场,上午,7.11
2024-07-07,聚合购物,118.102169,36.819988,其他,商场,深夜,6.28
2024-07-07,六禾烧烤(尹家湾),117.844345,36.804193,其他,餐饮,傍晚,7.06
2024-07-07,六禾烧烤(尹家湾),117.844345,36.804193,其他,餐饮,中午,6.06
2024-07-07,九顶山公园,118.149906,36.825267,其他,公园,傍晚,5.95
2024-07-07,九顶山公园,118.149906,36.825267,其他,公园,深夜,3.46
2024-07-07,淄博商厦,118.058471,36.802055,其他,商场,下午,8.07
2024-07-07,高青双语学校,117.860078,37.158281,其他,学校,傍晚,6.7
2024-07-07,高青双语学校,117.860078,37.158281,其他,学校,晚上,3.74
2024-07-07,唐家村文化广场,118.013876,36.745709,其他,公园,晚上,5.85
2024-07-07,唐家村文化广场,118.013876,36.745709,其他,公园,中午,4.84
2024-07-07,上海商厦,117.956126,36.642076,其他,商场,晚上,6.84
2024-07-07,上海商厦,117.956126,36.642076,其他,商场,下午,6.53
2024-07-07,三官庙,118.192014,36.453194,其他,旅游景点,傍晚,8.04
2024-07-07,淄博职业技术大学北校区,117.932961,36.836518,其他,学校,晚上,4.9
2024-07-07,淄博职业技术大学北校区,117.932961,36.836518,其他,学校,深夜,5.01
2024-07-07,海棠园,117.994754,36.839891,其他,旅游景点,晚上,7.26
2024-07-07,海棠园,117.994754,36.839891,其他,旅游景点,傍晚,5.48
2024-07-07,齐文化博物馆,118.364788,36.813558,其他,文化场馆,下午,7.4
2024-07-07,圣元商厦,117.908667,37.038908,其他,商场,中午,5.45
2024-07-07,权记洋行,118.061074,36.80042,其他,旅游景点,凌晨,6.61
2024-07-07,王超·台球俱乐部(奥德隆家居店),118.307274,36.807644,其他,体育场馆,晚上,6.37
2024-07-07,傅山公园,118.143232,36.875205,其他,公园,中午,6.91
2024-07-07,张店区第二人民医院24小时急救,118.026441,36.803357,其他,医院,下午,5.35
2024-07-07,张店区第二人民医院24小时急救,118.026441,36.803357,其他,医院,凌晨,4.29
2024-07-07,淄博市张店区第十二中学,118.114856,36.790903,其他,学校,深夜,5.11
2024-07-07,淄博市张店区第十二中学,118.114856,36.790903,其他,学校,中午,6.14
2024-07-07,淄博市第七人民医院,118.053946,36.826246,其他,医院,中午,5.6
2024-07-07,瑷肯体育公园,118.06226,36.83922,其他,公园,凌晨,4.44
2024-07-07,北苑小学,118.018256,36.844471,其他,学校,中午,5.72
2024-07-07,北苑小学,118.018256,36.844471,其他,学校,傍晚,6.67
2024-07-07,淄博少海医院,118.090097,36.958442,其他,医院,傍晚,7.51
2024-07-07,圣佛山圣佛寺,118.215772,36.651906,其他,旅游景点,下午,7.54
2024-07-07,圣佛山圣佛寺,118.215772,36.651906,其他,旅游景点,上午,8.17
2024-07-07,张店城中小学,118.052446,36.801953,其他,学校,中午,6.31
2024-07-07,张店城中小学,118.052446,36.801953,其他,学校,深夜,5.31
2024-07-07,齐盛湖公园,117.989284,36.841662,其他,公园,深夜,5.56
2024-07-07,齐盛湖公园,117.989284,36.841662,其他,公园,中午,5.01
2024-07-07,影私空间(淄博王府井广场店),118.051466,36.8059,其他,餐饮,晚上,4.52
2024-07-07,影私空间(淄博王府井广场店),118.051466,36.8059,其他,餐饮,上午,5.36
2024-07-07,淄博沂源唐山佛雕文化园,118.377407,36.004463,其他,旅游景点,深夜,4.55
2024-07-07,淄博市市级机关医院(人民西路),118.047769,36.814238,其他,医院,中午,7.03
2024-07-07,淄博市市级机关医院(人民西路),118.047769,36.814238,其他,医院,下午,6.22
2024-07-07,大马头崮,118.170564,36.228669,其他,旅游景点,深夜,5.38
2024-07-07,大马头崮,118.170564,36.228669,其他,旅游景点,下午,6.71
2024-07-07,新疆伊犁河餐厅清真,118.099088,36.973599,其他,餐饮,深夜,2.65
2024-07-07,雪宫台,118.396235,36.896256,其他,旅游景点,深夜,6.2
2024-07-07,淄博高新区实验小学,118.060463,36.831419,其他,学校,凌晨,4.42
2024-07-07,张店区铁路小学,118.039572,36.790786,其他,学校,深夜,6.84
2024-07-07,张店区铁路小学,118.039572,36.790786,其他,学校,下午,8.28
2024-07-07,淄博王府井广场,118.051895,36.805278,其他,商场,凌晨,4.97
2024-07-07,淄博王府井广场,118.051895,36.805278,其他,商场,晚上,7.02
2024-07-07,银座购物广场(五里桥店),118.032224,36.813519,其他,商场,晚上,4.83
2024-07-07,桓台县新时代文明实践中心-健康主题公园,118.084407,36.946436,其他,公园,傍晚,6.12
2024-07-07,明医堂,118.037682,36.797434,其他,医院,下午,6.31
2024-07-07,明医堂,118.037682,36.797434,其他,医院,中午,6.35
2024-07-07,花山坊,118.112959,36.821252,其他,旅游景点,凌晨,5.36
2024-07-07,淄博市周村夏源商贸有限公司,117.85205,36.798008,其他,商场,凌晨,3.74
2024-07-07,淄博市周村夏源商贸有限公司,117.85205,36.798008,其他,商场,上午,6.76
2024-07-07,梓潼关,117.887834,36.71048,其他,旅游景点,下午,7.3
2024-07-07,金周商城,117.854245,36.797938,其他,商场,凌晨,5.4
2024-07-07,金周商城,117.854245,36.797938,其他,商场,上午,5.28
2024-07-07,淄博饭店,118.060022,36.805832,其他,餐饮,上午,6.01
2024-07-07,盛世·璟点台球,118.031094,36.798846,其他,体育场馆,下午,4.79
2024-07-07,海岱楼钟书阁,117.98889,36.841714,其他,旅游景点,下午,5.28
2024-07-07,海岱楼钟书阁,117.98889,36.841714,其他,旅游景点,上午,5.53
2024-07-07,张店区重庆路小学,118.006566,36.842239,其他,学校,凌晨,3.1
2024-07-07,桓台一中附属学校,118.069779,36.959617,其他,学校,下午,4.9
2024-07-07,胶东肥蛤王小海鲜,117.871111,36.815465,其他,餐饮,晚上,6.38
2024-07-07,海鸥ZONE健身工作室,117.866042,36.822629,其他,体育场馆,中午,7.19
2024-07-07,海鸥ZONE健身工作室,117.866042,36.822629,其他,体育场馆,上午,6.4
2024-07-07,毕自严故居,117.738277,36.677793,其他,旅游景点,上午,7.48
2024-07-07,银泰·金街/时代广场,118.035034,36.849708,其他,商场,深夜,4.74
2024-07-08,淄博青云寺,117.773415,36.617152,其他,旅游景点,上午,7.21
2024-07-08,淄博青云寺,117.773415,36.617152,其他,旅游景点,晚上,5.09
2024-07-08,信誉楼百货(周村店),117.851852,36.807588,其他,商场,深夜,6.69
2024-07-08,智德羽毛球馆,117.998564,36.792108,其他,体育场馆,深夜,5.73
2024-07-08,银座新天地(银座购物广场),117.961975,36.650175,其他,商场,中午,6.19
2024-07-08,张店儿童公园,118.071556,36.801765,其他,公园,下午,5.72
2024-07-08,二郎庙,118.054265,36.426773,其他,旅游景点,中午,4.19
2024-07-08,淄博丽人医院,118.047595,36.820418,其他,医院,傍晚,4.85
2024-07-08,福门商城(特色街区·西冶街店),117.858483,36.495995,其他,商场,中午,7.25
2024-07-08,张店区中医院肛肠楼,118.052541,36.800414,其他,医院,深夜,4.3
2024-07-08,淄博市周村区实验中学,117.844915,36.787422,其他,学校,深夜,4.37
2024-07-08,八宝灵山寺,118.125937,36.352686,其他,旅游景点,傍晚,6.57
2024-07-08,悦味坊酒店,118.0079,36.832232,其他,餐饮,中午,5.4
2024-07-08,君爵桌球俱乐部,117.974739,36.638948,其他,体育场馆,凌晨,3.31
2024-07-08,老鸭汤,118.022446,36.76349,其他,餐饮,上午,7.22
2024-07-08,重庆石锅鱼,118.001048,36.803795,其他,餐饮,深夜,5.24
2024-07-08,重庆石锅鱼,118.001048,36.803795,其他,餐饮,凌晨,4.81
2024-07-08,大海商场(欢乐城精品购物广场店),118.023098,36.824572,其他,商场,下午,7.23
2024-07-08,沂源县第二人民医院,118.360611,36.019273,其他,医院,凌晨,3.97
2024-07-08,牛魔王烧烤海鲜城(商城小区店),118.095031,36.949874,其他,餐饮,中午,6.56
2024-07-08,牛魔王烧烤海鲜城(商城小区店),118.095031,36.949874,其他,餐饮,下午,7.87
2024-07-08,凤凰广场,118.010316,36.699943,其他,公园,傍晚,7.12
2024-07-08,江南濠景生态美食园,118.009609,36.805242,其他,餐饮,深夜,3.23
2024-07-08,江南濠景生态美食园,118.009609,36.805242,其他,餐饮,上午,5.22
2024-07-08,锤子女子健身,117.991131,36.847568,其他,体育场馆,下午,7.41
2024-07-08,后厨金字塔(美达华庭店),118.018377,36.825519,其他,餐饮,傍晚,5.11
2024-07-08,山东省淄博第六中学(总校区),117.826289,36.799133,其他,学校,下午,8.08
2024-07-08,中铝党校,118.047129,36.756803,其他,学校,傍晚,7.05
2024-07-08,金桥商厦(中和街),117.852231,36.797431,其他,商场,上午,5.6
2024-07-08,金桥商厦(中和街),117.852231,36.797431,其他,商场,下午,4.93
2024-07-08,鼎冠鑫星台球俱乐部,118.04784,36.806456,其他,体育场馆,上午,4.61
2024-07-08,淄博会展中心,117.988167,36.833619,其他,文化场馆,深夜,5.13
2024-07-08,淄博会展中心,117.988167,36.833619,其他,文化场馆,傍晚,4.58
2024-07-08,梓潼关,117.887834,36.71048,其他,旅游景点,上午,6.93
2024-07-08,周村区第三中学,117.878606,36.796485,其他,学校,深夜,3.91
2024-07-08,沂源四中,118.249974,36.217228,其他,学校,晚上,4.83
2024-07-08,张相湖湿地公园,117.970065,36.670286,其他,公园,上午,7.95
2024-07-08,张相湖湿地公园,117.970065,36.670286,其他,公园,深夜,3.94
2024-07-08,淄博市科技馆,117.986156,36.828007,其他,文化场馆,上午,6.2
2024-07-08,篮球场,117.983237,36.787736,其他,体育场馆,凌晨,3.1
2024-07-08,淄博市第一医院北院区,117.877401,36.532754,其他,医院,中午,7.09
2024-07-08,淄博高新区石桥中心医院,118.045962,36.886421,其他,医院,深夜,3.29
2024-07-08,钱记小院,117.854785,36.48077,其他,餐饮,晚上,3.89
2024-07-08,钱记小院,117.854785,36.48077,其他,餐饮,凌晨,5.37
2024-07-08,联通路169号红星欧丽洛雅商场,118.010594,36.829104,其他,商场,上午,5.01
2024-07-08,联通路169号红星欧丽洛雅商场,118.010594,36.829104,其他,商场,下午,5.45
2024-07-08,铁冶炉神姑庙,118.183331,36.841161,其他,旅游景点,中午,4.71
2024-07-08,铁冶炉神姑庙,118.183331,36.841161,其他,旅游景点,傍晚,7.03
2024-07-08,碧霞元君行宫,117.969073,36.608908,其他,旅游景点,晚上,4.8
2024-07-08,淄博星空台球(水晶街店),118.003627,36.816338,其他,体育场馆,晚上,5.68
2024-07-08,淄博星空台球(水晶街店),118.003627,36.816338,其他,体育场馆,凌晨,3.29
2024-07-08,人民东路小学,118.064812,36.810418,其他,学校,下午,5.09
2024-07-08,人民东路小学,118.064812,36.810418,其他,学校,深夜,3.77
2024-07-08,淄川区商城路小学,117.956978,36.649593,其他,学校,上午,6.32
2024-07-08,淄川区商城路小学,117.956978,36.649593,其他,学校,中午,4.42
2024-07-08,临淄一中,118.313495,36.812152,其他,学校,上午,7.87
2024-07-08,周家医院,117.987118,36.910093,其他,医院,中午,5.79
2024-07-08,周家医院,117.987118,36.910093,其他,医院,深夜,3.14
2024-07-08,易达广场,117.837451,36.497742,其他,商场,凌晨,5.09
2024-07-08,傅家镇黄家小学,118.006121,36.736265,其他,学校,下午,6.38
2024-07-08,傅家镇黄家小学,118.006121,36.736265,其他,学校,晚上,4.33
2024-07-08,瓦萨里现烤披萨(新建中路店),117.852565,36.800467,其他,餐饮,深夜,4.23
2024-07-08,瓦萨里现烤披萨(新建中路店),117.852565,36.800467,其他,餐饮,下午,7.89
2024-07-08,潘南印巷,118.080566,36.80708,其他,餐饮,凌晨,4.2
2024-07-08,淄博万象汇,118.061399,36.802119,其他,商场,傍晚,4.24
2024-07-08,淄博高新区第五小学,118.10309,36.837509,其他,学校,中午,4.16
2024-07-08,十六台球器材,118.284746,36.814537,其他,体育场馆,晚上,6.51
2024-07-08,十六台球器材,118.284746,36.814537,其他,体育场馆,上午,5.71
2024-07-08,大昌文化羽毛球俱乐部,118.022468,36.850107,其他,体育场馆,傍晚,5.9
2024-07-08,大昌文化羽毛球俱乐部,118.022468,36.850107,其他,体育场馆,上午,6.71
2024-07-08,鲁中商业博览城,118.222752,36.206168,其他,商场,中午,4.29
2024-07-08,鲁中商业博览城,118.222752,36.206168,其他,商场,上午,5.73
2024-07-08,中心公园,118.257746,36.765129,其他,公园,上午,5.53
2024-07-08,圣佛山圣佛寺,118.215772,36.651906,其他,旅游景点,晚上,3.85
2024-07-08,圣佛山圣佛寺,118.215772,36.651906,其他,旅游景点,傍晚,6.98
2024-07-08,喜茶(健康路店),118.169554,36.195571,其他,餐饮,凌晨,2.43
2024-07-08,淄博口腔医院,118.026673,36.803344,其他,医院,晚上,7.27
2024-07-08,淄博口腔医院,118.026673,36.803344,其他,医院,傍晚,4.17
2024-07-08,西边有个院,117.982107,36.830791,其他,旅游景点,凌晨,3.27
2024-07-08,西边有个院,117.982107,36.830791,其他,旅游景点,深夜,6.29
2024-07-08,建国私教健身会所(齐悦商业街店),117.987907,36.809122,其他,体育场馆,中午,5.15
2024-07-08,淄博高新区实验中学,118.128522,36.830556,其他,学校,中午,7.25
2024-07-08,淄博市博物馆,118.038234,36.80401,其他,文化场馆,傍晚,7.55
2024-07-08,天玺24h台球俱乐部,118.037403,36.841989,其他,体育场馆,凌晨,4.24
2024-07-08,天玺24h台球俱乐部,118.037403,36.841989,其他,体育场馆,深夜,4.96
2024-07-08,过桥缘·过桥米线(淄博星河街店),117.988742,36.799901,其他,餐饮,晚上,6.67
2024-07-08,雁阳小学,118.001471,36.653546,其他,学校,凌晨,4.25
2024-07-08,牛记庵古村落,117.808905,36.579246,其他,旅游景点,上午,5.79
2024-07-08,山铝游泳馆,118.042806,36.754588,其他,体育场馆,中午,6.03
2024-07-08,山铝游泳馆,118.042806,36.754588,其他,体育场馆,傍晚,3.78
2024-07-08,东大医院,118.070965,36.799474,其他,医院,上午,5.54
2024-07-08,中国琉璃艺术殿堂,117.853656,36.488408,其他,旅游景点,凌晨,3.5
2024-07-08,心福烤鱼店,118.014583,36.791268,其他,餐饮,下午,6.4
2024-07-08,心福烤鱼店,118.014583,36.791268,其他,餐饮,中午,4.95
2024-07-08,憩园广场,117.861353,36.496955,其他,公园,深夜,4.97
2024-07-08,憩园广场,117.861353,36.496955,其他,公园,上午,5.2
2024-07-09,花山公园,118.11949,36.824708,其他,旅游景点,晚上,6.78
2024-07-09,花山公园,118.11949,36.824708,其他,旅游景点,中午,6.32
2024-07-09,栖真观,118.013277,36.138917,其他,旅游景点,傍晚,3.92
2024-07-09,栖真观,118.013277,36.138917,其他,旅游景点,下午,5.1
2024-07-09,淘宝商城(鲁中国际商贸城店),117.953475,36.641625,其他,商场,晚上,5.06
2024-07-09,淘宝商城(鲁中国际商贸城店),117.953475,36.641625,其他,商场,傍晚,5.67
2024-07-09,淄博高新区华侨城小学,118.035677,36.839421,其他,学校,中午,3.74
2024-07-09,淄博高新区华侨城小学,118.035677,36.839421,其他,学校,傍晚,5.65
2024-07-09,周村城北中学,117.861555,36.842978,其他,学校,凌晨,3.93
2024-07-09,枫山禅院,118.210212,36.455976,其他,旅游景点,晚上,5.49
2024-07-09,高青县中心路小学,117.835773,37.157631,其他,学校,上午,6.27
2024-07-09,高青县中心路小学,117.835773,37.157631,其他,学校,深夜,2.22
2024-07-09,沂源县第二人民医院,118.360611,36.019273,其他,医院,傍晚,4.88
2024-07-09,淄博商厦(博山店),117.857579,36.511671,其他,商场,傍晚,6.07
2024-07-09,淄博商厦(博山店),117.857579,36.511671,其他,商场,中午,7.13
2024-07-09,淄博张店中鲁中医院,118.063233,36.811867,其他,医院,中午,5.85
2024-07-09,桓台县马桥镇陈庄卫生院,117.922181,37.009725,其他,医院,下午,6.25
2024-07-09,临淄实验中学,118.281588,36.817591,其他,学校,下午,6.1
2024-07-09,临淄实验中学,118.281588,36.817591,其他,学校,晚上,6.33
2024-07-09,寇氏游泳健身馆,118.339486,36.814335,其他,体育场馆,中午,6.51
2024-07-09,寇氏游泳健身馆,118.339486,36.814335,其他,体育场馆,下午,4.86
2024-07-09,淄博市第七人民医院,118.053946,36.826246,其他,医院,上午,7.21
2024-07-09,淄博市第七人民医院,118.053946,36.826246,其他,医院,下午,5.42
2024-07-09,康美达健身(工职院店),118.085163,36.892869,其他,体育场馆,深夜,6.21
2024-07-09,康美达健身(工职院店),118.085163,36.892869,其他,体育场馆,凌晨,4.24
2024-07-09,鲁中义乌国际商贸城,118.185521,36.192096,其他,商场,上午,6.3
2024-07-09,源和魔石咕噜鱼(沿河东路南端店),118.169991,36.170834,其他,餐饮,傍晚,5.44
2024-07-09,张店区杏园小学,118.076935,36.787266,其他,学校,晚上,5.71
2024-07-09,老朱烧烤,118.072546,36.856499,其他,餐饮,晚上,3.23
2024-07-09,老朱烧烤,118.072546,36.856499,其他,餐饮,深夜,5.33
2024-07-09,经开区可奕羽毛球馆,118.089133,36.757848,其他,体育场馆,晚上,7.11
2024-07-09,威斯曼健身搏击俱乐部(百脑汇店),118.048142,36.802401,其他,体育场馆,上午,5.72
2024-07-09,威斯曼健身搏击俱乐部(百脑汇店),118.048142,36.802401,其他,体育场馆,深夜,5.15
2024-07-09,海岱楼·钟书阁,117.98889,36.841714,其他,文化场馆,傍晚,3.96
2024-07-09,临淄区圃田园,118.304575,36.811855,其他,公园,上午,5.52
2024-07-09,峨庄国家森林公园,118.150576,36.503571,其他,公园,深夜,4.6
2024-07-09,峨庄国家森林公园,118.150576,36.503571,其他,公园,中午,4.82
2024-07-09,金太阳商场,118.166734,36.185648,其他,商场,凌晨,4.46
2024-07-09,淄博柳泉中学,117.977727,36.819203,其他,学校,凌晨,4.24
2024-07-09,石头先生的烤炉(淄博博山店),117.860839,36.500122,其他,餐饮,下午,8.02
2024-07-09,临淄区铁路主题体育公园,118.285962,36.804468,其他,公园,晚上,5.44
2024-07-09,平安殿,117.855097,36.542447,其他,旅游景点,下午,7.04
2024-07-09,鑫乔羽毛球馆,118.076222,36.817135,其他,体育场馆,深夜,5.58
2024-07-09,太公小学,118.335491,36.816887,其他,学校,上午,6.36
2024-07-09,黑铁山抗日武装起义纪念馆,118.159912,36.843977,其他,旅游景点,中午,3.26
2024-07-09,淄博商厦,118.058471,36.802055,其他,商场,下午,5.14
2024-07-09,淄博高新区机关医院,118.052056,36.840245,其他,医院,傍晚,6.67
2024-07-09,淄博高新区机关医院,118.052056,36.840245,其他,医院,上午,7.14
2024-07-09,银座二店,117.975212,36.645192,其他,商场,凌晨,3.78
2024-07-09,立碑山游园,117.851301,36.507937,其他,旅游景点,晚上,3.8
2024-07-09,泰丰全羊火锅,118.041605,36.734476,其他,餐饮,凌晨,4.37
2024-07-09,玉黛湖·中国淄博花灯艺术节,118.148659,36.804574,其他,文化场馆,深夜,5.31
2024-07-09,淄博电子工程学校,118.152562,36.187551,其他,学校,晚上,3.77
2024-07-09,淄博电子工程学校,118.152562,36.187551,其他,学校,下午,4.85
2024-07-09,金带公园,117.987166,36.820675,其他,公园,凌晨,5.64
2024-07-09,金带公园,117.987166,36.820675,其他,公园,晚上,5.98
2024-07-09,张店区绿杉园小学,118.046686,36.832088,其他,学校,深夜,3.59
2024-07-09,张店区绿杉园小学,118.046686,36.832088,其他,学校,上午,6.53
2024-07-09,原山国家森林公园-文姜广场,117.856495,36.482443,其他,公园,上午,5.81
2024-07-09,铁冶村文化广场,118.187361,36.841286,其他,公园,中午,6.31
2024-07-09,铁冶村文化广场,118.187361,36.841286,其他,公园,深夜,5.84
2024-07-09,瑞苑社区团购,118.048905,36.818966,其他,商场,中午,6.41
2024-07-09,山东铝业职业学院,118.048078,36.75552,其他,学校,下午,6.64
2024-07-09,山东铝业职业学院,118.048078,36.75552,其他,学校,傍晚,4.22
2024-07-09,银座商城超市(柳泉路店),118.050484,36.805618,其他,商场,上午,3.92
2024-07-09,齐盛湖公园,117.989284,36.841662,其他,公园,深夜,4.77
2024-07-09,重庆石锅鱼,118.001048,36.803795,其他,餐饮,下午,5.35
2024-07-09,桓台县鱼龙中学,118.101559,37.0654,其他,学校,深夜,4.05
2024-07-09,高青县青城卫生院,117.689242,37.177882,其他,医院,深夜,3.28
2024-07-09,高青县青城卫生院,117.689242,37.177882,其他,医院,凌晨,6.21
2024-07-09,管仲纪念馆,118.351952,36.793594,其他,旅游景点,深夜,3.63
2024-07-09,六禾烧烤(尹家湾),117.844345,36.804193,其他,餐饮,傍晚,5.72
2024-07-09,六禾烧烤(尹家湾),117.844345,36.804193,其他,餐饮,深夜,5.5
2024-07-09,公社炒鸡老菜馆(八大局店),118.075206,36.808527,其他,餐饮,上午,4.21
2024-07-09,公社炒鸡老菜馆(八大局店),118.075206,36.808527,其他,餐饮,中午,6.63
2024-07-09,桓台县渔洋中学,118.103492,36.947909,其他,学校,上午,5.65
2024-07-09,桓台县渔洋中学,118.103492,36.947909,其他,学校,傍晚,7.1
2024-07-09,沂河沂源源头水保护区,118.116224,36.167737,其他,旅游景点,傍晚,4.25
2024-07-09,沂河沂源源头水保护区,118.116224,36.167737,其他,旅游景点,下午,5.11
2024-07-09,马踏湖国家湿地公园,118.065484,37.06971,其他,旅游景点,下午,7.81
2024-07-09,彩世界精品皮草广场,118.029104,36.822275,其他,商场,上午,7.11
2024-07-09,彩世界精品皮草广场,118.029104,36.822275,其他,商场,中午,6.63
2024-07-09,留仙湖公园-淄川健康主题公园,117.956814,36.634343,其他,公园,上午,5.79
2024-07-09,张店区兴学街小学,118.054491,36.794399,其他,学校,傍晚,4.95
2024-07-09,御茗府茶楼,118.292699,36.809172,其他,餐饮,深夜,2.56
2024-07-09,御茗府茶楼,118.292699,36.809172,其他,餐饮,中午,6.9
2024-07-09,稷下文化园,118.274123,36.81748,其他,公园,深夜,4.31
2024-07-09,周村区市南路小学,117.854538,36.788305,其他,学校,上午,5.62
2024-07-09,周村区市南路小学,117.854538,36.788305,其他,学校,深夜,4.29
2024-07-09,红猪比萨(丽景翠苑店),118.042974,36.828113,其他,餐饮,深夜,4.43
2024-07-09,红猪比萨(丽景翠苑店),118.042974,36.828113,其他,餐饮,上午,5.64
2024-07-09,南定小学,118.052121,36.741479,其他,学校,傍晚,3.69
2024-07-09,南定小学,118.052121,36.741479,其他,学校,上午,6.53
2024-07-09,天清·栖溪源休闲旅游区,118.185972,36.11547,其他,旅游景点,中午,6.32
2024-07-09,天清·栖溪源休闲旅游区,118.185972,36.11547,其他,旅游景点,深夜,2.75
2024-07-09,淄博市育才中学,117.969795,36.641159,其他,学校,上午,4.02
2024-07-09,淄博市市级机关医院,118.055697,36.811686,其他,医院,中午,5.56
2024-07-09,金山镇文体公园,118.244215,36.735747,其他,公园,上午,5.61
2024-07-09,天行健游泳健身俱乐部,118.32095,36.834906,其他,体育场馆,傍晚,5.8
2024-07-09,银座购物广场(博山店),117.860767,36.494224,其他,商场,晚上,3.88
2024-07-09,银座购物广场(博山店),117.860767,36.494224,其他,商场,上午,5.86
2024-07-09,高青县第五中学,117.881124,37.151187,其他,学校,中午,5.64
2024-07-09,高青县第五中学,117.881124,37.151187,其他,学校,深夜,5.15
2024-07-09,沂源牛郎织女景区-织女洞森林公园,118.261632,36.10731,其他,公园,中午,4.87
2024-07-09,黑山八大景万佛城,117.913628,36.466375,其他,旅游景点,上午,6.81
2024-07-09,四季屋快餐(商业街店),117.963677,36.646516,其他,餐饮,傍晚,7.48
2024-07-09,四季屋快餐(商业街店),117.963677,36.646516,其他,餐饮,上午,5.52
2024-07-09,沂源四中,118.249974,36.217228,其他,学校,凌晨,5.32
2024-07-09,柳泉潜流湿地,117.937449,36.621568,其他,旅游景点,上午,6.11
2024-07-09,渭一窑址,117.961306,36.558392,其他,旅游景点,晚上,4.03
2024-07-09,渭一窑址,117.961306,36.558392,其他,旅游景点,深夜,5.13
2024-07-10,淄博淄川,117.961309,36.643502,其他,商场,深夜,3.25
2024-07-10,周村基督教堂,117.847822,36.797957,其他,旅游景点,上午,5.94
2024-07-10,英豪东方明珠大酒店,118.076972,36.816286,其他,餐饮,傍晚,4.02
2024-07-10,奕乐快餐烤肉拌饭鸡排饭(南苑绿洲社区店),118.02951,36.765167,其他,餐饮,傍晚,6.62
2024-07-10,淄博商厦,118.058471,36.802055,其他,商场,凌晨,3.72
2024-07-10,飞龙台球棋牌(百脑汇店),118.04808,36.803115,其他,体育场馆,晚上,4.04
2024-07-10,飞龙台球棋牌(百脑汇店),118.04808,36.803115,其他,体育场馆,深夜,3.6
2024-07-10,WIN体能私教工作室,118.032,36.810034,其他,体育场馆,傍晚,5.16
2024-07-10,征服者越野俱乐部(淄博店),118.161408,36.495809,其他,体育场馆,晚上,5.31
2024-07-10,周村区市南路小学,117.854538,36.788305,其他,学校,中午,6.24
2024-07-10,万隆大楼,117.849813,36.79747,其他,商场,上午,6.9
2024-07-10,万隆大楼,117.849813,36.79747,其他,商场,中午,5.66
2024-07-10,怡康游园,118.190152,36.796997,其他,公园,晚上,4.02
2024-07-10,怡康游园,118.190152,36.796997,其他,公园,下午,6.46
2024-07-10,齐盛健身工作室,117.999041,36.844338,其他,体育场馆,上午,4.45
2024-07-10,齐盛健身工作室,117.999041,36.844338,其他,体育场馆,中午,5.9
2024-07-10,瑷肯体育公园,118.06226,36.83922,其他,公园,深夜,4.88
2024-07-10,瑷肯体育公园,118.06226,36.83922,其他,公园,傍晚,5.57
2024-07-10,淄川济民医院,117.977587,36.65291,其他,医院,下午,4.57
2024-07-10,山川禅寺,117.961374,36.616908,其他,旅游景点,晚上,5.05
2024-07-10,山川禅寺,117.961374,36.616908,其他,旅游景点,中午,5.46
2024-07-10,兰雁医院,117.8479,36.810587,其他,医院,晚上,2.98
2024-07-10,兰雁医院,117.8479,36.810587,其他,医院,傍晚,7.26
2024-07-10,西边有个院,117.982107,36.830791,其他,旅游景点,凌晨,2.66
2024-07-10,西边有个院,117.982107,36.830791,其他,旅游景点,晚上,5.35
2024-07-10,淄博高新区文体公园,118.07024,36.840741,其他,公园,晚上,2.83
2024-07-10,淄博高新区文体公园,118.07024,36.840741,其他,公园,下午,4.12
2024-07-10,印月茶舍(桓公花园一区店),118.285316,36.814362,其他,餐饮,中午,4.4
2024-07-10,鸿泰医院,117.836937,36.797978,其他,医院,中午,6.31
2024-07-10,鸿泰医院,117.836937,36.797978,其他,医院,晚上,6.22
2024-07-10,桓台县陈庄中学,117.916557,37.008159,其他,学校,深夜,5.48
2024-07-10,桓台县陈庄中学,117.916557,37.008159,其他,学校,凌晨,2.35
2024-07-10,世博高新医院营养中心,118.105384,36.829265,其他,医院,晚上,5.2
2024-07-10,世博高新医院营养中心,118.105384,36.829265,其他,医院,傍晚,6.87
2024-07-10,淄博市实验幼儿园,117.977691,36.820993,其他,学校,凌晨,4.47
2024-07-10,淄博市实验幼儿园,117.977691,36.820993,其他,学校,中午,7.08
2024-07-10,淄博高新区黉门文化艺术学校,118.052261,36.856862,其他,学校,下午,4.92
2024-07-10,张店区第二中学,118.070757,36.808516,其他,学校,凌晨,3.77
2024-07-10,文体公园,118.080968,36.945162,其他,公园,深夜,2.37
2024-07-10,文体公园,118.080968,36.945162,其他,公园,凌晨,5.43
2024-07-10,银座购物广场(淄川店),117.961902,36.649139,其他,商场,晚上,5.85
2024-07-10,博山山头周氏顺祥斋,117.87409,36.465945,其他,旅游景点,上午,8.13
2024-07-10,博山山头周氏顺祥斋,117.87409,36.465945,其他,旅游景点,凌晨,3.99
2024-07-10,小西湖公园,118.036667,36.808819,其他,公园,深夜,3.84
2024-07-10,小西湖公园,118.036667,36.808819,其他,公园,凌晨,3.77
2024-07-10,淄博张店中鲁中医院,118.063233,36.811867,其他,医院,下午,4.96
2024-07-10,亨泰台球,118.04326,36.807013,其他,体育场馆,中午,4.98
2024-07-10,中国课本博物馆,118.107847,36.831431,其他,文化场馆,上午,4.59
2024-07-10,中国课本博物馆,118.107847,36.831431,其他,文化场馆,中午,5.59
2024-07-10,黑旺船头山白云观,118.205816,36.621873,其他,旅游景点,傍晚,6.18
2024-07-10,高青县体育馆,117.819004,37.168893,其他,体育场馆,傍晚,6.41
2024-07-10,高青县体育馆,117.819004,37.168893,其他,体育场馆,上午,5.53
2024-07-10,亿客家购物广场,118.180858,36.200662,其他,商场,深夜,5.41
2024-07-10,亿客家购物广场,118.180858,36.200662,其他,商场,上午,6.04
2024-07-10,高青县中医院,117.830285,37.184154,其他,医院,晚上,5.13
2024-07-10,鲁山国家森林公园-大雄宝殿,118.072669,36.297529,其他,旅游景点,傍晚,4.59
2024-07-10,鲁山国家森林公园-大雄宝殿,118.072669,36.297529,其他,旅游景点,深夜,3.49
2024-07-10,联通路169号红星欧丽洛雅商场,118.010594,36.829104,其他,商场,下午,7.23
2024-07-10,联通路169号红星欧丽洛雅商场,118.010594,36.829104,其他,商场,晚上,5.42
2024-07-10,腾勃台球俱乐部,118.082624,36.950303,其他,体育场馆,晚上,3.24
2024-07-10,壹加壹(后埠新村店),118.083719,36.936016,其他,商场,上午,4.93
2024-07-10,淄博工业学校梧台校区,118.302241,36.885074,其他,学校,下午,4.99
2024-07-10,君爵桌球俱乐部,117.974739,36.638948,其他,体育场馆,凌晨,4.45
2024-07-10,胶东肥蛤王小海鲜,117.871111,36.815465,其他,餐饮,傍晚,4.69
2024-07-10,东方购物广场(沂源店),118.160871,36.184001,其他,商场,上午,7.21
2024-07-10,宝塔文化广场,117.997516,36.713892,其他,公园,晚上,6.04
2024-07-10,宝塔文化广场,117.997516,36.713892,其他,公园,下午,4.75
2024-07-10,中濠饭店(海岱楼店),117.998939,36.844294,其他,餐饮,傍晚,6.23
2024-07-10,淄博市综合训练基地,117.832393,36.743439,其他,文化场馆,深夜,4.95
2024-07-10,青年路街道办事处社区卫生服务中心,117.84943,36.806324,其他,医院,凌晨,4.39
2024-07-10,碧霞元君行宫,117.969073,36.608908,其他,旅游景点,下午,6.95
2024-07-10,碧霞元君行宫,117.969073,36.608908,其他,旅游景点,上午,4.89
2024-07-10,北大医疗淄博医院,118.041309,36.755311,其他,医院,上午,5.73
2024-07-10,北大医疗淄博医院,118.041309,36.755311,其他,医院,深夜,5.52
2024-07-10,神清宫,118.160918,36.093633,其他,旅游景点,上午,5.94
2024-07-10,萌山水库公园,117.861283,36.697633,其他,公园,中午,5.23
2024-07-10,凤凰山公园,117.838883,36.741488,其他,公园,傍晚,4.65
2024-07-10,凤凰山公园,117.838883,36.741488,其他,公园,晚上,3.49
2024-07-10,木香铁锅居(南麻六小店),118.155475,36.197135,其他,餐饮,深夜,5.59
2024-07-10,张店区人民医院(南院区),118.059541,36.791552,其他,医院,深夜,2.9
2024-07-10,张店区人民医院(南院区),118.059541,36.791552,其他,医院,晚上,4.78
2024-07-10,淄博沂源九天洞景区,118.073101,36.271766,其他,旅游景点,上午,5.81
2024-07-10,春之光医院,118.073479,36.806474,其他,医院,凌晨,2.72
2024-07-11,淄博市张店区第四中学,118.088207,36.753633,其他,学校,下午,5.31
2024-07-11,淄博市张店区第四中学,118.088207,36.753633,其他,学校,傍晚,5.93
2024-07-11,淄博少海医院,118.090097,36.958442,其他,医院,下午,7.78
2024-07-11,淄博少海医院,118.090097,36.958442,其他,医院,中午,5.81
2024-07-11,淄建集团医院,118.064021,36.801248,其他,医院,凌晨,4.29
2024-07-11,淄建集团医院,118.064021,36.801248,其他,医院,晚上,4.65
2024-07-11,淄江社区卫生服务中心,118.335599,36.814881,其他,医院,晚上,3.37
2024-07-11,那些年潮汕牛肉火锅,118.104438,36.959564,其他,餐饮,傍晚,5.9
2024-07-11,K+桌球俱乐部(淄博鑫马吾悦广场店),118.003242,36.825405,其他,体育场馆,深夜,5.01
2024-07-11,晏婴公园,118.292655,36.820218,其他,公园,中午,4.16
2024-07-11,晏婴公园,118.292655,36.820218,其他,公园,上午,4.91
2024-07-11,淄博市中心医院(西院区),117.975134,36.810239,其他,医院,深夜,4.14
2024-07-11,淄博市中心医院(西院区),117.975134,36.810239,其他,医院,上午,4.94
2024-07-11,清正源饭店,118.210065,36.799794,其他,餐饮,凌晨,3.44
2024-07-11,清正源饭店,118.210065,36.799794,其他,餐饮,中午,3.61
2024-07-11,留仙谷清风寺,118.052826,36.603576,其他,旅游景点,傍晚,7.59
2024-07-11,淄博张店圣诺医院,118.042855,36.813897,其他,医院,晚上,5.19
2024-07-11,淄博张店圣诺医院,118.042855,36.813897,其他,医院,凌晨,2.17
2024-07-11,壹加壹台球网咖(商业步行街店),118.041919,36.807328,其他,体育场馆,晚上,4.84
2024-07-11,淼铭园特色大骨头店,118.026602,36.768651,其他,餐饮,上午,5.71
2024-07-11,816私教健身俱乐部(福园店),118.02634,36.8065,其他,体育场馆,深夜,6.24
2024-07-11,816私教健身俱乐部(福园店),118.02634,36.8065,其他,体育场馆,中午,4.36
2024-07-11,淄博市第四人民医院,118.043297,36.76628,其他,医院,上午,7.05
2024-07-11,北大医疗淄博医院,118.041309,36.755311,其他,医院,下午,6.6
2024-07-11,淄博市中心医院南病房楼,118.052622,36.807439,其他,医院,上午,6.02
2024-07-11,淄博市中心医院南病房楼,118.052622,36.807439,其他,医院,下午,5.2
2024-07-11,蝴蝶峪,117.781106,36.513231,其他,旅游景点,晚上,3.84
2024-07-11,蝴蝶峪,117.781106,36.513231,其他,旅游景点,下午,7.16
2024-07-11,周村区南郊镇中心卫生院,117.915221,36.777426,其他,医院,晚上,3.07
2024-07-11,塔斯汀中国汉堡(恒和时代广场店),118.159124,36.187482,其他,餐饮,中午,6.17
2024-07-11,塔斯汀中国汉堡(恒和时代广场店),118.159124,36.187482,其他,餐饮,下午,7.61
2024-07-11,银座商城(淄博店),118.050481,36.805504,其他,商场,凌晨,4.86
2024-07-11,高青县体育馆,117.819004,37.168893,其他,体育场馆,晚上,3.67
2024-07-11,高青县体育馆,117.819004,37.168893,其他,体育场馆,凌晨,4.74
2024-07-11,中心公园,118.257746,36.765129,其他,公园,凌晨,2.86
2024-07-11,桥下公园,117.968623,36.851769,其他,公园,上午,5.34
2024-07-11,淄博北站北广场,118.026254,36.898065,其他,公园,傍晚,4.0
2024-07-11,山水缘广场,117.959894,36.632743,其他,公园,傍晚,4.41
2024-07-11,山水缘广场,117.959894,36.632743,其他,公园,凌晨,3.64
2024-07-11,活力广场,118.063957,36.867657,其他,公园,深夜,4.44
2024-07-11,活力广场,118.063957,36.867657,其他,公园,下午,6.58
2024-07-11,临淄二中,118.304006,36.837102,其他,学校,上午,6.47
2024-07-11,临淄二中,118.304006,36.837102,其他,学校,凌晨,5.81
2024-07-11,凯悦西餐厅(淄博黄金国际店),118.031764,36.823767,其他,餐饮,上午,6.66
2024-07-11,盛和商场,117.662941,37.107877,其他,商场,晚上,4.75
2024-07-11,盛和商场,117.662941,37.107877,其他,商场,上午,6.0
2024-07-11,金山镇文体公园,118.244215,36.735747,其他,公园,上午,4.93
2024-07-11,市民广场,118.017803,36.804819,其他,公园,上午,5.94
2024-07-11,市民广场,118.017803,36.804819,其他,公园,凌晨,2.64
2024-07-11,淄博市农业科学研究院(商场西街),118.030106,36.804568,其他,文化场馆,深夜,5.08
2024-07-11,淄博市农业科学研究院(商场西街),118.030106,36.804568,其他,文化场馆,上午,5.87
2024-07-11,程程团购,117.77299,36.640175,其他,商场,凌晨,2.64
2024-07-11,程程团购,117.77299,36.640175,其他,商场,晚上,6.29
2024-07-11,桓台县文化体育中心,118.082319,36.946522,其他,体育场馆,上午,5.77
2024-07-11,中国课本博物馆,118.107847,36.831431,其他,文化场馆,中午,4.25
2024-07-11,中国课本博物馆,118.107847,36.831431,其他,文化场馆,下午,6.44
2024-07-11,桓台县跷脚烧烤店,118.067602,36.917548,其他,餐饮,中午,5.08
2024-07-11,六禾烧烤(尹家湾),117.844345,36.804193,其他,餐饮,傍晚,7.91
2024-07-11,六禾烧烤(尹家湾),117.844345,36.804193,其他,餐饮,上午,7.6
2024-07-11,石门景区,117.775426,36.53953,其他,旅游景点,上午,8.1
2024-07-11,SOS台球俱乐部,118.029034,36.80782,其他,体育场馆,下午,6.11
2024-07-11,SOS台球俱乐部,118.029034,36.80782,其他,体育场馆,上午,5.44
2024-07-11,米村拌饭(茂业百货时代店),118.295975,36.817475,其他,餐饮,中午,4.48
2024-07-11,天鹅商城,117.830523,37.167515,其他,商场,凌晨,5.01
2024-07-11,湘满天下(沿河西路店),118.152484,36.191022,其他,餐饮,上午,5.19
2024-07-11,湘满天下(沿河西路店),118.152484,36.191022,其他,餐饮,深夜,3.56
2024-07-11,历山公园,118.153721,36.21082,其他,公园,凌晨,3.16
2024-07-11,历山公园,118.153721,36.21082,其他,公园,上午,7.49
2024-07-11,寨里中心卫生院,118.044576,36.64904,其他,医院,傍晚,4.6
2024-07-11,寨里中心卫生院,118.044576,36.64904,其他,医院,凌晨,2.85
2024-07-11,进无止境台球俱乐部,117.99665,36.7996,其他,体育场馆,深夜,3.12
2024-07-11,振华商厦,118.056047,36.801675,其他,商场,下午,4.77
2024-07-11,振华商厦,118.056047,36.801675,其他,商场,凌晨,2.26
2024-07-11,老潍县菜馆(颐和花园店),118.066589,36.832173,其他,餐饮,中午,4.19
2024-07-11,老潍县菜馆(颐和花园店),118.066589,36.832173,其他,餐饮,傍晚,6.8
2024-07-11,鲁山全羊烧烤,118.041147,36.84383,其他,餐饮,晚上,6.34
2024-07-11,鲁山全羊烧烤,118.041147,36.84383,其他,餐饮,下午,5.52
2024-07-11,白云湖湿地公园,117.831422,36.782527,其他,公园,傍晚,7.43
2024-07-11,淄博理工学校,117.984673,36.645065,其他,学校,傍晚,7.56
2024-07-12,周村圣母堂慈母宫,117.860967,36.751287,其他,旅游景点,下午,6.57
2024-07-12,博山区中心路小学,117.858761,36.493345,其他,学校,傍晚,5.67
2024-07-12,博山区中心路小学,117.858761,36.493345,其他,学校,深夜,3.07
2024-07-12,湖田考场,118.11584,36.795345,其他,文化场馆,深夜,2.19
2024-07-12,铁锅砖家·正宗东北铁锅炖(名士豪庭店),118.053772,36.85251,其他,餐饮,凌晨,3.43
2024-07-12,傅家镇黄家小学,118.006121,36.736265,其他,学校,凌晨,3.03
2024-07-12,桓台济民医院,118.096603,36.958596,其他,医院,深夜,3.82
2024-07-12,桓台济民医院,118.096603,36.958596,其他,医院,晚上,3.45
2024-07-12,淄博信息工程学校,118.067903,36.805023,其他,学校,傍晚,5.78
2024-07-12,淄博矿业集团公司双山医院,117.853711,36.498469,其他,医院,中午,4.86
2024-07-12,淄博矿业集团公司双山医院,117.853711,36.498469,其他,医院,下午,4.8
2024-07-12,黑铁山风景区,118.164113,36.842767,其他,旅游景点,晚上,4.9
2024-07-12,高青县实验中学,117.819735,37.165726,其他,学校,凌晨,3.06
2024-07-12,淄博梓童山武术学校,118.031502,36.667658,其他,学校,凌晨,4.62
2024-07-12,淄博梓童山武术学校,118.031502,36.667658,其他,学校,上午,6.82
2024-07-12,文昌湖西马桥景点,117.85869,36.690796,其他,旅游景点,中午,5.11
2024-07-12,淄博市市立医院淄江分院,118.335498,36.815204,其他,医院,晚上,5.12
2024-07-12,鲁中安全生产考试中心,118.125613,36.838574,其他,文化场馆,中午,4.65
2024-07-12,鲁中安全生产考试中心,118.125613,36.838574,其他,文化场馆,晚上,4.6
2024-07-12,红猪比萨(丽景翠苑店),118.042974,36.828113,其他,餐饮,中午,4.63
2024-07-12,红猪比萨(丽景翠苑店),118.042974,36.828113,其他,餐饮,凌晨,4.11
2024-07-12,宝塔文化广场,117.997516,36.713892,其他,公园,上午,4.74
2024-07-12,宝塔文化广场,117.997516,36.713892,其他,公园,傍晚,5.61
2024-07-12,齐都体育城,118.300503,36.827581,其他,体育场馆,凌晨,3.41
2024-07-12,齐都体育城,118.300503,36.827581,其他,体育场馆,下午,5.44
2024-07-12,淄博柳泉中学,117.977727,36.819203,其他,学校,傍晚,6.88
2024-07-12,齐鲁医药学院,117.917788,36.825047,其他,学校,凌晨,1.93
2024-07-12,齐鲁医药学院,117.917788,36.825047,其他,学校,晚上,6.12
2024-07-12,金乔游园,118.076624,36.814346,其他,公园,上午,6.94
2024-07-12,金乔游园,118.076624,36.814346,其他,公园,傍晚,5.9
2024-07-12,西城食府,117.936398,36.653827,其他,餐饮,深夜,2.9
2024-07-12,淄博动物园,118.150331,36.809505,其他,公园,凌晨,3.42
2024-07-12,奕乐快餐烤肉拌饭鸡排饭(南苑绿洲社区店),118.02951,36.765167,其他,餐饮,傍晚,4.65
2024-07-12,奕乐快餐烤肉拌饭鸡排饭(南苑绿洲社区店),118.02951,36.765167,其他,餐饮,凌晨,5.42
2024-07-12,经开区可奕羽毛球馆,118.089133,36.757848,其他,体育场馆,上午,7.3
2024-07-12,周村区南郊镇中心卫生院,117.915221,36.777426,其他,医院,下午,6.06
2024-07-12,大染坊口腔,117.847775,36.791389,其他,医院,傍晚,5.45
2024-07-12,大染坊口腔,117.847775,36.791389,其他,医院,深夜,5.87
2024-07-12,淄博陶瓷琉璃博物馆,117.9868,36.827607,其他,文化场馆,深夜,5.49
2024-07-12,淄博陶瓷琉璃博物馆,117.9868,36.827607,其他,文化场馆,下午,4.95
2024-07-12,西山公园,117.990818,36.634296,其他,公园,中午,4.84
2024-07-12,西山公园,117.990818,36.634296,其他,公园,深夜,6.42
2024-07-12,淄博市革命烈士陵园,117.88136,36.762238,其他,旅游景点,上午,5.51
2024-07-12,淄博市革命烈士陵园,117.88136,36.762238,其他,旅游景点,下午,5.31
2024-07-12,中铝党校,118.047129,36.756803,其他,学校,上午,5.94
2024-07-12,中铝党校,118.047129,36.756803,其他,学校,晚上,5.31
2024-07-12,西屋往事自动涮烤吧(联通路店),118.0578,36.826961,其他,餐饮,上午,6.25
2024-07-12,西屋往事自动涮烤吧(联通路店),118.0578,36.826961,其他,餐饮,深夜,5.09
2024-07-12,老车家烧烤,117.971224,36.628883,其他,餐饮,上午,7.48
2024-07-12,老车家烧烤,117.971224,36.628883,其他,餐饮,傍晚,4.71
2024-07-12,佳美果蔬商行(鑫城公寓东区店),118.018,36.801909,其他,餐饮,下午,4.59
2024-07-12,金甫庄园(前进居民生活区西),117.820195,36.801265,其他,餐饮,深夜,2.99
2024-07-12,新玛特名酒专柜(新玛特购物广场店),118.028595,36.837937,其他,商场,傍晚,5.01
2024-07-12,山铝西山社区卫生服务站,118.037141,36.752962,其他,医院,傍晚,4.32
2024-07-12,山铝西山社区卫生服务站,118.037141,36.752962,其他,医院,上午,6.95
2024-07-12,塞外春肥羊府(沿河西路店),118.152762,36.190755,其他,餐饮,傍晚,6.88
2024-07-12,塞外春肥羊府(沿河西路店),118.152762,36.190755,其他,餐饮,中午,5.54
2024-07-12,成语公园,117.985906,36.696047,其他,公园,上午,6.05
2024-07-12,淄博田敏乒乓球俱乐部,118.061296,36.820468,其他,体育场馆,凌晨,4.22
2024-07-12,萌水医院,117.921402,36.727733,其他,医院,上午,4.83
2024-07-12,新玛特购物广场(中润店),118.028591,36.837958,其他,商场,晚上,6.79
2024-07-12,木香铁锅居(南麻六小店),118.155475,36.197135,其他,餐饮,傍晚,5.24
2024-07-12,木香铁锅居(南麻六小店),118.155475,36.197135,其他,餐饮,凌晨,3.6
2024-07-12,0533羽毛球馆,118.07868,36.838265,其他,体育场馆,晚上,5.87
2024-07-12,0533羽毛球馆,118.07868,36.838265,其他,体育场馆,中午,4.53
2024-07-12,牛郎庙,118.263788,36.103233,其他,旅游景点,上午,6.84
2024-07-12,牛郎庙,118.263788,36.103233,其他,旅游景点,晚上,2.79
2024-07-12,山东省淄博第十一中学,118.058549,36.850697,其他,学校,傍晚,4.44
2024-07-12,凤凰广场,118.010316,36.699943,其他,公园,下午,6.72
2024-07-12,凤凰广场,118.010316,36.699943,其他,公园,晚上,5.04
2024-07-12,大红门烧烤(店子村),117.992985,36.903908,其他,餐饮,晚上,4.56
2024-07-12,齐鲁石化公司党委党校,118.284505,36.817216,其他,学校,中午,6.67
2024-07-12,齐鲁石化公司党委党校,118.284505,36.817216,其他,学校,下午,6.36
2024-07-12,临淄区凤凰中心卫生院,118.231515,36.882201,其他,医院,下午,4.89
2024-07-12,临淄区凤凰中心卫生院,118.231515,36.882201,其他,医院,晚上,4.4
2024-07-12,奕菡团购工作室,118.305537,36.821413,其他,商场,下午,7.1
2024-07-12,欧巴春川铁板鸡(吉祥路商业街店),117.971771,36.654814,其他,餐饮,中午,4.28
2024-07-13,缘梦购物岛,118.01843,36.785623,其他,商场,上午,6.77
2024-07-13,缘梦购物岛,118.01843,36.785623,其他,商场,傍晚,7.65
2024-07-13,虡盛文化公园,118.196724,36.202578,其他,公园,下午,6.36
2024-07-13,淄博光正公司医院,117.947288,36.6059,其他,医院,下午,5.17
2024-07-13,大张商贸城,118.225645,36.823116,其他,商场,中午,4.25
2024-07-13,月湖湿地公园,118.002886,36.718887,其他,公园,凌晨,4.77
2024-07-13,月湖湿地公园,118.002886,36.718887,其他,公园,中午,5.09
2024-07-13,良乡体育运动公园,118.073226,36.777487,其他,公园,下午,7.49
2024-07-13,山东新华制药股份有限公司职工培训中心技工学校,118.063076,36.794698,其他,学校,下午,6.26
2024-07-13,山东新华制药股份有限公司职工培训中心技工学校,118.063076,36.794698,其他,学校,凌晨,3.18
2024-07-13,淄博职业技术大学东校区,117.93429,36.83009,其他,文化场馆,下午,5.65
2024-07-13,金百盛商场,117.854008,36.794975,其他,商场,下午,6.41
2024-07-13,金百盛商场,117.854008,36.794975,其他,商场,中午,6.54
2024-07-13,流苏园,117.918142,36.823744,其他,公园,下午,7.13
2024-07-13,临淄中国古车博物馆,118.387478,36.83655,其他,文化场馆,上午,6.75
2024-07-13,临淄中国古车博物馆,118.387478,36.83655,其他,文化场馆,晚上,5.69
2024-07-13,小寨游园,117.864398,36.808559,其他,公园,中午,5.43
2024-07-13,小寨游园,117.864398,36.808559,其他,公园,晚上,5.44
2024-07-13,山东省淄博市工业学校,118.304134,36.831665,其他,学校,下午,6.27
2024-07-13,彩世界精品皮草广场,118.029104,36.822275,其他,商场,下午,6.64
2024-07-13,彩世界精品皮草广场,118.029104,36.822275,其他,商场,深夜,3.36
2024-07-13,淄博淄川,117.961309,36.643502,其他,商场,傍晚,6.18
2024-07-13,淄博淄川,117.961309,36.643502,其他,商场,中午,7.66
2024-07-13,焦裕禄纪念馆,117.992174,36.437097,其他,旅游景点,上午,5.59
2024-07-13,焦裕禄纪念馆,117.992174,36.437097,其他,旅游景点,傍晚,7.07
2024-07-13,张店区体育馆,118.036155,36.796165,其他,体育场馆,下午,5.57
2024-07-13,张店区体育馆,118.036155,36.796165,其他,体育场馆,中午,4.39
2024-07-13,临淄青年学生抗日志愿军训团纪念碑,118.343774,36.856906,其他,旅游景点,深夜,3.9
2024-07-13,临淄青年学生抗日志愿军训团纪念碑,118.343774,36.856906,其他,旅游景点,上午,8.75
2024-07-13,五阳山景区,117.911597,36.428971,其他,旅游景点,晚上,5.54
2024-07-13,留仙湖公园,117.957398,36.6373,其他,公园,深夜,6.03
2024-07-13,旷野之息露营地,118.060419,36.903402,其他,体育场馆,下午,5.16
2024-07-13,淄川区商城路小学,117.956978,36.649593,其他,学校,凌晨,3.1
2024-07-13,淄川区商城路小学,117.956978,36.649593,其他,学校,下午,6.45
2024-07-13,樵岭前风景区-博山溶洞,117.827216,36.447454,其他,旅游景点,傍晚,5.18
2024-07-13,樵岭前风景区-博山溶洞,117.827216,36.447454,其他,旅游景点,凌晨,2.52
2024-07-13,鲁泰体育场,117.982651,36.639185,其他,体育场馆,凌晨,3.17
2024-07-13,鲁泰体育场,117.982651,36.639185,其他,体育场馆,上午,7.49
2024-07-13,圣佛山,118.362109,36.190447,其他,旅游景点,上午,7.82
2024-07-13,淄博张店东方双语学校,118.001771,36.799963,其他,学校,下午,5.4
2024-07-13,淄博张店东方双语学校,118.001771,36.799963,其他,学校,晚上,6.87
2024-07-13,万益农业生态观光园,118.149011,36.531756,其他,公园,中午,4.4
2024-07-13,万益农业生态观光园,118.149011,36.531756,其他,公园,下午,6.73
2024-07-13,莲花寺,117.873039,36.477942,其他,旅游景点,下午,4.5
2024-07-13,莲花寺,117.873039,36.477942,其他,旅游景点,傍晚,7.14
2024-07-13,鑫动·路人王篮球公园,118.062437,36.839218,其他,体育场馆,深夜,6.62
2024-07-13,鑫动·路人王篮球公园,118.062437,36.839218,其他,体育场馆,晚上,6.98
2024-07-13,淄博市特殊教育中心,118.099177,36.820103,其他,学校,深夜,7.23
2024-07-13,淄博市特殊教育中心,118.099177,36.820103,其他,学校,上午,6.25
2024-07-13,谈小娱24h自助台球(水晶街店),118.005781,36.81618,其他,体育场馆,傍晚,5.91
2024-07-13,骑士台球棋牌俱乐部,118.020878,36.828858,其他,体育场馆,中午,7.15
2024-07-13,佳惠新天地生活广场,118.187319,36.192233,其他,商场,晚上,4.77
2024-07-13,佳惠新天地生活广场,118.187319,36.192233,其他,商场,下午,6.11
2024-07-13,淄博广电医院,118.048349,36.815733,其他,医院,凌晨,3.35
2024-07-13,高青双语学校,117.860078,37.158281,其他,学校,晚上,7.24
2024-07-13,亚细亚大酒店(闻韶路),118.309818,36.809968,其他,餐饮,晚上,4.25
2024-07-13,红军师师史馆,118.040402,36.814645,其他,旅游景点,凌晨,3.34
2024-07-13,红军师师史馆,118.040402,36.814645,其他,旅游景点,晚上,4.38
2024-07-13,银座购物广场(淄川店),117.961902,36.649139,其他,商场,晚上,7.19
2024-07-13,黄河公园,117.896406,37.260764,其他,公园,凌晨,5.96
2024-07-13,黄河公园,117.896406,37.260764,其他,公园,晚上,6.22
2024-07-13,淘宝商城(鲁中国际商贸城店),117.953475,36.641625,其他,商场,深夜,3.47
2024-07-13,淘宝商城(鲁中国际商贸城店),117.953475,36.641625,其他,商场,下午,7.83
2024-07-13,青炉里青花椒烤鱼(义乌店),118.018645,36.824361,其他,餐饮,下午,5.85
2024-07-13,野香蕉团课健身,118.078014,36.816783,其他,体育场馆,中午,6.68
2024-07-13,张亮麻辣烫(淄博马尚店),117.989055,36.801039,其他,餐饮,晚上,6.54
2024-07-13,吾悦广场(淄博店),118.025098,36.783679,其他,商场,晚上,5.26
2024-07-13,山东省桓台世纪中学,118.108796,36.959324,其他,学校,晚上,5.66
2024-07-13,山东省桓台世纪中学,118.108796,36.959324,其他,学校,深夜,4.82
2024-07-13,临淄区凤凰中心卫生院,118.231515,36.882201,其他,医院,中午,5.44
2024-07-13,临淄区凤凰中心卫生院,118.231515,36.882201,其他,医院,晚上,3.75
2024-07-13,沁园社区卫生服务站,118.045357,36.814004,其他,医院,中午,5.92
2024-07-13,沁园社区卫生服务站,118.045357,36.814004,其他,医院,晚上,6.91
2024-07-13,半天妖烤鱼(淄博沂源义乌新天地店),118.186794,36.192584,其他,餐饮,中午,6.42
2024-07-13,半天妖烤鱼(淄博沂源义乌新天地店),118.186794,36.192584,其他,餐饮,傍晚,6.95
2024-07-13,博山羽毛球运动中心,117.832353,36.514638,其他,体育场馆,上午,5.41
2024-07-13,淄博市中西医结合医院,118.058868,36.79356,其他,医院,中午,5.29
2024-07-13,延边高丽村养生汤馆(名仕嘉园店),118.297755,36.819583,其他,餐饮,傍晚,5.84
2024-07-13,临淄区雪宫中学,118.302392,36.815593,其他,学校,深夜,5.6
2024-07-13,山东齐鲁武校,118.160609,36.698077,其他,学校,凌晨,3.71
2024-07-14,山水缘广场,117.959894,36.632743,其他,公园,上午,6.8
2024-07-14,沐浴阳光.俊辰百货高青店,117.662007,37.103489,其他,商场,晚上,5.85
2024-07-14,周家医院,117.987118,36.910093,其他,医院,深夜,6.03
2024-07-14,周家医院,117.987118,36.910093,其他,医院,上午,6.33
2024-07-14,陶然香火锅居(将军路店),117.971523,36.629764,其他,餐饮,凌晨,5.92
2024-07-14,7+健身·普拉提工作室,117.993385,36.822541,其他,体育场馆,凌晨,4.0
2024-07-14,沂源振华实验学校,118.182272,36.210307,其他,文化场馆,下午,7.69
2024-07-14,沂源振华实验学校,118.182272,36.210307,其他,文化场馆,中午,6.54
2024-07-14,淄博矿业集团公司双山医院,117.853711,36.498469,其他,医院,下午,6.95
2024-07-14,佳美果蔬商行(鑫城公寓东区店),118.018,36.801909,其他,餐饮,中午,6.07
2024-07-14,佳美果蔬商行(鑫城公寓东区店),118.018,36.801909,其他,餐饮,下午,7.88
2024-07-14,DH健身,118.062042,36.810552,其他,体育场馆,中午,5.23
2024-07-14,DH健身,118.062042,36.810552,其他,体育场馆,上午,6.39
2024-07-14,银座商城(高青店),117.840226,37.164654,其他,商场,凌晨,4.21
2024-07-14,银座商城(高青店),117.840226,37.164654,其他,商场,下午,5.11
2024-07-14,酷玩猩球(吾悦广场店),117.866325,36.822625,其他,体育场馆,深夜,4.13
2024-07-14,酷玩猩球(吾悦广场店),117.866325,36.822625,其他,体育场馆,中午,7.14
2024-07-14,北营公园,118.076584,36.860381,其他,公园,傍晚,5.23
2024-07-14,聚合购物,118.102169,36.819988,其他,商场,上午,7.0
2024-07-14,壹加壹台球网咖(商业步行街店),118.041919,36.807328,其他,体育场馆,深夜,4.85
2024-07-14,鲁中安全生产考试中心,118.125613,36.838574,其他,文化场馆,凌晨,5.9
2024-07-14,鲁中安全生产考试中心,118.125613,36.838574,其他,文化场馆,傍晚,6.22
2024-07-14,万海格斗,118.060994,36.807167,其他,体育场馆,深夜,6.6
2024-07-14,万海格斗,118.060994,36.807167,其他,体育场馆,凌晨,3.27
2024-07-14,乐享星牌台球,118.056996,36.801438,其他,体育场馆,晚上,6.24
2024-07-14,农家木火炖,118.072517,36.85467,其他,餐饮,深夜,3.03
2024-07-14,农家木火炖,118.072517,36.85467,其他,餐饮,下午,7.49
2024-07-14,高青县第三中学,117.83598,37.195713,其他,学校,傍晚,6.44
2024-07-14,高青县第三中学,117.83598,37.195713,其他,学校,深夜,6.35
2024-07-14,旗胜足球场,118.024355,36.773073,其他,体育场馆,下午,7.45
2024-07-14,黑铁山风景区,118.164113,36.842767,其他,旅游景点,傍晚,8.3
2024-07-14,黑铁山风景区,118.164113,36.842767,其他,旅游景点,晚上,6.2
2024-07-14,TOP-1私教健身(东岳店),118.076828,36.948274,其他,体育场馆,中午,5.93
2024-07-14,三玉文化广场,118.075151,36.869877,其他,公园,上午,6.98
2024-07-14,三玉文化广场,118.075151,36.869877,其他,公园,深夜,5.62
2024-07-14,淄博职业学院(南校区),117.927048,36.828086,其他,学校,凌晨,4.11
2024-07-14,极光健身工作室(中欧国际馆),117.993377,36.820954,其他,体育场馆,晚上,5.33
2024-07-14,黑山八大景万佛城,117.913628,36.466375,其他,旅游景点,凌晨,4.08
2024-07-14,潘庄高级中学,118.060365,36.823397,其他,学校,下午,5.39
2024-07-14,潘庄高级中学,118.060365,36.823397,其他,学校,深夜,4.21
2024-07-14,张店区第三中学,118.05725,36.807199,其他,学校,上午,6.28
2024-07-14,张店区第三中学,118.05725,36.807199,其他,学校,晚上,5.69
2024-07-14,光辉百货,117.859345,36.786782,其他,商场,晚上,5.58
2024-07-14,颜神古镇,117.869314,36.471163,其他,旅游景点,中午,5.13
2024-07-14,颜神古镇,117.869314,36.471163,其他,旅游景点,上午,5.91
2024-07-14,家饭拌饭烤肉,118.04537,36.822497,其他,餐饮,凌晨,5.92
2024-07-14,湘满天下(沿河西路店),118.152484,36.191022,其他,餐饮,傍晚,8.33
2024-07-14,湘满天下(沿河西路店),118.152484,36.191022,其他,餐饮,中午,4.29
2024-07-14,淄博市中心医院高青院区,117.836181,37.169301,其他,医院,下午,4.85
2024-07-14,淄博市中心医院高青院区,117.836181,37.169301,其他,医院,深夜,6.0
2024-07-14,淄博第十中学,117.905264,36.581359,其他,学校,上午,6.4
2024-07-14,淄博工业学校梧台校区,118.302241,36.885074,其他,学校,深夜,6.3
2024-07-14,淄博工业学校梧台校区,118.302241,36.885074,其他,学校,凌晨,4.57
2024-07-14,淄川普安寺,117.884049,36.62809,其他,旅游景点,傍晚,7.34
2024-07-14,淄川普安寺,117.884049,36.62809,其他,旅游景点,凌晨,2.67
2024-07-14,齐赛园社区卫生服务站,118.026971,36.813954,其他,医院,下午,7.12
2024-07-14,淄博市体育场游泳馆,117.983437,36.813185,其他,体育场馆,晚上,6.28
2024-07-14,淄博市体育场游泳馆,117.983437,36.813185,其他,体育场馆,下午,5.55
2024-07-14,米村拌饭(张店区华光路大润发店),118.041565,36.821656,其他,餐饮,深夜,5.71
2024-07-14,米村拌饭(张店区华光路大润发店),118.041565,36.821656,其他,餐饮,晚上,4.55
2024-07-14,焦裕禄广场,117.862695,36.493876,其他,公园,晚上,4.65
2024-07-14,动力100游泳健身会所(银泰城店),118.036422,36.848499,其他,体育场馆,上午,8.12
2024-07-14,瀑布,117.902384,36.416951,其他,旅游景点,晚上,5.17
2024-07-14,瀑布,117.902384,36.416951,其他,旅游景点,中午,7.28
2024-07-14,兴国观,118.168854,36.698973,其他,旅游景点,凌晨,2.87
2024-07-14,银座商城(人民店),117.860457,36.504428,其他,商场,中午,6.9
2024-07-14,沂源鲁山溶洞群景区,118.040261,36.298894,其他,旅游景点,凌晨,3.62
2024-07-14,樵岭前风景区,117.821669,36.446687,其他,旅游景点,傍晚,8.12
2024-07-14,石炊百味云南蒸汽石锅鱼,118.01485,36.791229,其他,餐饮,深夜,5.43
2024-07-14,老鸭汤,118.022446,36.76349,其他,餐饮,中午,6.28
2024-07-14,老鸭汤,118.022446,36.76349,其他,餐饮,凌晨,5.12
2024-07-14,卫固医院,118.144778,36.867143,其他,医院,傍晚,6.89
2024-07-14,卫固医院,118.144778,36.867143,其他,医院,深夜,5.85
2024-07-14,圣元商厦,117.908667,37.038908,其他,商场,上午,5.71
2024-07-14,圣元商厦,117.908667,37.038908,其他,商场,晚上,6.59
2024-07-14,齐山风景区,118.199833,36.5147,其他,旅游景点,傍晚,6.83
2024-07-14,齐山风景区,118.199833,36.5147,其他,旅游景点,晚上,4.87
2024-07-14,乌河入湖口湿地公园,118.106519,36.944644,其他,公园,下午,4.91
2024-07-14,乌河入湖口湿地公园,118.106519,36.944644,其他,公园,中午,6.16
2024-07-14,泰东生活广场,118.330347,36.816999,其他,商场,上午,5.31
2024-07-14,淄博大成商场,118.055089,36.805645,其他,商场,傍晚,4.02
2024-07-14,淄博大成商场,118.055089,36.805645,其他,商场,晚上,6.08
2024-07-14,梓橦山旅游区,118.03096,36.665088,其他,旅游景点,中午,5.27
2024-07-14,梓橦山旅游区,118.03096,36.665088,其他,旅游景点,上午,6.74
2024-07-14,祥瑞园小学,118.010582,36.824284,其他,学校,深夜,6.46
2024-07-14,波力羽毛球馆,117.990499,36.62364,其他,体育场馆,晚上,4.92
2024-07-14,优壹佳健身(和平店),118.043127,36.796625,其他,体育场馆,傍晚,6.54
2024-07-14,优壹佳健身(和平店),118.043127,36.796625,其他,体育场馆,下午,6.2
2024-07-15,联启羽毛球馆,117.867129,36.776279,其他,体育场馆,下午,7.71
2024-07-15,联启羽毛球馆,117.867129,36.776279,其他,体育场馆,中午,5.71
2024-07-15,玉黛湖·中国淄博花灯艺术节,118.148659,36.804574,其他,文化场馆,凌晨,3.91
2024-07-15,莲花庵,118.077052,36.684369,其他,旅游景点,傍晚,4.43
2024-07-15,莲花庵,118.077052,36.684369,其他,旅游景点,凌晨,4.78
2024-07-15,周波寿司,118.042434,36.818197,其他,餐饮,下午,6.32
2024-07-15,齐园,118.292227,36.807527,其他,公园,中午,4.94
2024-07-15,齐园,118.292227,36.807527,其他,公园,凌晨,5.48
2024-07-15,朱台镇新时代文明实践广场,118.260278,36.938944,其他,公园,晚上,5.71
2024-07-15,桓台县鱼龙中学,118.101559,37.0654,其他,学校,晚上,3.72
2024-07-15,桓台县鱼龙中学,118.101559,37.0654,其他,学校,下午,5.89
2024-07-15,淄博博苑实验幼儿园,117.999673,36.819831,其他,学校,晚上,3.71
2024-07-15,临淄区闻韶银山百货商场(方正2009小区店),118.331701,36.817583,其他,商场,傍晚,5.94
2024-07-15,临淄区闻韶银山百货商场(方正2009小区店),118.331701,36.817583,其他,商场,下午,4.76
2024-07-15,淄博中医骨伤医院,117.826714,36.489782,其他,医院,晚上,3.85
2024-07-15,淄博中医骨伤医院,117.826714,36.489782,其他,医院,傍晚,4.81
2024-07-15,新疆伊犁河餐厅清真,118.099088,36.973599,其他,餐饮,傍晚,5.53
2024-07-15,淄川二中,117.978648,36.655917,其他,学校,上午,6.17
2024-07-15,淄川二中,117.978648,36.655917,其他,学校,下午,3.87
2024-07-15,淄博昌国医院,118.027805,36.784536,其他,医院,中午,5.39
2024-07-15,乡韵金典餐饮(西台店),118.149075,36.191675,其他,餐饮,深夜,4.5
2024-07-15,淄博万象汇,118.061399,36.802119,其他,商场,晚上,3.8
2024-07-15,百货大楼(振兴路),118.169393,36.184316,其他,商场,深夜,4.19
2024-07-15,百货大楼(振兴路),118.169393,36.184316,其他,商场,上午,5.22
2024-07-15,马桥公园,117.917491,37.04194,其他,公园,下午,6.09
2024-07-15,张店区杏园小学,118.076935,36.787266,其他,学校,傍晚,5.26
2024-07-15,淄博大学城实验中学,117.923755,36.822727,其他,学校,上午,7.24
2024-07-15,淄博大学城实验中学,117.923755,36.822727,其他,学校,傍晚,5.36
2024-07-15,果里医院,118.078742,36.903025,其他,医院,上午,5.24
2024-07-15,果里医院,118.078742,36.903025,其他,医院,深夜,3.57
2024-07-15,老博山私房菜,118.070058,36.799784,其他,餐饮,凌晨,4.24
2024-07-15,老博山私房菜,118.070058,36.799784,其他,餐饮,上午,4.3
2024-07-15,淄博沂源九天洞景区,118.073101,36.271766,其他,旅游景点,上午,4.76
2024-07-15,淄博沂源九天洞景区,118.073101,36.271766,其他,旅游景点,晚上,5.74
2024-07-15,新玛特购物广场(中润店),118.028591,36.837958,其他,商场,凌晨,4.72
2024-07-15,新玛特购物广场(中润店),118.028591,36.837958,其他,商场,深夜,5.8
2024-07-15,乐豆璟点台球俱乐部,118.10584,36.960057,其他,体育场馆,深夜,3.62
2024-07-15,文昌湖萌宠动物园,117.86273,36.715628,其他,公园,深夜,6.25
2024-07-15,文昌湖萌宠动物园,117.86273,36.715628,其他,公园,晚上,3.08
2024-07-15,顺意海鲜楼(中润大道店),118.041075,36.837382,其他,餐饮,中午,5.36
2024-07-15,黑山八大景万佛城,117.913628,36.466375,其他,旅游景点,傍晚,4.24
2024-07-15,黑山八大景万佛城,117.913628,36.466375,其他,旅游景点,上午,5.83
2024-07-15,金梦园(新村西路店),118.027431,36.803256,其他,餐饮,傍晚,6.04
2024-07-15,金梦园(新村西路店),118.027431,36.803256,其他,餐饮,凌晨,3.76
2024-07-15,淄博商厦,118.058471,36.802055,其他,商场,上午,6.42
2024-07-15,博山区第六中学,117.869513,36.503004,其他,学校,下午,5.75
2024-07-15,博山区第六中学,117.869513,36.503004,其他,学校,深夜,4.31
2024-07-15,淄博市中心医院南病房楼,118.052622,36.807439,其他,医院,上午,5.16
2024-07-15,淄博市黉山风景名胜旅游区,118.033871,36.659632,其他,旅游景点,凌晨,4.2
2024-07-15,淄博市黉山风景名胜旅游区,118.033871,36.659632,其他,旅游景点,晚上,6.56
2024-07-15,淄博世茂广场,117.98579,36.820734,其他,商场,上午,6.9
2024-07-15,淄博世茂广场,117.98579,36.820734,其他,商场,凌晨,2.65
2024-07-15,华严胜境,117.978841,37.001051,其他,旅游景点,上午,4.45
2024-07-15,华严胜境,117.978841,37.001051,其他,旅游景点,深夜,3.83
2024-07-15,山东省淄博第十七中学,118.035689,36.810219,其他,学校,中午,4.96
2024-07-15,动力100游泳健身(荣盛广场店),117.999996,36.825192,其他,体育场馆,下午,7.63
2024-07-15,动力100游泳健身(荣盛广场店),117.999996,36.825192,其他,体育场馆,上午,5.87
2024-07-15,孝妇河湿地公园,117.966585,36.799996,其他,公园,上午,4.11
2024-07-15,大红门(淄博张店区),118.030367,36.807949,其他,餐饮,下午,5.01
2024-07-15,源和魔石咕噜鱼(沿河东路南端店),118.169991,36.170834,其他,餐饮,中午,4.43
2024-07-15,源和魔石咕噜鱼(沿河东路南端店),118.169991,36.170834,其他,餐饮,傍晚,7.27
2024-07-15,闯山东铁锅炖(天隆购物广场店),117.860416,36.503609,其他,餐饮,下午,5.46
2024-07-15,闯山东铁锅炖(天隆购物广场店),117.860416,36.503609,其他,餐饮,傍晚,5.54
2024-07-15,临淄足球博物馆,118.367909,36.813655,其他,文化场馆,晚上,4.38
2024-07-15,临淄足球博物馆,118.367909,36.813655,其他,文化场馆,下午,5.34
2024-07-15,天清·栖溪源休闲旅游区,118.185972,36.11547,其他,旅游景点,深夜,5.05
2024-07-15,天清·栖溪源休闲旅游区,118.185972,36.11547,其他,旅游景点,上午,7.45
2024-07-15,哈尼家(大顺城市广场店),118.290283,36.814852,其他,餐饮,中午,5.75
2024-07-15,哈尼家(大顺城市广场店),118.290283,36.814852,其他,餐饮,下午,5.87
2024-07-15,胖仔凉皮米线馆,118.064941,36.806895,其他,餐饮,中午,5.76
2024-07-15,胖仔凉皮米线馆,118.064941,36.806895,其他,餐饮,傍晚,8.15
2024-07-15,权记洋行,118.061074,36.80042,其他,旅游景点,深夜,3.07
2024-07-15,淄博市文化馆,117.98608,36.827249,其他,文化场馆,傍晚,4.79
2024-07-15,淄博市文化馆,117.98608,36.827249,其他,文化场馆,凌晨,3.89
2024-07-15,玉皇宫,117.852755,36.486698,其他,旅游景点,中午,5.96
2024-07-15,长寿山广场,117.823867,36.552209,其他,公园,凌晨,3.78
2024-07-15,旷野之息露营地,118.060419,36.903402,其他,体育场馆,晚上,3.78
2024-07-15,瑷肯体育公园,118.06226,36.83922,其他,公园,凌晨,3.87
2024-07-15,旗胜足球场,118.024355,36.773073,其他,体育场馆,凌晨,4.4
2024-07-15,山东省博山电力技工学校,117.85858,36.478547,其他,学校,晚上,6.17
2024-07-15,山东省博山电力技工学校,117.85858,36.478547,其他,学校,深夜,5.03
2024-07-16,吉祥广场,117.973527,36.655065,其他,公园,傍晚,4.28
2024-07-16,吉祥广场,117.973527,36.655065,其他,公园,晚上,6.67
2024-07-16,半天妖烤鱼(淄博沂源义乌新天地店),118.186794,36.192584,其他,餐饮,上午,5.89
2024-07-16,城标广场,118.100016,36.949576,其他,公园,中午,5.2
2024-07-16,天行健健身会所,118.004368,36.836872,其他,体育场馆,深夜,4.71
2024-07-16,枫山禅院,118.210212,36.455976,其他,旅游景点,上午,6.34
2024-07-16,十六台球器材,118.284746,36.814537,其他,体育场馆,下午,6.78
2024-07-16,十六台球器材,118.284746,36.814537,其他,体育场馆,中午,6.14
2024-07-16,华盛商厦,117.829677,37.171987,其他,商场,下午,4.03
2024-07-16,华盛商厦,117.829677,37.171987,其他,商场,晚上,5.08
2024-07-16,大张商贸城,118.225645,36.823116,其他,商场,中午,7.07
2024-07-16,大张商贸城,118.225645,36.823116,其他,商场,傍晚,4.3
2024-07-16,博山陶瓷琉璃艺术博物馆,117.859607,36.499158,其他,文化场馆,傍晚,6.73
2024-07-16,淄博悦动乒乓球俱乐部,118.003041,36.841249,其他,体育场馆,深夜,4.91
2024-07-16,淄博悦动乒乓球俱乐部,118.003041,36.841249,其他,体育场馆,下午,6.0
2024-07-16,金信购物商场(中和街),117.850328,36.797387,其他,商场,傍晚,5.04
2024-07-16,金信购物商场(中和街),117.850328,36.797387,其他,商场,下午,5.02
2024-07-16,山东农业工程学院(淄博校区),117.934861,36.845859,其他,学校,下午,4.7
2024-07-16,山东农业工程学院(淄博校区),117.934861,36.845859,其他,学校,凌晨,4.6
2024-07-16,金岭清真寺,118.200501,36.799141,其他,旅游景点,上午,4.53
2024-07-16,旷野之息露营地,118.060419,36.903402,其他,体育场馆,下午,5.97
2024-07-16,淄博市博山区人民医院,117.861781,36.512727,其他,医院,凌晨,5.14
2024-07-16,淄博市博山区人民医院,117.861781,36.512727,其他,医院,上午,5.27
2024-07-16,淄博市红螺山公园,118.32544,36.789942,其他,公园,上午,5.11
2024-07-16,淄博市红螺山公园,118.32544,36.789942,其他,公园,凌晨,4.49
2024-07-16,山东省博山电力技工学校,117.85858,36.478547,其他,学校,下午,7.44
2024-07-16,齐都花园小学,118.289328,36.830072,其他,学校,晚上,3.69
2024-07-16,高青友好医院,117.860551,37.173783,其他,医院,下午,6.37
2024-07-16,孝妇河湿地公园喷泉广场,117.970314,36.801683,其他,公园,下午,6.54
2024-07-16,市民广场,118.017803,36.804819,其他,公园,晚上,5.05
2024-07-16,上地广场,118.295909,36.813781,其他,商场,深夜,2.76
2024-07-16,原山国家森林公园-吕祖庙,117.83522,36.478136,其他,旅游景点,晚上,4.68
2024-07-16,世纪东方购物中心,118.162663,36.185787,其他,商场,中午,5.9
2024-07-16,世纪东方购物中心,118.162663,36.185787,其他,商场,上午,6.48
2024-07-16,萌水医院,117.921402,36.727733,其他,医院,上午,4.93
2024-07-16,萌水医院,117.921402,36.727733,其他,医院,晚上,6.39
2024-07-16,恒泰游泳健身会馆,117.855636,36.479015,其他,体育场馆,深夜,3.04
2024-07-16,恒泰游泳健身会馆,117.855636,36.479015,其他,体育场馆,晚上,2.95
2024-07-16,王渔洋故居,117.943579,36.951573,其他,旅游景点,傍晚,7.48
2024-07-16,王渔洋故居,117.943579,36.951573,其他,旅游景点,下午,5.86
2024-07-16,谈小娱24h自助台球棋牌(莲池店),118.036283,36.831241,其他,体育场馆,上午,6.96
2024-07-16,谈小娱24h自助台球棋牌(莲池店),118.036283,36.831241,其他,体育场馆,深夜,3.59
2024-07-16,爵士西餐厅,118.084765,36.95831,其他,餐饮,晚上,6.24
2024-07-16,北金商场,118.192956,36.884658,其他,商场,凌晨,3.36
2024-07-16,北金商场,118.192956,36.884658,其他,商场,晚上,5.96
2024-07-16,旭阳灶台鱼,118.02153,36.765224,其他,餐饮,上午,5.5
2024-07-16,旭阳灶台鱼,118.02153,36.765224,其他,餐饮,下午,5.15
2024-07-16,周村古商城-三星庙,117.840331,36.799726,其他,旅游景点,晚上,4.52
2024-07-16,周村古商城-三星庙,117.840331,36.799726,其他,旅游景点,中午,7.15
2024-07-16,遄台老店骏阳凉皮,118.318082,36.817242,其他,餐饮,下午,5.8
2024-07-16,淄博市市级机关医院(人民西路),118.047769,36.814238,其他,医院,中午,5.43
2024-07-16,柳泉潜流湿地,117.937449,36.621568,其他,旅游景点,中午,6.0
2024-07-16,柳泉潜流湿地,117.937449,36.621568,其他,旅游景点,下午,5.78
2024-07-16,周村区第三医院,117.911525,36.825789,其他,医院,深夜,4.7
2024-07-16,张店天主教堂,118.059974,36.789464,其他,旅游景点,傍晚,7.58
2024-07-16,银座购物广场,118.033203,36.849245,其他,商场,深夜,4.2
2024-07-16,淄川天主堂,118.001386,36.639336,其他,旅游景点,傍晚,6.49
2024-07-16,淄川天主堂,118.001386,36.639336,其他,旅游景点,下午,4.58
2024-07-16,观音古寺,118.161694,36.365494,其他,旅游景点,凌晨,2.56
2024-07-16,TK彤德捞时尚火锅(星河街店),117.989331,36.799807,其他,餐饮,中午,4.89
2024-07-16,TK彤德捞时尚火锅(星河街店),117.989331,36.799807,其他,餐饮,上午,4.91
2024-07-16,淄博市中西医结合医院体检,118.058868,36.79356,其他,医院,下午,4.93
2024-07-16,淄博市中西医结合医院体检,118.058868,36.79356,其他,医院,傍晚,4.57
2024-07-16,淄博商厦周村家电广场,117.857922,36.807819,其他,商场,晚上,5.0
2024-07-16,淄博商厦周村家电广场,117.857922,36.807819,其他,商场,深夜,6.31
2024-07-16,周村体育馆,117.847984,36.789105,其他,体育场馆,深夜,4.91
2024-07-16,清正源饭店,118.210065,36.799794,其他,餐饮,下午,4.88
2024-07-16,清正源饭店,118.210065,36.799794,其他,餐饮,上午,7.11
2024-07-16,龙泉镇卫生院,117.97584,36.575459,其他,医院,深夜,3.01
2024-07-16,龙泉镇卫生院,117.97584,36.575459,其他,医院,凌晨,4.19
2024-07-16,八大局博物馆,118.063569,36.809082,其他,文化场馆,下午,4.46
2024-07-16,八大局博物馆,118.063569,36.809082,其他,文化场馆,晚上,4.23
2024-07-16,美瑞口腔,118.05072,36.808419,其他,公园,凌晨,5.3
2024-07-16,过桥缘过桥米线(水晶街店),118.003476,36.816582,其他,餐饮,深夜,4.87
2024-07-16,凡尔赛篮球运动中心,118.051511,36.854882,其他,体育场馆,深夜,4.4
2024-07-16,银泰商城,117.851987,36.798059,其他,商场,上午,6.01
2024-07-16,银泰商城,117.851987,36.798059,其他,商场,傍晚,5.04
2024-07-16,英才中学,118.302649,36.793456,其他,学校,凌晨,5.65
2024-07-16,英才中学,118.302649,36.793456,其他,学校,上午,4.77
2024-07-16,淦河公园,117.829743,36.808721,其他,公园,凌晨,3.16
2024-07-16,广凯久久鸭脖王,118.103084,36.960928,其他,餐饮,中午,4.71
2024-07-16,卫固医院,118.144778,36.867143,其他,医院,晚上,3.63
2024-07-16,卫固医院,118.144778,36.867143,其他,医院,上午,7.48
2024-07-16,三官庙,118.192014,36.453194,其他,旅游景点,上午,6.13
2024-07-16,桓台商厦,118.105225,36.959466,其他,商场,上午,5.9
2024-07-16,众羽羽毛球馆,118.002165,36.786206,其他,体育场馆,深夜,4.2
2024-07-16,众羽羽毛球馆,118.002165,36.786206,其他,体育场馆,上午,7.59
2024-07-16,印月茶舍(桓公花园一区店),118.285316,36.814362,其他,餐饮,上午,4.94
2024-07-16,印月茶舍(桓公花园一区店),118.285316,36.814362,其他,餐饮,中午,6.61
2024-07-16,瑷肯体育公园,118.06226,36.83922,其他,公园,中午,6.3
2024-07-16,瑷肯体育公园,118.06226,36.83922,其他,公园,上午,4.84
2024-07-16,建国私教健身会所(齐悦商业街店),117.987907,36.809122,其他,体育场馆,深夜,5.73
2024-07-16,张庄乡张庄村卫生室,118.066716,36.52363,其他,医院,深夜,2.82
2024-07-16,张庄乡张庄村卫生室,118.066716,36.52363,其他,医院,上午,5.39
2024-07-16,冰纷万象(淄博万象汇),118.061457,36.802568,其他,体育场馆,傍晚,5.21
2024-07-16,淄博高新区第八小学,118.145348,36.881161,其他,学校,傍晚,5.25
2024-07-16,淄博高新区第八小学,118.145348,36.881161,其他,学校,下午,4.43
2024-07-16,石头先生的烤炉(淄博博山店),117.860839,36.500122,其他,餐饮,上午,6.67
2024-07-16,淄川普安寺,117.884049,36.62809,其他,旅游景点,深夜,3.28
2024-07-16,淄川普安寺,117.884049,36.62809,其他,旅游景点,下午,5.8
2024-07-16,希尔顿国际广场(建设中),117.869006,36.821829,其他,公园,中午,3.69
2024-07-16,希尔顿国际广场(建设中),117.869006,36.821829,其他,公园,深夜,3.01
2024-07-16,淄博市博物馆,118.038234,36.80401,其他,文化场馆,凌晨,6.17
2024-07-16,黉阳休闲文化广场,118.037958,36.648249,其他,公园,傍晚,4.75
2024-07-16,淄博动物园-东北虎园区,118.149612,36.808627,其他,公园,傍晚,5.21
2024-07-16,淄博动物园-东北虎园区,118.149612,36.808627,其他,公园,中午,6.49
2024-07-16,澳宝徕跨境优品体验馆(锦秋小区店),118.098354,36.964971,其他,商场,中午,4.82
2024-07-16,中国课本博物馆,118.107847,36.831431,其他,文化场馆,傍晚,6.06
2024-07-17,江南濠景生态美食园,118.009609,36.805242,其他,餐饮,晚上,4.54
2024-07-17,江南濠景生态美食园,118.009609,36.805242,其他,餐饮,深夜,5.82
2024-07-17,周村区中小学生社会实践基地,117.859928,36.840135,其他,学校,下午,6.71
2024-07-17,南定镇崔军纪念堂,118.049097,36.739534,其他,旅游景点,深夜,5.37
2024-07-17,世纪花园-中心公园,118.020012,36.833157,其他,公园,下午,6.64
2024-07-17,世纪花园-中心公园,118.020012,36.833157,其他,公园,傍晚,4.92
2024-07-17,亨泰台球,118.04326,36.807013,其他,体育场馆,中午,4.43
2024-07-17,荣德医院,118.102162,36.848838,其他,医院,下午,5.92
2024-07-17,城北广场,117.977157,36.653772,其他,公园,下午,5.87
2024-07-17,邱氏瓜子干果老店(城里大街店),117.964129,36.646437,其他,餐饮,傍晚,7.06
2024-07-17,邱氏瓜子干果老店(城里大街店),117.964129,36.646437,其他,餐饮,下午,6.07
2024-07-17,福润斯游泳健身会所,118.05429,36.805671,其他,体育场馆,深夜,4.32
2024-07-17,淄博实验中学,118.008153,36.801282,其他,学校,深夜,3.71
2024-07-17,活力城,117.868293,36.799214,其他,商场,中午,7.51
2024-07-17,心福烤鱼店,118.014583,36.791268,其他,餐饮,晚上,5.38
2024-07-17,心福烤鱼店,118.014583,36.791268,其他,餐饮,傍晚,7.07
2024-07-17,张店区人民医院,118.072384,36.817652,其他,医院,晚上,3.97
2024-07-17,淄川普安寺,117.884049,36.62809,其他,旅游景点,深夜,4.91
2024-07-17,淄博市第一医院北院区,117.877401,36.532754,其他,医院,上午,4.89
2024-07-17,淄博市第一医院北院区,117.877401,36.532754,其他,医院,晚上,3.14
2024-07-17,淄博星空台球(水晶街店),118.003627,36.816338,其他,体育场馆,中午,6.49
2024-07-17,淄博星空台球(水晶街店),118.003627,36.816338,其他,体育场馆,深夜,5.41
2024-07-17,桉树披萨(淄川店),117.976008,36.644428,其他,餐饮,傍晚,5.5
2024-07-17,小西湖公园,118.036667,36.808819,其他,公园,深夜,6.29
2024-07-17,千佛寺,117.84068,36.801278,其他,旅游景点,深夜,6.13
2024-07-17,步步高鸽子府,118.314622,36.806359,其他,餐饮,深夜,6.02
2024-07-17,步步高鸽子府,118.314622,36.806359,其他,餐饮,傍晚,6.56
2024-07-17,般阳中学,117.915619,36.656604,其他,学校,深夜,5.68
2024-07-17,般阳中学,117.915619,36.656604,其他,学校,中午,6.8
2024-07-17,幽幽谷,118.080758,36.323183,其他,旅游景点,中午,7.55
2024-07-17,幽幽谷,118.080758,36.323183,其他,旅游景点,晚上,4.38
2024-07-17,小燕子窝(中润·华侨城十五组团店),118.031897,36.835967,其他,餐饮,傍晚,4.72
2024-07-17,小燕子窝(中润·华侨城十五组团店),118.031897,36.835967,其他,餐饮,上午,5.04
2024-07-17,清真寺,117.988974,36.630483,其他,旅游景点,上午,6.88
2024-07-17,孙廷铨故居,117.856617,36.49113,其他,旅游景点,下午,5.84
2024-07-17,孙廷铨故居,117.856617,36.49113,其他,旅游景点,傍晚,7.53
2024-07-17,云景轩酒店,118.178571,36.206609,其他,餐饮,傍晚,6.25
2024-07-17,云景轩酒店,118.178571,36.206609,其他,餐饮,深夜,2.89
2024-07-17,英豪东方明珠大酒店,118.076972,36.816286,其他,餐饮,中午,5.41
2024-07-17,英豪东方明珠大酒店,118.076972,36.816286,其他,餐饮,深夜,3.21
2024-07-17,峨嵋山公园,117.863174,36.486709,其他,公园,晚上,4.18
2024-07-17,谈小娱24h自助台球(水晶街店),118.005781,36.81618,其他,体育场馆,傍晚,6.26
2024-07-17,佳惠新天地生活广场,118.187319,36.192233,其他,商场,晚上,4.66
2024-07-17,佳惠新天地生活广场,118.187319,36.192233,其他,商场,下午,7.46
2024-07-17,海棠居(农广大厦店),118.01476,36.829155,其他,餐饮,凌晨,3.69
2024-07-17,海棠居(农广大厦店),118.01476,36.829155,其他,餐饮,下午,6.82
2024-07-17,壹加壹(后埠新村店),118.083719,36.936016,其他,商场,中午,3.85
2024-07-17,壹加壹(后埠新村店),118.083719,36.936016,其他,商场,凌晨,5.11
2024-07-17,淄博新区水系公园,117.989777,36.820477,其他,旅游景点,深夜,5.51
2024-07-17,中心公园,118.257746,36.765129,其他,公园,深夜,2.45
2024-07-17,高青县实验中学,117.819735,37.165726,其他,学校,上午,7.18
2024-07-17,天清·栖溪源休闲旅游区,118.185972,36.11547,其他,旅游景点,晚上,4.44
2024-07-17,美博·嘉汇文具,118.00206,36.804644,其他,文化场馆,凌晨,3.38
2024-07-17,新泰炒鸡园,117.944106,36.633606,其他,餐饮,深夜,3.68
2024-07-17,新泰炒鸡园,117.944106,36.633606,其他,餐饮,下午,6.2
2024-07-17,博山山头周氏顺祥斋,117.87409,36.465945,其他,旅游景点,下午,5.11
2024-07-17,博山山头周氏顺祥斋,117.87409,36.465945,其他,旅游景点,中午,4.61
2024-07-17,闻韶园,118.307337,36.816489,其他,公园,晚上,3.98
2024-07-17,六六六茶楼(淄博新世界商业街店),118.041544,36.807183,其他,餐饮,上午,5.45
2024-07-17,中国琉璃艺术殿堂,117.853656,36.488408,其他,旅游景点,深夜,5.19
2024-07-17,中国琉璃艺术殿堂,117.853656,36.488408,其他,旅游景点,晚上,4.1
2024-07-17,万海格斗,118.060994,36.807167,其他,体育场馆,凌晨,4.74
2024-07-17,世纪花园小学,118.02149,36.830225,其他,学校,上午,6.04
2024-07-17,金甫庄园(前进居民生活区西),117.820195,36.801265,其他,餐饮,傍晚,6.75
2024-07-17,金甫庄园(前进居民生活区西),117.820195,36.801265,其他,餐饮,下午,4.03
2024-07-17,卧虎山森林公园,117.795732,36.597132,其他,公园,晚上,4.89
2024-07-17,卧虎山森林公园,117.795732,36.597132,其他,公园,下午,4.58
2024-07-17,鲁村中心卫生院,118.048379,36.195733,其他,医院,傍晚,7.26
2024-07-17,鲁村中心卫生院,118.048379,36.195733,其他,医院,凌晨,2.96
2024-07-17,东良进口商品(桓台店),118.093213,36.952988,其他,商场,傍晚,4.85
2024-07-17,东良进口商品(桓台店),118.093213,36.952988,其他,商场,深夜,3.36
2024-07-17,壹玖健身会,117.979273,36.845252,其他,体育场馆,下午,6.88
2024-07-17,周村区第三医院,117.911525,36.825789,其他,医院,深夜,4.96
2024-07-17,周村区第三医院,117.911525,36.825789,其他,医院,下午,6.27
2024-07-17,马尚中心卫生院,117.995696,36.81971,其他,医院,下午,6.39
2024-07-17,铝城购物中心,118.045266,36.753116,其他,商场,深夜,5.02
2024-07-17,铝城购物中心,118.045266,36.753116,其他,商场,傍晚,5.44
2024-07-17,淄博电子工程学校,118.152562,36.187551,其他,学校,晚上,5.18
2024-07-17,齐悦实验小学,117.980875,36.813464,其他,学校,凌晨,3.71
2024-07-17,美达百货购物中心,118.058979,36.801199,其他,商场,下午,5.9
2024-07-17,化建医院(北院区),118.230834,36.738786,其他,医院,深夜,5.56
2024-07-17,化建医院(北院区),118.230834,36.738786,其他,医院,中午,4.89
2024-07-17,傅山自然地质博物馆,118.132336,36.878484,其他,文化场馆,凌晨,3.76
2024-07-17,联通路169号红星欧丽洛雅商场,118.010594,36.829104,其他,商场,下午,6.74
2024-07-17,沂源县沂河源学校,118.190142,36.195699,其他,学校,中午,4.71
2024-07-17,沂源县沂河源学校,118.190142,36.195699,其他,学校,晚上,3.62
2024-07-17,马桥植物园,117.917271,37.035436,其他,公园,下午,5.87
2024-07-17,昆仑山玉皇宫,117.899978,36.591192,其他,旅游景点,晚上,5.27
2024-07-17,昆仑山玉皇宫,117.899978,36.591192,其他,旅游景点,凌晨,6.05
2024-07-17,黄河楼博物馆,117.889672,37.259592,其他,文化场馆,晚上,5.37
2024-07-17,猪龙河生态公园,118.04949,36.804743,其他,公园,中午,5.89
2024-07-17,淄博稷下实验学校,117.965198,36.816474,其他,学校,凌晨,5.06
2024-07-17,谭家菜馆,118.069649,36.842852,其他,餐饮,深夜,3.87
2024-07-17,谭家菜馆,118.069649,36.842852,其他,餐饮,晚上,4.78
2024-07-17,梓橦山旅游区,118.03096,36.665088,其他,旅游景点,凌晨,4.69
2024-07-17,梓橦山旅游区,118.03096,36.665088,其他,旅游景点,深夜,4.6
2024-07-17,华岩寺,117.842443,36.613711,其他,旅游景点,深夜,3.24
2024-07-17,莲花山公园,117.894789,36.519279,其他,公园,凌晨,4.05
2024-07-18,杨寨塔,117.992288,36.716165,其他,旅游景点,深夜,3.99
2024-07-18,张店区第九中学,118.022021,36.815689,其他,学校,深夜,4.49
2024-07-18,金甫庄园(前进居民生活区西),117.820195,36.801265,其他,餐饮,凌晨,4.26
2024-07-18,自由界健身游泳俱乐部,118.32318,36.812518,其他,体育场馆,中午,5.71
2024-07-18,淄川小箭扣,118.060602,36.452925,其他,旅游景点,傍晚,6.36
2024-07-18,淄川小箭扣,118.060602,36.452925,其他,旅游景点,凌晨,3.09
2024-07-18,清正源饭店,118.210065,36.799794,其他,餐饮,凌晨,3.19
2024-07-18,桥下公园,117.968623,36.851769,其他,公园,晚上,6.23
2024-07-18,利群时代(柳泉路店),118.047509,36.801921,其他,商场,晚上,3.6
2024-07-18,利群时代(柳泉路店),118.047509,36.801921,其他,商场,中午,3.3
2024-07-18,博山区博山镇中心卫生院,117.963515,36.382327,其他,医院,下午,6.59
2024-07-18,陈小二炒鸡(润生家园店),118.188699,36.189234,其他,餐饮,凌晨,3.03
2024-07-18,六六六茶楼(淄博新世界商业街店),118.041544,36.807183,其他,餐饮,凌晨,1.91
2024-07-18,山东铝业职业学院,118.048078,36.75552,其他,学校,中午,5.67
2024-07-18,山东铝业职业学院,118.048078,36.75552,其他,学校,深夜,4.37
2024-07-18,九级村新时代文化广场,118.021111,36.817354,其他,公园,上午,5.46
2024-07-18,荣耀广场,117.9893,36.829735,其他,公园,凌晨,4.7
2024-07-18,荣耀广场,117.9893,36.829735,其他,公园,傍晚,7.45
2024-07-18,临淄区闻韶银山百货商场(方正2009小区店),118.331701,36.817583,其他,商场,下午,6.78
2024-07-18,临淄区闻韶银山百货商场(方正2009小区店),118.331701,36.817583,其他,商场,中午,7.67
2024-07-18,富丽商城,118.056526,36.805114,其他,商场,上午,6.02
2024-07-18,淄博国际会展中心,117.996092,36.790779,其他,文化场馆,凌晨,3.79
2024-07-18,淄博国际会展中心,117.996092,36.790779,其他,文化场馆,深夜,5.68
2024-07-18,鲁泰文苑动物园,117.99668,36.64233,其他,公园,中午,4.64
2024-07-18,中铝党校,118.047129,36.756803,其他,学校,中午,6.93
2024-07-18,中铝党校,118.047129,36.756803,其他,学校,深夜,5.92
2024-07-18,临淄区道德主题公园,118.303875,36.819506,其他,公园,傍晚,6.28
2024-07-18,临淄区道德主题公园,118.303875,36.819506,其他,公园,下午,5.13
2024-07-18,杨寨卫生院,117.992947,36.710863,其他,医院,下午,5.34
2024-07-18,圣佛山,118.362109,36.190447,其他,旅游景点,晚上,3.36
2024-07-18,博弈台球俱乐部天玺淄博旗舰店,118.032176,36.810442,其他,体育场馆,下午,7.25
2024-07-18,博弈台球俱乐部天玺淄博旗舰店,118.032176,36.810442,其他,体育场馆,中午,5.19
2024-07-18,欢乐新街,117.848859,36.793297,其他,商场,晚上,6.13
2024-07-18,欢乐新街,117.848859,36.793297,其他,商场,中午,4.58
2024-07-18,名鲁中医院,118.05981,36.797687,其他,医院,深夜,5.03
2024-07-18,名鲁中医院,118.05981,36.797687,其他,医院,下午,6.15
2024-07-18,沂河源水景公园,118.154262,36.190032,其他,公园,傍晚,4.28
2024-07-18,沂河源水景公园,118.154262,36.190032,其他,公园,中午,4.08
2024-07-18,北关小学,117.968487,36.650962,其他,学校,上午,6.48
2024-07-18,亨泰台球,118.04326,36.807013,其他,体育场馆,傍晚,4.64
2024-07-18,亨泰台球,118.04326,36.807013,其他,体育场馆,凌晨,5.31
2024-07-18,旭阳灶台鱼,118.02153,36.765224,其他,餐饮,中午,5.35
2024-07-18,山东理工大学大学生艺术广场,117.999815,36.812747,其他,公园,傍晚,4.99
2024-07-18,山东理工大学大学生艺术广场,117.999815,36.812747,其他,公园,上午,7.14
2024-07-18,淄博市张店区第四中学,118.088207,36.753633,其他,学校,中午,5.39
2024-07-18,山东理工大学信息楼,118.004206,36.80863,其他,文化场馆,晚上,4.53
2024-07-18,周村古商城-三星庙,117.840331,36.799726,其他,旅游景点,傍晚,5.38
2024-07-18,齐都花园小学,118.289328,36.830072,其他,学校,上午,6.7
2024-07-18,顺河羊肉馆,118.226861,36.20498,其他,餐饮,下午,5.78
2024-07-18,顺河羊肉馆,118.226861,36.20498,其他,餐饮,深夜,5.71
2024-07-18,稷下学宫遗址(不对外开放),118.332365,36.853936,其他,旅游景点,傍晚,6.6
2024-07-18,半天妖烤鱼(淄博沂源义乌新天地店),118.186794,36.192584,其他,餐饮,深夜,4.43
2024-07-18,半天妖烤鱼(淄博沂源义乌新天地店),118.186794,36.192584,其他,餐饮,中午,7.22
2024-07-18,十六台球器材,118.284746,36.814537,其他,体育场馆,下午,5.63
2024-07-18,公社炒鸡老菜馆(八大局店),118.075206,36.808527,其他,餐饮,下午,4.51
2024-07-18,公社炒鸡老菜馆(八大局店),118.075206,36.808527,其他,餐饮,中午,5.5
2024-07-18,淄博张店东方双语学校,118.001771,36.799963,其他,学校,上午,7.54
2024-07-18,淄博张店东方双语学校,118.001771,36.799963,其他,学校,下午,4.78
2024-07-18,腾勃台球俱乐部,118.082624,36.950303,其他,体育场馆,深夜,6.89
2024-07-18,腾勃台球俱乐部,118.082624,36.950303,其他,体育场馆,下午,5.22
2024-07-18,万益农业生态观光园,118.149011,36.531756,其他,公园,深夜,3.23
2024-07-18,万益农业生态观光园,118.149011,36.531756,其他,公园,晚上,5.13
2024-07-18,奎三广场,117.937206,36.563022,其他,公园,凌晨,4.58
2024-07-18,奎三广场,117.937206,36.563022,其他,公园,中午,4.68
2024-07-18,湖田考场,118.11584,36.795345,其他,文化场馆,深夜,4.6
2024-07-18,活力广场,118.063957,36.867657,其他,公园,中午,5.73
2024-07-18,红莲湖公园西湖区,118.065928,36.935049,其他,公园,晚上,5.98
2024-07-18,刘煜拳击馆,117.987399,36.814711,其他,体育场馆,凌晨,6.33
2024-07-18,刘煜拳击馆,117.987399,36.814711,其他,体育场馆,晚上,4.59
2024-07-18,淄博少海医院,118.090097,36.958442,其他,医院,中午,5.26
2024-07-18,银座商城(沂源店),118.155451,36.186046,其他,商场,傍晚,4.6
2024-07-18,银座商城(沂源店),118.155451,36.186046,其他,商场,下午,5.82
2024-07-18,高青县革命历史纪念馆,117.792837,37.182566,其他,旅游景点,中午,4.92
2024-07-18,高青县革命历史纪念馆,117.792837,37.182566,其他,旅游景点,凌晨,5.98
2024-07-18,云水瑶风景区,118.230763,36.367618,其他,旅游景点,上午,4.75
2024-07-18,博山区八陡镇卫生院,117.915515,36.455647,其他,医院,上午,4.83
2024-07-18,博山区八陡镇卫生院,117.915515,36.455647,其他,医院,凌晨,3.64
2024-07-18,桓台县马桥镇中心卫生院,117.920237,37.038991,其他,医院,凌晨,5.29
2024-07-18,桓台县马桥镇中心卫生院,117.920237,37.038991,其他,医院,深夜,2.37
2024-07-18,桓台济民医院,118.096603,36.958596,其他,医院,下午,6.88
2024-07-18,桓台济民医院,118.096603,36.958596,其他,医院,凌晨,2.82
2024-07-18,临淄北站站前广场,118.34047,36.904714,其他,公园,上午,5.97
2024-07-18,留仙谷清风寺,118.052826,36.603576,其他,旅游景点,下午,4.77
2024-07-18,临淄足球博物馆,118.367909,36.813655,其他,文化场馆,凌晨,5.94
2024-07-18,临淄足球博物馆,118.367909,36.813655,其他,文化场馆,晚上,5.31
2024-07-18,黑铁山抗日武装起义纪念馆,118.159912,36.843977,其他,旅游景点,上午,5.39
2024-07-18,平安殿,117.855097,36.542447,其他,旅游景点,上午,6.13
2024-07-18,平安殿,117.855097,36.542447,其他,旅游景点,中午,5.04
2024-07-18,周村区人民医院,117.869467,36.820009,其他,医院,中午,5.73
2024-07-18,淄博外国语实验学校,117.987589,36.636598,其他,学校,凌晨,4.76
2024-07-18,淄博外国语实验学校,117.987589,36.636598,其他,学校,深夜,3.48
2024-07-18,金百盛商场,117.854008,36.794975,其他,商场,晚上,7.03
2024-07-18,大悲庵,117.774087,36.631927,其他,旅游景点,中午,5.77
2024-07-18,大悲庵,117.774087,36.631927,其他,旅游景点,傍晚,4.93
2024-07-18,淄博聊斋城景区,118.016053,36.62869,其他,旅游景点,晚上,4.33
2024-07-18,淄博聊斋城景区,118.016053,36.62869,其他,旅游景点,深夜,3.76
2024-07-18,王母祠,118.003392,36.707352,其他,旅游景点,凌晨,3.64
2024-07-18,王母祠,118.003392,36.707352,其他,旅游景点,上午,5.76
2024-07-18,南定小学,118.052121,36.741479,其他,学校,上午,6.2
2024-07-18,世纪花园小学,118.02149,36.830225,其他,学校,晚上,3.45
2024-07-18,张店区人民医院(南院区),118.059541,36.791552,其他,医院,晚上,4.87
2024-07-18,彩世界精品皮草广场,118.029104,36.822275,其他,商场,中午,3.66
2024-07-18,彩世界精品皮草广场,118.029104,36.822275,其他,商场,下午,6.52
2024-07-19,桓台县中医院门诊部,118.098523,36.967718,其他,医院,中午,5.18
2024-07-19,桓台县人民医院,118.093414,36.945519,其他,医院,深夜,4.5
2024-07-19,桓台县人民医院,118.093414,36.945519,其他,医院,中午,5.87
2024-07-19,张店区特殊教育中心学校,118.052517,36.797538,其他,学校,中午,6.49
2024-07-19,果里医院,118.078742,36.903025,其他,医院,中午,5.96
2024-07-19,果里医院,118.078742,36.903025,其他,医院,上午,4.95
2024-07-19,留仙谷清风寺,118.052826,36.603576,其他,旅游景点,下午,6.62
2024-07-19,留仙谷清风寺,118.052826,36.603576,其他,旅游景点,傍晚,5.22
2024-07-19,银座商城超市(柳泉路店),118.050484,36.805618,其他,商场,凌晨,3.93
2024-07-19,银座商城超市(柳泉路店),118.050484,36.805618,其他,商场,晚上,5.18
2024-07-19,Mr.Sun凉皮铺子(天隆购物广场店),117.861202,36.503338,其他,餐饮,晚上,6.18
2024-07-19,Mr.Sun凉皮铺子(天隆购物广场店),117.861202,36.503338,其他,餐饮,中午,5.69
2024-07-19,金肥牛火锅(周村店),117.867133,36.804521,其他,餐饮,中午,6.0
2024-07-19,高青县青城卫生院,117.689242,37.177882,其他,医院,中午,4.43
2024-07-19,忠勤祠,117.940969,36.950379,其他,旅游景点,深夜,5.26
2024-07-19,齐故城排水道口,118.343869,36.890737,其他,旅游景点,傍晚,7.24
2024-07-19,齐故城排水道口,118.343869,36.890737,其他,旅游景点,晚上,4.62
2024-07-19,万海格斗,118.060994,36.807167,其他,体育场馆,深夜,2.61
2024-07-19,化建医院(北院区),118.230834,36.738786,其他,医院,中午,6.04
2024-07-19,李家疃明清建筑群,117.699341,36.661727,其他,旅游景点,傍晚,7.5
2024-07-19,李家疃明清建筑群,117.699341,36.661727,其他,旅游景点,晚上,6.07
2024-07-19,陶涛羽毛球训练营(利群时代广场店),118.047869,36.80187,其他,体育场馆,深夜,5.37
2024-07-19,陶涛羽毛球训练营(利群时代广场店),118.047869,36.80187,其他,体育场馆,下午,5.79
2024-07-19,金茵小学,118.318705,36.827676,其他,学校,深夜,4.64
2024-07-19,金茵小学,118.318705,36.827676,其他,学校,傍晚,5.68
2024-07-19,TT台球俱乐部,117.97484,36.639349,其他,体育场馆,深夜,3.87
2024-07-19,广利来(步行街店),117.852554,36.80653,其他,餐饮,傍晚,6.06
2024-07-19,广利来(步行街店),117.852554,36.80653,其他,餐饮,下午,5.89
2024-07-19,球小牛24h自助台球,117.965372,36.650305,其他,体育场馆,傍晚,7.73
2024-07-19,球小牛24h自助台球,117.965372,36.650305,其他,体育场馆,下午,4.27
2024-07-19,观音庙,118.054502,36.618347,其他,旅游景点,上午,6.67
2024-07-19,淄博市市级机关医院,118.055697,36.811686,其他,医院,下午,5.03
2024-07-19,黄桑别院,118.025778,36.812851,其他,餐饮,下午,5.14
2024-07-19,黄桑别院,118.025778,36.812851,其他,餐饮,深夜,6.36
2024-07-19,陈庄公园,117.917705,37.008687,其他,公园,凌晨,2.06
2024-07-19,火炬公园,118.053802,36.837551,其他,公园,上午,5.84
2024-07-19,火炬公园,118.053802,36.837551,其他,公园,中午,5.78
2024-07-19,金陵寺-伽蓝殿,118.20056,36.925468,其他,旅游景点,上午,6.23
2024-07-19,金陵寺-伽蓝殿,118.20056,36.925468,其他,旅游景点,晚上,3.68
2024-07-19,安澜湾,117.896269,37.260744,其他,旅游景点,傍晚,8.14
2024-07-19,安澜湾,117.896269,37.260744,其他,旅游景点,中午,5.14
2024-07-19,桉树披萨(沂源店),118.169001,36.185571,其他,餐饮,下午,6.16
2024-07-19,淄博市职业病防治院,118.011185,36.835737,其他,医院,下午,4.58
2024-07-19,沂源县历山中学,118.161848,36.191321,其他,学校,下午,6.98
2024-07-19,鲁村中心卫生院,118.048379,36.195733,其他,医院,下午,5.73
2024-07-19,鲁村中心卫生院,118.048379,36.195733,其他,医院,晚上,4.85
2024-07-19,木和烤肉饭-重庆一绝渝香米线,117.852712,36.799754,其他,餐饮,凌晨,3.42
2024-07-19,淄博市文化馆,117.98608,36.827249,其他,文化场馆,下午,7.8
2024-07-19,周村区王村中学,117.738521,36.684451,其他,学校,上午,6.64
2024-07-19,周村区王村中学,117.738521,36.684451,其他,学校,中午,6.27
2024-07-19,福记小馆(朝阳花苑凯旋城店),117.871797,36.811256,其他,餐饮,晚上,4.35
2024-07-19,福记小馆(朝阳花苑凯旋城店),117.871797,36.811256,其他,餐饮,傍晚,5.78
2024-07-19,雪宫小学,118.303573,36.818514,其他,学校,下午,4.97
2024-07-19,雪宫小学,118.303573,36.818514,其他,学校,傍晚,7.69
2024-07-19,旭阳灶台鱼,118.02153,36.765224,其他,餐饮,晚上,6.01
2024-07-19,流苏园,117.918142,36.823744,其他,公园,晚上,5.66
2024-07-19,流苏园,117.918142,36.823744,其他,公园,上午,7.8
2024-07-19,温州商厦,117.958171,36.642203,其他,商场,傍晚,5.76
2024-07-19,K+桌球俱乐部(淄博鑫马吾悦广场店),118.003242,36.825405,其他,体育场馆,晚上,5.12
2024-07-19,炒米山生态风景区,118.131667,36.762922,其他,旅游景点,中午,5.36
2024-07-19,牛记庵古村落,117.808905,36.579246,其他,旅游景点,晚上,4.42
2024-07-19,喜力私教健身(华润店),118.060887,36.803298,其他,体育场馆,中午,5.37
2024-07-19,淄博市中西医结合医院体检,118.058868,36.79356,其他,医院,深夜,5.64
2024-07-19,淄博市中西医结合医院体检,118.058868,36.79356,其他,医院,上午,6.14
2024-07-19,银泰城,118.034922,36.848671,其他,商场,傍晚,6.0
2024-07-19,临淄蹴鞠小镇,118.371823,36.805196,其他,体育场馆,凌晨,4.79
2024-07-19,临淄蹴鞠小镇,118.371823,36.805196,其他,体育场馆,中午,6.21
2024-07-19,临淄区金山中心卫生院,118.171296,36.706079,其他,医院,中午,4.68
2024-07-19,飞龙台球会馆,118.05094,36.809874,其他,体育场馆,深夜,3.52
2024-07-19,飞龙台球会馆,118.05094,36.809874,其他,体育场馆,晚上,6.26
2024-07-19,山东煤炭技术学院,117.985255,36.635242,其他,学校,中午,6.24
2024-07-19,裕翔球馆,118.041251,36.84489,其他,体育场馆,下午,5.39
2024-07-19,裕翔球馆,118.041251,36.84489,其他,体育场馆,中午,4.61
2024-07-19,淄博商厦周村家电广场,117.857922,36.807819,其他,商场,中午,5.52
2024-07-19,淄博商厦周村家电广场,117.857922,36.807819,其他,商场,晚上,5.23
2024-07-19,荣德医院,118.102162,36.848838,其他,医院,中午,5.82
2024-07-19,荣德医院,118.102162,36.848838,其他,医院,傍晚,6.63
2024-07-19,英豪东方明珠大酒店,118.076972,36.816286,其他,餐饮,凌晨,3.86
2024-07-19,博山人民公园,117.855,36.496169,其他,公园,中午,5.55
2024-07-19,博山人民公园,117.855,36.496169,其他,公园,上午,7.55
2024-07-19,淄博市张店区融媒体中心,118.0451,36.796042,其他,文化场馆,中午,6.17
2024-07-19,淄博市张店区融媒体中心,118.0451,36.796042,其他,文化场馆,深夜,4.95
2024-07-19,公社炒鸡老菜馆(八大局店),118.075206,36.808527,其他,餐饮,中午,3.74
2024-07-19,公社炒鸡老菜馆(八大局店),118.075206,36.808527,其他,餐饮,傍晚,6.74
2024-07-19,淄博商厦,118.058471,36.802055,其他,商场,深夜,3.69
2024-07-19,氧气私教健身会所(义乌店),118.024109,36.822686,其他,体育场馆,傍晚,5.38
2024-07-19,氧气私教健身会所(义乌店),118.024109,36.822686,其他,体育场馆,上午,6.81
2024-07-19,齐盛健身工作室,117.999041,36.844338,其他,体育场馆,上午,4.97
2024-07-19,临淄实验中学,118.281588,36.817591,其他,学校,凌晨,5.01
2024-07-19,典雅服装商场,117.988939,36.74058,其他,商场,傍晚,5.51
2024-07-19,典雅服装商场,117.988939,36.74058,其他,商场,深夜,5.09
2024-07-19,文姜公园,117.895912,36.402253,其他,公园,傍晚,6.29
2024-07-19,文姜公园,117.895912,36.402253,其他,公园,深夜,4.2
2024-07-19,红军师师史馆,118.040402,36.814645,其他,旅游景点,晚上,4.7
2024-07-19,红军师师史馆,118.040402,36.814645,其他,旅游景点,傍晚,4.45
2024-07-19,齐文化博物馆,118.364788,36.813558,其他,文化场馆,深夜,4.75
2024-07-19,齐文化博物馆,118.364788,36.813558,其他,文化场馆,下午,4.66
2024-07-19,淄博商厦(博山店),117.857579,36.511671,其他,商场,深夜,5.34
2024-07-19,临淄齐国故城考古遗址公园,118.344057,36.890173,其他,公园,深夜,4.58
2024-07-19,临淄齐国故城考古遗址公园,118.344057,36.890173,其他,公园,凌晨,4.84
2024-07-19,淄博市实验幼儿园,117.977691,36.820993,其他,学校,中午,4.27
2024-07-19,淄博大众医院,118.04198,36.798201,其他,医院,凌晨,2.89
2024-07-19,淄博大众医院,118.04198,36.798201,其他,医院,上午,5.93
2024-07-19,旗胜足球场,118.024355,36.773073,其他,体育场馆,中午,5.52
2024-07-19,旗胜足球场,118.024355,36.773073,其他,体育场馆,深夜,4.32
2024-07-19,鸿运蛤蜊鸡(周村总店),117.852972,36.810731,其他,餐饮,中午,6.52
2024-07-19,鸿运蛤蜊鸡(周村总店),117.852972,36.810731,其他,餐饮,凌晨,2.92
2024-07-19,华润实验小学,118.064116,36.801975,其他,学校,深夜,3.5
2024-07-19,华润实验小学,118.064116,36.801975,其他,学校,傍晚,6.58
2024-07-20,动力100游泳健身(荣盛广场店),117.999996,36.825192,其他,体育场馆,上午,6.92
2024-07-20,潘庄高级中学,118.060365,36.823397,其他,学校,上午,7.74
2024-07-20,潘庄高级中学,118.060365,36.823397,其他,学校,晚上,4.15
2024-07-20,虾时代(沂源店),118.156895,36.185217,其他,餐饮,下午,4.61
2024-07-20,玉垚凉皮(山铝店),118.045764,36.753859,其他,餐饮,下午,5.96
2024-07-20,玉垚凉皮(山铝店),118.045764,36.753859,其他,餐饮,中午,5.05
2024-07-20,环青院,117.923222,36.737138,其他,旅游景点,上午,5.25
2024-07-20,君爵桌球俱乐部,117.974739,36.638948,其他,体育场馆,傍晚,6.31
2024-07-20,君爵桌球俱乐部,117.974739,36.638948,其他,体育场馆,晚上,4.79
2024-07-20,遄台小学,118.321962,36.814051,其他,学校,深夜,3.78
2024-07-20,遄台小学,118.321962,36.814051,其他,学校,上午,8.36
2024-07-20,由熙(尚美店),118.037704,36.810171,其他,餐饮,中午,5.39
2024-07-20,中濠饭店(海岱楼店),117.998939,36.844294,其他,餐饮,上午,6.72
2024-07-20,中濠饭店(海岱楼店),117.998939,36.844294,其他,餐饮,中午,8.08
2024-07-20,淄博市中心医院,118.053088,36.807533,其他,医院,中午,5.17
2024-07-20,沂河头村文化广场,118.244623,36.172628,其他,公园,晚上,6.94
2024-07-20,淄博张店中鲁中医院,118.063233,36.811867,其他,医院,深夜,5.27
2024-07-20,齐山风景区,118.199833,36.5147,其他,旅游景点,上午,7.67
2024-07-20,齐山风景区,118.199833,36.5147,其他,旅游景点,深夜,3.19
2024-07-20,又一村上善坊大酒店,118.064212,36.814454,其他,餐饮,上午,6.45
2024-07-20,又一村上善坊大酒店,118.064212,36.814454,其他,餐饮,晚上,6.94
2024-07-20,成语公园,117.985906,36.696047,其他,公园,傍晚,7.54
2024-07-20,桓台县第二小学,118.093883,36.955014,其他,学校,晚上,4.2
2024-07-20,桓台县第二小学,118.093883,36.955014,其他,学校,中午,6.17
2024-07-20,易达广场,117.837451,36.497742,其他,商场,深夜,6.55
2024-07-20,来力台球俱乐部(文昌路店),117.890451,36.661357,其他,体育场馆,凌晨,4.79
2024-07-20,零度台球,118.300082,36.813906,其他,体育场馆,上午,6.2
