日期,地点名称,经度,纬度,区域,类型,时间段,情绪值
2024-12-01,下湖村文化广场,118.124776,36.787054,其他,公园,傍晚,4.79
2024-12-01,下湖村文化广场,118.124776,36.787054,其他,公园,中午,6.14
2024-12-01,中德智能制造产教融合示范基地,118.112588,36.830991,其他,文化场馆,凌晨,5.2
2024-12-01,枫山禅院,118.210212,36.455976,其他,旅游景点,晚上,6.11
2024-12-01,石炊百味云南蒸汽石锅鱼,118.01485,36.791229,其他,餐饮,傍晚,6.04
2024-12-01,石炊百味云南蒸汽石锅鱼,118.01485,36.791229,其他,餐饮,下午,6.5
2024-12-01,圆心楼商城,117.844755,36.618944,其他,商场,凌晨,6.14
2024-12-01,高新区四宝山卫生院,118.099801,36.821775,其他,医院,上午,8.46
2024-12-01,高新区四宝山卫生院,118.099801,36.821775,其他,医院,晚上,7.44
2024-12-01,自贸免税商城(建设中),118.055953,36.845954,其他,商场,傍晚,5.38
2024-12-01,金太阳商场,118.166734,36.185648,其他,商场,中午,7.68
2024-12-01,金太阳商场,118.166734,36.185648,其他,商场,深夜,6.32
2024-12-01,桓台县马桥镇中心卫生院,117.920237,37.038991,其他,医院,中午,6.61
2024-12-01,临淄区中医医院,118.303243,36.801864,其他,医院,凌晨,4.37
2024-12-01,临淄区中医医院,118.303243,36.801864,其他,医院,傍晚,7.97
2024-12-01,杨光会重庆鲜货火锅,117.847591,36.502307,其他,餐饮,上午,5.53
2024-12-01,孙庄党建主题公园,118.123778,36.846458,其他,公园,晚上,5.07
2024-12-01,淄博市第一医院北院区,117.877401,36.532754,其他,医院,凌晨,5.08
2024-12-01,蒲松龄纪念馆,118.011484,36.630581,其他,旅游景点,上午,6.78
2024-12-01,球小牛24h自助台球,117.965372,36.650305,其他,体育场馆,中午,6.98
2024-12-01,欧巴春川铁板鸡(吉祥路商业街店),117.971771,36.654814,其他,餐饮,深夜,3.91
2024-12-01,雁阳小学,118.001471,36.653546,其他,学校,上午,8.37
2024-12-01,天清·栖溪源休闲旅游区,118.185972,36.11547,其他,旅游景点,傍晚,6.46
2024-12-01,天清·栖溪源休闲旅游区,118.185972,36.11547,其他,旅游景点,下午,5.53
2024-12-01,西寨煎饼-猪头肉(西寨小区店),117.855764,36.499442,其他,餐饮,晚上,5.39
2024-12-01,西寨煎饼-猪头肉(西寨小区店),117.855764,36.499442,其他,餐饮,下午,7.8
2024-12-01,海岱楼,117.988604,36.841309,其他,旅游景点,下午,5.61
2024-12-01,海岱楼,117.988604,36.841309,其他,旅游景点,上午,5.91
2024-12-01,乡韵金典餐饮(西台店),118.149075,36.191675,其他,餐饮,下午,4.71
2024-12-01,淄博市张店区第十二中学,118.114856,36.790903,其他,学校,凌晨,3.25
2024-12-01,淄博市张店区第十二中学,118.114856,36.790903,其他,学校,中午,5.25
2024-12-01,淄博化建医院,118.233028,36.735297,其他,医院,凌晨,4.97
2024-12-01,淄博化建医院,118.233028,36.735297,其他,医院,深夜,5.8
2024-12-01,玉龙湖湿地公园,118.036436,36.876983,其他,公园,下午,7.34
2024-12-01,黄河楼博物馆,117.889672,37.259592,其他,文化场馆,晚上,6.29
2024-12-01,黄河楼博物馆,117.889672,37.259592,其他,文化场馆,深夜,5.58
2024-12-01,山东省淄博第十八中学,118.055517,36.818262,其他,学校,深夜,4.77
2024-12-01,山东省淄博第十八中学,118.055517,36.818262,其他,学校,傍晚,4.91
2024-12-01,银泰·金街/时代广场,118.035034,36.849708,其他,商场,深夜,5.28
2024-12-01,茂岭公园,117.914827,36.480506,其他,公园,深夜,4.4
2024-12-01,茂岭公园,117.914827,36.480506,其他,公园,凌晨,4.23
2024-12-01,旭阳灶台鱼,118.02153,36.765224,其他,餐饮,凌晨,3.69
2024-12-01,华仁中医医院,118.042517,36.807609,其他,医院,傍晚,8.12
2024-12-01,华仁中医医院,118.042517,36.807609,其他,医院,中午,5.35
2024-12-01,淄博张店馨膳坊饭店,118.028635,36.80315,其他,餐饮,凌晨,6.22
2024-12-01,淄博张店馨膳坊饭店,118.028635,36.80315,其他,餐饮,上午,5.65
2024-12-01,茂业百货(广场店),118.296332,36.819241,其他,商场,上午,7.0
2024-12-01,马莲台风景区,118.347879,36.774682,其他,旅游景点,凌晨,6.62
2024-12-01,马莲台风景区,118.347879,36.774682,其他,旅游景点,晚上,6.4
2024-12-01,欢乐城精品购物广场,118.023549,36.825043,其他,商场,上午,6.48
2024-12-01,品海蒸鲜(曦园店),118.00047,36.846274,其他,餐饮,中午,6.79
2024-12-01,淄博市中心医院门诊部,118.053567,36.806576,其他,医院,凌晨,2.95
2024-12-01,淄博市中心医院门诊部,118.053567,36.806576,其他,医院,上午,6.47
2024-12-01,寇氏游泳健身馆,118.339486,36.814335,其他,体育场馆,凌晨,5.73
2024-12-01,金银山公园,118.053645,36.424029,其他,公园,凌晨,4.97
2024-12-01,金银山公园,118.053645,36.424029,其他,公园,下午,6.89
2024-12-01,塞外春肥羊府(沿河西路店),118.152762,36.190755,其他,餐饮,上午,5.37
2024-12-01,步步高鸽子府,118.314622,36.806359,其他,餐饮,晚上,4.51
2024-12-01,淄川区实验小学南校区,117.964219,36.625985,其他,学校,晚上,4.08
2024-12-01,淄川区实验小学南校区,117.964219,36.625985,其他,学校,深夜,6.13
2024-12-01,少儿游泳综合运动馆,118.02624,36.808166,其他,体育场馆,中午,6.42
2024-12-01,优壹佳健身(华光路店),118.042423,36.820796,其他,体育场馆,上午,8.46
2024-12-01,淄博宝华中医医院,118.02428,36.816938,其他,医院,凌晨,4.27
2024-12-01,昆仑广场,117.91394,36.581689,其他,公园,上午,7.62
2024-12-01,建国私教健身会所(齐悦商业街店),117.987907,36.809122,其他,体育场馆,晚上,3.94
2024-12-01,圣佛山圣佛寺,118.215772,36.651906,其他,旅游景点,凌晨,4.85
2024-12-01,圣佛山圣佛寺,118.215772,36.651906,其他,旅游景点,深夜,5.68
2024-12-01,桓台县跷脚烧烤店,118.067602,36.917548,其他,餐饮,凌晨,5.25
2024-12-01,桓台县跷脚烧烤店,118.067602,36.917548,其他,餐饮,上午,7.25
2024-12-01,淄博公园,117.977602,36.785251,其他,公园,晚上,6.14
2024-12-01,淄博公园,117.977602,36.785251,其他,公园,深夜,5.44
2024-12-01,中铝党校,118.047129,36.756803,其他,学校,傍晚,7.27
2024-12-01,平价商城,117.981678,37.049655,其他,商场,傍晚,6.38
2024-12-01,平价商城,117.981678,37.049655,其他,商场,凌晨,3.69
2024-12-01,齐盛健身工作室,117.999041,36.844338,其他,体育场馆,傍晚,6.48
2024-12-01,齐盛健身工作室,117.999041,36.844338,其他,体育场馆,深夜,6.34
2024-12-01,牛记庵古村落,117.808905,36.579246,其他,旅游景点,晚上,3.99
2024-12-01,牛记庵古村落,117.808905,36.579246,其他,旅游景点,凌晨,5.64
2024-12-01,江南濠景生态美食园,118.009609,36.805242,其他,餐饮,上午,6.11
2024-12-01,万通商城,118.050558,36.803583,其他,商场,傍晚,6.43
2024-12-01,万通商城,118.050558,36.803583,其他,商场,凌晨,5.74
2024-12-01,莲池法治文化公园,118.03423,36.823497,其他,公园,中午,5.34
2024-12-01,酷玩猩球(吾悦广场店),117.866325,36.822625,其他,体育场馆,上午,5.78
2024-12-01,泉龙大酒店,117.977532,36.651991,其他,餐饮,凌晨,5.72
2024-12-01,泉龙大酒店,117.977532,36.651991,其他,餐饮,中午,5.99
2024-12-01,山铝体育馆,118.044187,36.755264,其他,体育场馆,中午,6.54
2024-12-01,胜炼公园,118.259219,36.771678,其他,公园,中午,4.47
2024-12-01,金梦园(新村西路店),118.027431,36.803256,其他,餐饮,深夜,4.13
2024-12-01,博山陶瓷琉璃艺术博物馆,117.859607,36.499158,其他,文化场馆,凌晨,5.41
2024-12-01,悦动乒乓球,118.026732,36.808963,其他,体育场馆,傍晚,7.57
2024-12-01,悦动乒乓球,118.026732,36.808963,其他,体育场馆,深夜,4.41
2024-12-01,淄博清真寺,118.046329,36.787624,其他,旅游景点,中午,7.05
2024-12-01,淄博清真寺,118.046329,36.787624,其他,旅游景点,凌晨,5.28
2024-12-01,矾沟肉油饼,117.863953,36.476117,其他,餐饮,晚上,5.55
2024-12-01,矾沟肉油饼,117.863953,36.476117,其他,餐饮,凌晨,3.48
2024-12-01,山东省博山电力技工学校,117.85858,36.478547,其他,学校,下午,5.34
2024-12-01,思迈健身会所(山东新星集团新星商厦店),118.023065,36.781464,其他,体育场馆,深夜,3.21
2024-12-01,思迈健身会所(山东新星集团新星商厦店),118.023065,36.781464,其他,体育场馆,傍晚,6.13
2024-12-01,银座商城(人民店),117.860457,36.504428,其他,商场,中午,6.78
2024-12-01,银座商城(人民店),117.860457,36.504428,其他,商场,下午,5.46
2024-12-01,TOP-1私教健身(东岳店),118.076828,36.948274,其他,体育场馆,傍晚,6.66
2024-12-01,TOP-1私教健身(东岳店),118.076828,36.948274,其他,体育场馆,凌晨,5.3
2024-12-02,金属狗26小时共享健身,118.035745,36.831279,其他,体育场馆,傍晚,4.74
2024-12-02,中国课本博物馆,118.107847,36.831431,其他,文化场馆,深夜,4.66
2024-12-02,中国课本博物馆,118.107847,36.831431,其他,文化场馆,傍晚,7.72
2024-12-02,乐华滋披萨(振兴路店),118.163299,36.186017,其他,餐饮,晚上,6.43
2024-12-02,乐华滋披萨(振兴路店),118.163299,36.186017,其他,餐饮,上午,6.53
2024-12-02,淄博市中心医院门诊部,118.053567,36.806576,其他,医院,上午,4.44
2024-12-02,淄博市中心医院门诊部,118.053567,36.806576,其他,医院,傍晚,4.86
2024-12-02,潘南印巷,118.080566,36.80708,其他,餐饮,晚上,5.0
2024-12-02,潘南印巷,118.080566,36.80708,其他,餐饮,下午,7.15
2024-12-02,淄博丽人医院,118.047595,36.820418,其他,医院,下午,6.82
2024-12-02,淄博丽人医院,118.047595,36.820418,其他,医院,晚上,3.52
2024-12-02,金周商城,117.854245,36.797938,其他,商场,上午,5.59
2024-12-02,紫羅山观音寺,117.950841,36.422362,其他,旅游景点,下午,6.55
2024-12-02,建国私教健身会所(齐悦商业街店),117.987907,36.809122,其他,体育场馆,凌晨,4.19
2024-12-02,建国私教健身会所(齐悦商业街店),117.987907,36.809122,其他,体育场馆,深夜,2.71
2024-12-02,良家健身(沂源店),118.18579,36.193686,其他,体育场馆,下午,7.09
2024-12-02,沂河源水景公园,118.154262,36.190032,其他,公园,晚上,4.18
2024-12-02,高青双语学校,117.860078,37.158281,其他,学校,中午,6.61
2024-12-02,高青双语学校,117.860078,37.158281,其他,学校,晚上,6.1
2024-12-02,太公老刘烧烤(三星怡水名城店),118.322683,36.829206,其他,餐饮,深夜,3.41
2024-12-02,喜乐佳,118.100012,36.958738,其他,商场,晚上,5.89
2024-12-02,喜乐佳,118.100012,36.958738,其他,商场,中午,6.86
2024-12-02,岁月烧烤,117.867159,36.816672,其他,餐饮,凌晨,4.47
2024-12-02,岁月烧烤,117.867159,36.816672,其他,餐饮,傍晚,4.87
2024-12-02,忠勤祠,117.940969,36.950379,其他,旅游景点,中午,5.69
2024-12-02,桓台百货大楼,118.105923,36.958434,其他,商场,凌晨,2.33
2024-12-02,市民广场,118.017803,36.804819,其他,公园,中午,6.83
2024-12-02,市民广场,118.017803,36.804819,其他,公园,晚上,5.77
2024-12-02,茂业百货(时代店),118.296056,36.817538,其他,商场,深夜,5.92
2024-12-02,海棠居(农广大厦店),118.01476,36.829155,其他,餐饮,上午,6.39
2024-12-02,海棠居(农广大厦店),118.01476,36.829155,其他,餐饮,凌晨,3.3
2024-12-02,TULIPS MAPLE(齐园绿城店),118.288425,36.809494,其他,商场,傍晚,5.85
2024-12-02,淄博市植物园,118.029484,36.792359,其他,公园,中午,3.49
2024-12-02,方和茂,118.300029,36.81432,其他,商场,上午,7.36
2024-12-02,方和茂,118.300029,36.81432,其他,商场,傍晚,5.32
2024-12-02,老屋记忆·土耳其烤肉饭,118.046187,36.75416,其他,餐饮,下午,4.67
2024-12-02,泽升游泳馆,117.96147,36.670221,其他,体育场馆,中午,5.21
2024-12-02,淄川仁和医院,117.764695,36.652712,其他,医院,下午,6.21
2024-12-02,虾时代(沂源店),118.156895,36.185217,其他,餐饮,深夜,5.78
2024-12-02,虾时代(沂源店),118.156895,36.185217,其他,餐饮,上午,4.99
2024-12-02,金太阳商场,118.166734,36.185648,其他,商场,下午,6.71
2024-12-02,金太阳商场,118.166734,36.185648,其他,商场,深夜,6.43
2024-12-02,李家疃明清建筑群,117.699341,36.661727,其他,旅游景点,深夜,5.66
2024-12-02,李家疃明清建筑群,117.699341,36.661727,其他,旅游景点,上午,4.26
2024-12-02,桓台县实验中学,118.103854,36.964247,其他,学校,中午,5.49
2024-12-02,奎三广场,117.937206,36.563022,其他,公园,傍晚,4.83
2024-12-02,奎三广场,117.937206,36.563022,其他,公园,晚上,6.6
2024-12-02,花山公园,118.11949,36.824708,其他,旅游景点,凌晨,3.75
2024-12-02,经开区可奕羽毛球馆,118.089133,36.757848,其他,体育场馆,中午,5.04
2024-12-02,经开区可奕羽毛球馆,118.089133,36.757848,其他,体育场馆,傍晚,5.18
2024-12-02,桃花峪庙,117.959766,36.571647,其他,旅游景点,上午,5.09
2024-12-02,桃花峪庙,117.959766,36.571647,其他,旅游景点,晚上,4.95
2024-12-02,铁锅砖家·正宗东北铁锅炖(名士豪庭店),118.053772,36.85251,其他,餐饮,上午,7.18
2024-12-02,铁锅砖家·正宗东北铁锅炖(名士豪庭店),118.053772,36.85251,其他,餐饮,下午,7.46
2024-12-02,周村人民广场-四德主题公园,117.858127,36.799089,其他,公园,傍晚,6.3
2024-12-02,周村人民广场-四德主题公园,117.858127,36.799089,其他,公园,上午,6.75
2024-12-02,山东新华制药股份有限公司职工培训中心技工学校,118.063076,36.794698,其他,学校,深夜,5.31
2024-12-02,山东新华制药股份有限公司职工培训中心技工学校,118.063076,36.794698,其他,学校,晚上,5.87
2024-12-02,湿地公园,117.896909,36.71004,其他,公园,傍晚,5.47
2024-12-02,湿地公园,117.896909,36.71004,其他,公园,中午,4.96
2024-12-02,老车家烧烤,117.971224,36.628883,其他,餐饮,上午,5.35
2024-12-02,老车家烧烤,117.971224,36.628883,其他,餐饮,凌晨,4.68
2024-12-02,博山区夏家庄卫生院,117.870937,36.513583,其他,医院,上午,7.81
2024-12-02,银座中心店2期,118.049828,36.804971,其他,商场,傍晚,6.04
2024-12-02,康美达健身(工职院店),118.085163,36.892869,其他,体育场馆,凌晨,5.1
2024-12-02,康美达健身(工职院店),118.085163,36.892869,其他,体育场馆,晚上,4.86
2024-12-02,进无止境台球俱乐部,117.99665,36.7996,其他,体育场馆,下午,4.96
2024-12-02,新东方羽绒服饰广场,117.958291,36.646783,其他,商场,下午,6.44
2024-12-02,世博高新医院营养中心,118.105384,36.829265,其他,医院,下午,7.03
2024-12-02,世博高新医院营养中心,118.105384,36.829265,其他,医院,凌晨,3.65
2024-12-02,桓台后金眼科医院,117.922909,37.052407,其他,医院,晚上,5.75
2024-12-02,桓台后金眼科医院,117.922909,37.052407,其他,医院,中午,4.94
2024-12-02,汇达台球俱乐部,118.006687,36.816106,其他,体育场馆,下午,6.69
2024-12-02,汇达台球俱乐部,118.006687,36.816106,其他,体育场馆,上午,6.59
2024-12-02,青云大酒店(中共淄川区洪山镇委员会东),118.002062,36.623339,其他,餐饮,上午,5.13
2024-12-02,青云大酒店(中共淄川区洪山镇委员会东),118.002062,36.623339,其他,餐饮,傍晚,5.46
2024-12-02,新艺苑精品地下城,118.302367,36.812951,其他,商场,下午,8.09
2024-12-02,淄博世茂广场,117.98579,36.820734,其他,商场,中午,4.73
2024-12-02,淄博世茂广场,117.98579,36.820734,其他,商场,上午,7.6
2024-12-02,大昌文化羽毛球俱乐部,118.022468,36.850107,其他,体育场馆,晚上,4.08
2024-12-02,淄博黉门中学,118.035602,36.806253,其他,学校,晚上,4.16
2024-12-02,淄博黉门中学,118.035602,36.806253,其他,学校,下午,6.64
2024-12-02,0533乔氏台球会所,118.052345,36.805821,其他,体育场馆,下午,3.95
2024-12-02,淄博四季青医院,118.041428,36.828633,其他,医院,中午,6.36
2024-12-02,遄台老店骏阳凉皮,118.318082,36.817242,其他,餐饮,中午,4.35
2024-12-02,东海鲜味园,117.849453,36.805836,其他,餐饮,深夜,4.9
2024-12-02,东海鲜味园,117.849453,36.805836,其他,餐饮,晚上,4.9
2024-12-02,淄博市中心医院住院一部,117.975604,36.809321,其他,医院,上午,7.22
2024-12-02,芦湖公园,117.845442,37.171066,其他,公园,傍晚,5.17
2024-12-02,芦湖公园,117.845442,37.171066,其他,公园,深夜,2.68
2024-12-02,沂源县人民医院悦庄分院,118.265979,36.206135,其他,医院,下午,5.84
2024-12-02,邱氏瓜子干果老店(城里大街店),117.964129,36.646437,其他,餐饮,深夜,5.97
2024-12-02,邱氏瓜子干果老店(城里大街店),117.964129,36.646437,其他,餐饮,中午,5.84
2024-12-02,卫固医院,118.144778,36.867143,其他,医院,晚上,6.22
2024-12-02,重庆石锅鱼,118.001048,36.803795,其他,餐饮,上午,7.58
2024-12-02,重庆石锅鱼,118.001048,36.803795,其他,餐饮,深夜,4.12
2024-12-02,XIK酷点台球俱乐部,118.104709,36.958861,其他,体育场馆,傍晚,5.44
2024-12-02,XIK酷点台球俱乐部,118.104709,36.958861,其他,体育场馆,晚上,6.09
2024-12-02,淄博高新区第三小学,118.032424,36.868789,其他,学校,上午,5.95
2024-12-02,般阳中学,117.915619,36.656604,其他,学校,傍晚,6.29
2024-12-02,般阳中学,117.915619,36.656604,其他,学校,深夜,3.71
2024-12-02,淄川区土峪村天主教堂,118.040593,36.579527,其他,旅游景点,中午,7.21
2024-12-02,淄川区土峪村天主教堂,118.040593,36.579527,其他,旅游景点,深夜,3.12
2024-12-02,皇后餐厅,118.036899,36.850457,其他,餐饮,深夜,6.67
2024-12-02,贵都商城,118.164154,36.186187,其他,商场,傍晚,6.33
2024-12-02,贵都商城,118.164154,36.186187,其他,商场,上午,6.24
2024-12-02,联启羽毛球馆,117.867129,36.776279,其他,体育场馆,上午,5.16
2024-12-02,联启羽毛球馆,117.867129,36.776279,其他,体育场馆,中午,4.4
2024-12-03,八大局博物馆,118.063569,36.809082,其他,文化场馆,晚上,5.84
2024-12-03,淄博市中心医院西院区培训部,117.97317,36.809077,其他,医院,晚上,4.71
2024-12-03,淄川明圣医院,117.948865,36.666524,其他,医院,深夜,2.25
2024-12-03,姜太公祠,118.320602,36.809275,其他,旅游景点,凌晨,5.57
2024-12-03,姜太公祠,118.320602,36.809275,其他,旅游景点,上午,3.77
2024-12-03,黑铁山风景区,118.164113,36.842767,其他,旅游景点,晚上,4.86
2024-12-03,黑铁山风景区,118.164113,36.842767,其他,旅游景点,上午,6.67
2024-12-03,斐塔咖啡(齐都国际商务大厦A座北),118.315255,36.824468,其他,餐饮,深夜,3.08
2024-12-03,家饭拌饭烤肉,118.04537,36.822497,其他,餐饮,下午,6.7
2024-12-03,家饭拌饭烤肉,118.04537,36.822497,其他,餐饮,傍晚,5.34
2024-12-03,桓台县中医院门诊部,118.098523,36.967718,其他,医院,下午,6.76
2024-12-03,桓台县中医院门诊部,118.098523,36.967718,其他,医院,凌晨,5.67
2024-12-03,原山国家森林公园,117.836257,36.480938,其他,旅游景点,中午,7.38
2024-12-03,炒米山风景区黉园,118.143709,36.763249,其他,旅游景点,凌晨,4.6
2024-12-03,炒米山风景区黉园,118.143709,36.763249,其他,旅游景点,晚上,5.54
2024-12-03,南营公园,118.068447,36.845105,其他,公园,深夜,3.99
2024-12-03,南营公园,118.068447,36.845105,其他,公园,傍晚,5.94
2024-12-03,荣德医院,118.102162,36.848838,其他,医院,晚上,3.12
2024-12-03,康平乒乓球俱乐部,118.281593,36.805622,其他,体育场馆,傍晚,6.07
2024-12-03,鲁山国家森林公园,118.048565,36.309523,其他,旅游景点,中午,6.64
2024-12-03,星巴克(淄博印象汇店),118.053299,36.822489,其他,餐饮,傍晚,5.98
2024-12-03,潘南小学,118.059069,36.815301,其他,学校,上午,4.39
2024-12-03,潘南小学,118.059069,36.815301,其他,学校,中午,5.22
2024-12-03,淄博国际会展中心,117.996092,36.790779,其他,文化场馆,傍晚,4.24
2024-12-03,淄博国际会展中心,117.996092,36.790779,其他,文化场馆,凌晨,3.37
2024-12-03,淄博四季青医院,118.041428,36.828633,其他,医院,傍晚,6.54
2024-12-03,淄博职业技术大学,117.932027,36.83381,其他,学校,凌晨,4.92
2024-12-03,淄博职业技术大学,117.932027,36.83381,其他,学校,下午,5.16
2024-12-03,桓台商厦,118.105225,36.959466,其他,商场,傍晚,4.54
2024-12-03,凤凰山广场,117.832022,36.741644,其他,公园,上午,4.78
2024-12-03,淄博市张店区铝城第一中学,118.040937,36.748754,其他,学校,中午,4.54
2024-12-03,淄博市张店区铝城第一中学,118.040937,36.748754,其他,学校,晚上,5.09
2024-12-03,金山镇文体公园,118.244215,36.735747,其他,公园,凌晨,4.39
2024-12-03,金山镇文体公园,118.244215,36.735747,其他,公园,上午,5.0
2024-12-03,博山人民公园,117.855,36.496169,其他,公园,凌晨,3.16
2024-12-03,博山人民公园,117.855,36.496169,其他,公园,傍晚,3.64
2024-12-03,齐林公园,118.062031,36.860615,其他,公园,下午,6.83
2024-12-03,齐林公园,118.062031,36.860615,其他,公园,傍晚,6.96
2024-12-03,金凯悦正阳路店,117.867168,36.817928,其他,餐饮,上午,7.1
2024-12-03,动力100游泳健身会所(银泰城店),118.036422,36.848499,其他,体育场馆,中午,6.22
2024-12-03,公社炒鸡老菜馆(八大局店),118.075206,36.808527,其他,餐饮,深夜,3.41
2024-12-03,公社炒鸡老菜馆(八大局店),118.075206,36.808527,其他,餐饮,下午,6.41
2024-12-03,老博山私房菜,118.070058,36.799784,其他,餐饮,傍晚,5.07
2024-12-03,老博山私房菜,118.070058,36.799784,其他,餐饮,中午,4.77
2024-12-03,临淄中国古车博物馆,118.387478,36.83655,其他,文化场馆,中午,6.47
2024-12-03,董家灵泉公园,117.98105,36.694829,其他,公园,上午,5.31
2024-12-03,球小牛24h自助台球,117.965372,36.650305,其他,体育场馆,凌晨,4.42
2024-12-03,文姜公园,117.895912,36.402253,其他,公园,晚上,2.87
2024-12-03,山东工业职业学院,118.081232,36.88653,其他,学校,上午,6.21
2024-12-03,山东工业职业学院,118.081232,36.88653,其他,学校,中午,6.91
2024-12-03,淄川区西河中心卫生院,117.942726,36.502452,其他,医院,晚上,6.15
2024-12-03,淄川区西河中心卫生院,117.942726,36.502452,其他,医院,深夜,4.39
2024-12-03,老何牛肉面,118.186653,36.768356,其他,餐饮,傍晚,5.68
2024-12-03,老何牛肉面,118.186653,36.768356,其他,餐饮,凌晨,2.47
2024-12-03,万杰朝阳学校,117.852329,36.544411,其他,学校,上午,6.32
2024-12-03,沂源牛郎织女景区,118.260858,36.109421,其他,旅游景点,下午,6.17
2024-12-03,沂源牛郎织女景区,118.260858,36.109421,其他,旅游景点,深夜,3.23
2024-12-03,周村区市南路小学,117.854538,36.788305,其他,学校,凌晨,5.16
2024-12-03,周村区人民医院,117.869467,36.820009,其他,医院,凌晨,5.01
2024-12-03,猪龙河生态公园,118.04949,36.804743,其他,公园,中午,4.26
2024-12-03,猪龙河生态公园,118.04949,36.804743,其他,公园,傍晚,4.74
2024-12-03,枫山禅院,118.210212,36.455976,其他,旅游景点,上午,5.51
2024-12-03,枫山禅院,118.210212,36.455976,其他,旅游景点,晚上,5.14
2024-12-03,胖仔凉皮米线馆,118.064941,36.806895,其他,餐饮,下午,6.0
2024-12-03,胖仔凉皮米线馆,118.064941,36.806895,其他,餐饮,凌晨,1.87
2024-12-03,旷野之息露营地,118.060419,36.903402,其他,体育场馆,上午,6.34
2024-12-03,龙泉寺,117.897724,36.524553,其他,旅游景点,凌晨,4.92
2024-12-03,龙泉寺,117.897724,36.524553,其他,旅游景点,深夜,5.24
2024-12-03,淄博口腔医院,118.026673,36.803344,其他,医院,下午,6.97
2024-12-03,淄博口腔医院,118.026673,36.803344,其他,医院,上午,5.24
2024-12-03,北大医疗鲁中医院康平分院,118.282262,36.806845,其他,医院,上午,6.78
2024-12-03,黑里寨中心卫生院,117.668376,37.108143,其他,医院,凌晨,4.94
2024-12-03,黑里寨中心卫生院,117.668376,37.108143,其他,医院,中午,5.56
2024-12-03,淄博师范高等专科学校,117.89617,36.661055,其他,学校,傍晚,4.5
2024-12-03,淄博师范高等专科学校,117.89617,36.661055,其他,学校,晚上,3.22
2024-12-03,圣佛山,118.362109,36.190447,其他,旅游景点,中午,4.7
2024-12-03,圣佛山,118.362109,36.190447,其他,旅游景点,上午,7.72
2024-12-03,泰东生活广场,118.330347,36.816999,其他,商场,凌晨,4.35
2024-12-03,泰东生活广场,118.330347,36.816999,其他,商场,下午,6.85
2024-12-03,特信商城,117.860326,36.496483,其他,商场,下午,4.81
2024-12-03,特信商城,117.860326,36.496483,其他,商场,上午,4.6
2024-12-03,淄博市美达菲双语高级中学,117.966026,36.815861,其他,学校,晚上,6.12
2024-12-03,淄博市美达菲双语高级中学,117.966026,36.815861,其他,学校,中午,6.38
2024-12-03,活力城,117.868293,36.799214,其他,商场,深夜,5.01
2024-12-03,活力城,117.868293,36.799214,其他,商场,晚上,3.13
2024-12-03,淄川实验中学松龄东路,117.974332,36.647764,其他,学校,下午,5.26
2024-12-03,沂源县普安禅寺,118.126756,36.195465,其他,旅游景点,凌晨,3.62
2024-12-03,沂源县普安禅寺,118.126756,36.195465,其他,旅游景点,晚上,6.47
2024-12-03,陈庄.唐口西周遗址博物馆,117.802213,37.07272,其他,文化场馆,中午,6.26
2024-12-03,淄博市黉山风景名胜旅游区,118.033871,36.659632,其他,旅游景点,下午,5.85
2024-12-03,淄博市黉山风景名胜旅游区,118.033871,36.659632,其他,旅游景点,深夜,4.38
2024-12-03,文昌湖公园,117.870499,36.711934,其他,公园,下午,4.96
2024-12-03,文昌湖公园,117.870499,36.711934,其他,公园,中午,5.52
2024-12-03,喜力私教健身(华润店),118.060887,36.803298,其他,体育场馆,晚上,5.98
2024-12-03,喜力私教健身(华润店),118.060887,36.803298,其他,体育场馆,深夜,4.67
2024-12-03,体育中心篮球馆,117.984709,36.815222,其他,体育场馆,凌晨,3.32
2024-12-03,体育中心篮球馆,117.984709,36.815222,其他,体育场馆,晚上,5.16
2024-12-03,山东理工大学信息楼,118.004206,36.80863,其他,文化场馆,傍晚,7.28
2024-12-03,沂源县第二人民医院,118.360611,36.019273,其他,医院,晚上,2.6
2024-12-03,沂源县第二人民医院,118.360611,36.019273,其他,医院,上午,6.92
2024-12-03,中共高青县委党校,117.849188,37.155973,其他,文化场馆,凌晨,5.12
2024-12-03,中共高青县委党校,117.849188,37.155973,其他,文化场馆,晚上,5.52
2024-12-03,广利来(步行街店),117.852554,36.80653,其他,餐饮,傍晚,6.55
2024-12-03,广利来(步行街店),117.852554,36.80653,其他,餐饮,深夜,6.29
2024-12-03,桓台县陈庄中学,117.916557,37.008159,其他,学校,中午,4.28
2024-12-03,桓台县陈庄中学,117.916557,37.008159,其他,学校,下午,5.71
2024-12-03,淄博世茂广场,117.98579,36.820734,其他,商场,深夜,5.34
2024-12-03,淄博世茂广场,117.98579,36.820734,其他,商场,晚上,4.09
2024-12-03,桓台县唐山镇邢家卫生院,118.063625,37.005697,其他,医院,上午,4.23
2024-12-03,桓台县唐山镇邢家卫生院,118.063625,37.005697,其他,医院,中午,7.78
2024-12-03,岁月烧烤,117.867159,36.816672,其他,餐饮,深夜,3.28
2024-12-03,时代名都社区卫生服务站预防接种门诊,118.043376,36.839099,其他,医院,晚上,3.15
2024-12-03,张店区中医院,118.049972,36.800925,其他,医院,上午,4.33
2024-12-03,锤子女子健身,117.991131,36.847568,其他,体育场馆,上午,5.82
2024-12-03,牛记庵古村落,117.808905,36.579246,其他,旅游景点,上午,5.39
2024-12-03,牛记庵古村落,117.808905,36.579246,其他,旅游景点,晚上,5.0
2024-12-03,遄台小学,118.321962,36.814051,其他,学校,晚上,4.59
2024-12-03,中国课本博物馆,118.107847,36.831431,其他,文化场馆,中午,5.75
2024-12-03,品海蒸鲜(曦园店),118.00047,36.846274,其他,餐饮,下午,7.77
2024-12-03,品海蒸鲜(曦园店),118.00047,36.846274,其他,餐饮,深夜,2.66
2024-12-03,张店区第二人民医院24小时急救,118.026441,36.803357,其他,医院,中午,7.24
2024-12-03,老车家烧烤,117.971224,36.628883,其他,餐饮,下午,5.17
2024-12-04,易达广场,117.837451,36.497742,其他,商场,傍晚,7.6
2024-12-04,SM广场,117.962256,36.643708,其他,商场,凌晨,4.67
2024-12-04,SM广场,117.962256,36.643708,其他,商场,晚上,5.93
2024-12-04,顺意海鲜楼(中润大道店),118.041075,36.837382,其他,餐饮,傍晚,6.85
2024-12-04,天香公园,117.852515,36.813338,其他,公园,上午,6.44
2024-12-04,长寿山广场,117.823867,36.552209,其他,公园,上午,3.72
2024-12-04,长寿山广场,117.823867,36.552209,其他,公园,傍晚,5.43
2024-12-04,重庆石锅鱼,118.001048,36.803795,其他,餐饮,中午,6.63
2024-12-04,兰雁广场,118.040105,36.804364,其他,公园,中午,4.56
2024-12-04,兰雁广场,118.040105,36.804364,其他,公园,凌晨,3.0
2024-12-04,王村人民广场,117.733561,36.68375,其他,公园,凌晨,3.56
2024-12-04,周村圣母堂慈母宫,117.860967,36.751287,其他,旅游景点,中午,5.54
2024-12-04,傅山公园,118.143232,36.875205,其他,公园,上午,6.05
2024-12-04,临淄区齐都中心卫生院,118.350312,36.854112,其他,医院,中午,5.91
2024-12-04,临淄区齐都中心卫生院,118.350312,36.854112,其他,医院,上午,4.66
2024-12-04,淄博柳泉艺术学校,118.077172,36.813576,其他,学校,中午,6.07
2024-12-04,淄博柳泉艺术学校,118.077172,36.813576,其他,学校,下午,6.21
2024-12-04,淄博职业学院(南校区),117.927048,36.828086,其他,学校,上午,7.36
2024-12-04,裕翔球馆,118.041251,36.84489,其他,体育场馆,傍晚,6.17
2024-12-04,裕翔球馆,118.041251,36.84489,其他,体育场馆,中午,3.54
2024-12-04,巩本明鱼屋子,118.083466,37.056576,其他,餐饮,晚上,4.52
2024-12-04,巩本明鱼屋子,118.083466,37.056576,其他,餐饮,中午,5.96
2024-12-04,世博高新医院营养中心,118.105384,36.829265,其他,医院,晚上,7.0
2024-12-04,世博高新医院营养中心,118.105384,36.829265,其他,医院,傍晚,5.29
2024-12-04,典雅服装商场,117.988939,36.74058,其他,商场,深夜,6.1
2024-12-04,典雅服装商场,117.988939,36.74058,其他,商场,中午,5.59
2024-12-04,亨泰台球,118.04326,36.807013,其他,体育场馆,上午,4.17
2024-12-04,亨泰台球,118.04326,36.807013,其他,体育场馆,凌晨,3.11
2024-12-04,博山区第六中学,117.869513,36.503004,其他,学校,下午,5.44
2024-12-04,淄川区城南卫生院,117.954695,36.623403,其他,医院,上午,5.65
2024-12-04,淄川区城南卫生院,117.954695,36.623403,其他,医院,中午,6.26
2024-12-04,豹岩观,117.72937,36.651491,其他,旅游景点,上午,6.88
2024-12-04,权记洋行,118.061074,36.80042,其他,旅游景点,晚上,5.7
2024-12-04,权记洋行,118.061074,36.80042,其他,旅游景点,深夜,3.58
2024-12-04,山东省博山电力技工学校,117.85858,36.478547,其他,学校,晚上,2.88
2024-12-04,山东省博山电力技工学校,117.85858,36.478547,其他,学校,傍晚,5.63
2024-12-04,桓台县人民医院,118.093414,36.945519,其他,医院,下午,6.66
2024-12-04,淄博和平学校,117.824973,36.791633,其他,学校,上午,5.23
2024-12-04,淄博和平学校,117.824973,36.791633,其他,学校,凌晨,4.59
2024-12-04,周村区第三中学,117.878606,36.796485,其他,学校,傍晚,7.5
2024-12-04,正觉寺,117.898886,36.526624,其他,旅游景点,下午,4.76
2024-12-04,山东药品食品职业学院淄博校区,118.030617,36.806068,其他,学校,上午,6.07
2024-12-04,磁村卫生院,117.847857,36.619271,其他,医院,深夜,6.33
2024-12-04,淄博恒太城(装修中),117.982957,36.823315,其他,商场,中午,5.77
2024-12-04,淄博恒太城(装修中),117.982957,36.823315,其他,商场,上午,6.26
2024-12-04,法王院,118.032929,36.713602,其他,旅游景点,深夜,2.83
2024-12-04,法王院,118.032929,36.713602,其他,旅游景点,上午,5.89
2024-12-04,太公老刘烧烤(三星怡水名城店),118.322683,36.829206,其他,餐饮,凌晨,2.64
2024-12-04,太公老刘烧烤(三星怡水名城店),118.322683,36.829206,其他,餐饮,深夜,4.06
2024-12-04,汇泉桃花岛,117.933869,36.117701,其他,旅游景点,深夜,2.52
2024-12-04,汇泉桃花岛,117.933869,36.117701,其他,旅游景点,凌晨,4.65
2024-12-04,中共沂源县委旧址,118.258301,36.196757,其他,旅游景点,傍晚,5.96
2024-12-04,中埠镇卫生院,118.18759,36.846438,其他,医院,傍晚,5.28
2024-12-04,城标广场,118.100016,36.949576,其他,公园,上午,5.53
2024-12-04,玉兰广场,117.965491,36.80035,其他,公园,凌晨,1.82
2024-12-04,华盛商厦,117.829677,37.171987,其他,商场,晚上,5.18
2024-12-04,华盛商厦,117.829677,37.171987,其他,商场,下午,6.3
2024-12-04,优购商城,118.330515,36.805331,其他,商场,凌晨,3.98
2024-12-04,优购商城,118.330515,36.805331,其他,商场,中午,7.57
2024-12-04,金城商厦(巴黎假日·步行街店),117.853002,36.797435,其他,商场,晚上,5.35
2024-12-04,沐浴阳光.俊辰百货高青店,117.662007,37.103489,其他,商场,傍晚,4.91
2024-12-04,沐浴阳光.俊辰百货高青店,117.662007,37.103489,其他,商场,上午,3.76
2024-12-04,沂河源省级湿地公园,118.150174,36.196341,其他,公园,晚上,3.95
2024-12-04,文昌湖萌宠动物园,117.86273,36.715628,其他,公园,深夜,5.14
2024-12-04,淄川区洪山卫生院,117.994054,36.625748,其他,医院,上午,4.72
2024-12-04,淄川区洪山卫生院,117.994054,36.625748,其他,医院,晚上,5.32
2024-12-04,淄川二中,117.978648,36.655917,其他,学校,晚上,3.62
2024-12-04,淄川二中,117.978648,36.655917,其他,学校,下午,5.22
2024-12-04,山东淄博机电工程学校,117.856807,36.839902,其他,学校,上午,5.88
2024-12-04,山东淄博机电工程学校,117.856807,36.839902,其他,学校,傍晚,6.89
2024-12-04,自由界健身游泳俱乐部,118.32318,36.812518,其他,体育场馆,上午,6.05
2024-12-04,民族园,117.846969,36.816491,其他,公园,凌晨,4.83
2024-12-04,亚细亚大酒店(闻韶路),118.309818,36.809968,其他,餐饮,凌晨,3.57
2024-12-04,亚细亚大酒店(闻韶路),118.309818,36.809968,其他,餐饮,深夜,6.26
2024-12-04,欢乐城精品购物广场,118.023549,36.825043,其他,商场,深夜,3.3
2024-12-04,欢乐城精品购物广场,118.023549,36.825043,其他,商场,上午,5.2
2024-12-04,南定镇崔军纪念堂,118.049097,36.739534,其他,旅游景点,凌晨,3.8
2024-12-04,齐祖广场,118.365747,36.810073,其他,公园,上午,6.79
2024-12-04,齐祖广场,118.365747,36.810073,其他,公园,晚上,5.68
2024-12-04,平价商城,117.981678,37.049655,其他,商场,中午,6.8
2024-12-04,桉树披萨(淄川店),117.976008,36.644428,其他,餐饮,傍晚,5.87
2024-12-04,桉树披萨(淄川店),117.976008,36.644428,其他,餐饮,晚上,6.85
2024-12-04,宁家村文明实践广场,117.824974,36.733846,其他,公园,中午,6.37
2024-12-04,高青县花沟中心卫生院,117.758184,37.137115,其他,医院,上午,6.52
2024-12-04,淄博市中心医院,118.053088,36.807533,其他,医院,深夜,4.19
2024-12-04,桓台商厦,118.105225,36.959466,其他,商场,深夜,6.29
2024-12-04,老潍县菜馆(颐和花园店),118.066589,36.832173,其他,餐饮,下午,6.06
2024-12-04,老潍县菜馆(颐和花园店),118.066589,36.832173,其他,餐饮,中午,3.89
2024-12-04,世纪花园小学,118.02149,36.830225,其他,学校,上午,7.41
2024-12-04,淄博市第一医院总院,117.86452,36.490278,其他,医院,傍晚,6.39
2024-12-04,北关小学,117.968487,36.650962,其他,学校,下午,6.94
2024-12-04,行动力健身,118.294247,36.819368,其他,体育场馆,深夜,5.89
2024-12-04,行动力健身,118.294247,36.819368,其他,体育场馆,晚上,5.64
2024-12-04,壹玖健身会,117.979273,36.845252,其他,体育场馆,凌晨,2.97
2024-12-04,圆心楼商城,117.844755,36.618944,其他,商场,中午,6.53
2024-12-04,圆心楼商城,117.844755,36.618944,其他,商场,上午,5.67
2024-12-04,淄博高新技术产业开发区卫固中心卫生院,118.144756,36.867151,其他,医院,上午,5.32
2024-12-04,碧霞祠,118.117578,36.822273,其他,旅游景点,上午,6.21
2024-12-04,般阳中学,117.915619,36.656604,其他,学校,晚上,5.54
2024-12-04,般阳中学,117.915619,36.656604,其他,学校,傍晚,4.15
2024-12-04,唐山镇文体公园,118.049167,36.963014,其他,公园,凌晨,2.18
2024-12-04,唐山医院,118.046553,36.958095,其他,医院,凌晨,3.2
2024-12-04,唐山医院,118.046553,36.958095,其他,医院,傍晚,4.92
2024-12-04,国梁烧烤,117.957404,36.667691,其他,餐饮,凌晨,3.07
2024-12-04,国梁烧烤,117.957404,36.667691,其他,餐饮,深夜,5.59
2024-12-04,周村火车站广场,117.860867,36.792197,其他,公园,傍晚,7.66
2024-12-04,周村火车站广场,117.860867,36.792197,其他,公园,中午,4.74
2024-12-05,淄博高新四季青医院,118.033077,36.8359,其他,医院,凌晨,4.57
2024-12-05,淄博高新四季青医院,118.033077,36.8359,其他,医院,中午,3.88
2024-12-05,蓝溪国际滑雪场(暂停营业),118.358638,36.781914,其他,体育场馆,傍晚,6.75
2024-12-05,蓝溪国际滑雪场(暂停营业),118.358638,36.781914,其他,体育场馆,晚上,3.75
2024-12-05,憩园广场,117.861353,36.496955,其他,公园,深夜,5.66
2024-12-05,憩园广场,117.861353,36.496955,其他,公园,傍晚,3.96
2024-12-05,鲁泰体育场,117.982651,36.639185,其他,体育场馆,深夜,6.15
2024-12-05,瑷肯体育公园,118.06226,36.83922,其他,公园,中午,4.78
2024-12-05,瑷肯体育公园,118.06226,36.83922,其他,公园,晚上,4.57
2024-12-05,卧虎山森林公园,117.795732,36.597132,其他,公园,下午,4.42
2024-12-05,卧虎山森林公园,117.795732,36.597132,其他,公园,晚上,5.73
2024-12-05,齐园,118.292227,36.807527,其他,公园,上午,4.93
2024-12-05,齐园,118.292227,36.807527,其他,公园,下午,6.87
2024-12-05,中国琉璃艺术殿堂,117.853656,36.488408,其他,旅游景点,傍晚,5.67
2024-12-05,中国琉璃艺术殿堂,117.853656,36.488408,其他,旅游景点,深夜,5.33
2024-12-05,如月湖湿地公园,117.892587,36.442721,其他,旅游景点,中午,5.54
2024-12-05,沂源四中,118.249974,36.217228,其他,学校,凌晨,2.86
2024-12-05,凡尔赛篮球运动中心,118.051511,36.854882,其他,体育场馆,中午,5.78
2024-12-05,淄博国际会展中心,117.996092,36.790779,其他,文化场馆,傍晚,5.35
2024-12-05,淄博国际会展中心,117.996092,36.790779,其他,文化场馆,深夜,5.01
2024-12-05,冰纷万象(淄博万象汇),118.061457,36.802568,其他,体育场馆,傍晚,6.87
2024-12-05,延边高丽村养生汤馆(名仕嘉园店),118.297755,36.819583,其他,餐饮,傍晚,4.18
2024-12-05,延边高丽村养生汤馆(名仕嘉园店),118.297755,36.819583,其他,餐饮,深夜,3.35
2024-12-05,聚合购物,118.102169,36.819988,其他,商场,上午,6.31
2024-12-05,85台球俱乐部,118.050951,36.820277,其他,体育场馆,下午,6.59
2024-12-05,85台球俱乐部,118.050951,36.820277,其他,体育场馆,晚上,3.5
2024-12-05,王村人民广场,117.733561,36.68375,其他,公园,下午,6.02
2024-12-05,海岱楼·钟书阁,117.98889,36.841714,其他,文化场馆,晚上,5.85
2024-12-05,海岱楼·钟书阁,117.98889,36.841714,其他,文化场馆,下午,5.37
2024-12-05,加一桌,117.851289,36.776556,其他,餐饮,下午,6.35
2024-12-05,高青县中医院,117.830285,37.184154,其他,医院,凌晨,1.82
2024-12-05,高青县中医院,117.830285,37.184154,其他,医院,深夜,4.06
2024-12-05,曼巴台球俱乐部(兴桓路店),118.099896,36.953136,其他,体育场馆,凌晨,5.37
2024-12-05,谈小娱24h自助台球(东三路店),118.07571,36.794204,其他,体育场馆,晚上,5.64
2024-12-05,泸溪河桃酥(淄博吾悦广场店),118.025209,36.78382,其他,餐饮,上午,6.65
2024-12-05,桓台一中附属学校,118.069779,36.959617,其他,学校,傍晚,5.03
2024-12-05,SM广场,117.962256,36.643708,其他,商场,凌晨,2.9
2024-12-05,安澜湾,117.896269,37.260744,其他,旅游景点,晚上,3.94
2024-12-05,安澜湾,117.896269,37.260744,其他,旅游景点,凌晨,5.86
2024-12-05,王村醋博物馆,117.719747,36.681168,其他,文化场馆,下午,4.9
2024-12-05,响袋24小时自助棋牌台球(淄博潘庄店),118.059775,36.819697,其他,体育场馆,下午,6.46
2024-12-05,响袋24小时自助棋牌台球(淄博潘庄店),118.059775,36.819697,其他,体育场馆,晚上,3.97
2024-12-05,山东药品食品职业学院淄博校区,118.030617,36.806068,其他,学校,下午,7.42
2024-12-05,山东药品食品职业学院淄博校区,118.030617,36.806068,其他,学校,中午,6.55
2024-12-05,仁缘博山菜(青龙山路店),117.872268,36.505538,其他,餐饮,上午,4.76
2024-12-05,仁缘博山菜(青龙山路店),117.872268,36.505538,其他,餐饮,下午,5.0
2024-12-05,山东理工大学东校区,118.039887,36.811417,其他,学校,深夜,3.89
2024-12-05,六点水新世界,118.177816,36.196675,其他,公园,下午,5.22
2024-12-05,百信商场,118.05071,36.803084,其他,商场,凌晨,4.1
2024-12-05,百信商场,118.05071,36.803084,其他,商场,晚上,4.78
2024-12-05,哈尼家(大顺城市广场店),118.290283,36.814852,其他,餐饮,中午,5.06
2024-12-05,哈尼家(大顺城市广场店),118.290283,36.814852,其他,餐饮,傍晚,6.3
2024-12-05,桃花峪庙,117.959766,36.571647,其他,旅游景点,傍晚,5.83
2024-12-05,淄博市市级机关医院(人民西路),118.047769,36.814238,其他,医院,上午,5.53
2024-12-05,万益农业生态观光园,118.149011,36.531756,其他,公园,下午,5.36
2024-12-05,万益农业生态观光园,118.149011,36.531756,其他,公园,深夜,5.03
2024-12-05,淄博信息工程学校,118.067903,36.805023,其他,学校,晚上,5.66
2024-12-05,淄博职业技术大学东校区,117.93429,36.83009,其他,文化场馆,上午,5.64
2024-12-05,淄博职业技术大学东校区,117.93429,36.83009,其他,文化场馆,晚上,4.04
2024-12-05,桓台实验学校,118.082203,36.967572,其他,学校,上午,6.36
2024-12-05,石佛堂寺,118.349201,36.885109,其他,旅游景点,上午,5.87
2024-12-05,昆仑党建文化主题广场,117.913821,36.58224,其他,公园,下午,6.6
2024-12-05,漫泗河湿地公园,118.058967,36.649746,其他,公园,深夜,3.05
2024-12-05,临淄蹴鞠小镇,118.371823,36.805196,其他,体育场馆,中午,6.26
2024-12-05,机关医院,118.020029,36.83421,其他,医院,中午,5.41
2024-12-05,机关医院,118.020029,36.83421,其他,医院,晚上,4.16
2024-12-05,四世宫保,117.946244,36.950355,其他,旅游景点,傍晚,4.83
2024-12-05,彤德捞轻火锅(万达店),118.009678,36.841197,其他,餐饮,凌晨,2.12
2024-12-05,彤德捞轻火锅(万达店),118.009678,36.841197,其他,餐饮,傍晚,5.93
2024-12-05,长乐居酒楼(凯瑞安园店),118.020763,36.810163,其他,餐饮,傍晚,5.89
2024-12-05,长乐居酒楼(凯瑞安园店),118.020763,36.810163,其他,餐饮,晚上,5.92
2024-12-05,金梦园(新村西路店),118.027431,36.803256,其他,餐饮,中午,5.18
2024-12-05,金梦园(新村西路店),118.027431,36.803256,其他,餐饮,凌晨,3.97
2024-12-05,中国石化齐鲁石化公司培训中心,118.283599,36.815594,其他,学校,上午,6.76
2024-12-05,石头先生的烤炉(淄博博山店),117.860839,36.500122,其他,餐饮,凌晨,3.87
2024-12-05,石头先生的烤炉(淄博博山店),117.860839,36.500122,其他,餐饮,晚上,6.35
2024-12-05,仟佰汇,117.962278,36.646522,其他,商场,晚上,5.65
2024-12-05,仟佰汇,117.962278,36.646522,其他,商场,下午,5.82
2024-12-05,胜炼公园,118.259219,36.771678,其他,公园,深夜,6.26
2024-12-05,胜炼公园,118.259219,36.771678,其他,公园,上午,6.08
2024-12-05,遄台小学,118.321962,36.814051,其他,学校,傍晚,6.15
2024-12-05,遄台小学,118.321962,36.814051,其他,学校,中午,5.47
2024-12-05,沂源振华实验学校,118.182272,36.210307,其他,文化场馆,下午,5.83
2024-12-05,沂源振华实验学校,118.182272,36.210307,其他,文化场馆,上午,6.22
2024-12-05,淄博瑞生医院,118.040809,36.828672,其他,医院,傍晚,5.13
2024-12-05,高青县第九小时健身俱乐部(银座商城店),117.840109,37.164844,其他,体育场馆,晚上,6.34
2024-12-05,九龙商场,118.078194,36.904107,其他,商场,中午,5.72
2024-12-05,山东省桓台第二中学,118.07255,36.952882,其他,学校,深夜,4.8
2024-12-05,山东省桓台第二中学,118.07255,36.952882,其他,学校,凌晨,5.8
2024-12-05,张店区兴学街小学,118.054491,36.794399,其他,学校,下午,3.93
2024-12-05,张店区兴学街小学,118.054491,36.794399,其他,学校,傍晚,6.29
2024-12-05,慈云寺,117.875957,37.208507,其他,旅游景点,深夜,4.52
2024-12-05,新玛特购物广场(中润店),118.028591,36.837958,其他,商场,凌晨,3.28
2024-12-05,新玛特购物广场(中润店),118.028591,36.837958,其他,商场,下午,4.27
2024-12-05,自由界健身游泳俱乐部,118.32318,36.812518,其他,体育场馆,上午,6.63
2024-12-05,自由界健身游泳俱乐部,118.32318,36.812518,其他,体育场馆,凌晨,4.68
2024-12-05,桓台博物馆,118.096944,36.959551,其他,文化场馆,凌晨,1.77
2024-12-05,新星商厦(商城西街),117.959333,36.647242,其他,商场,中午,4.46
2024-12-05,新星商厦(商城西街),117.959333,36.647242,其他,商场,凌晨,4.58
2024-12-05,太公小学,118.335491,36.816887,其他,学校,中午,3.52
2024-12-05,国良烧烤,117.903396,37.04802,其他,餐饮,上午,7.7
2024-12-05,国良烧烤,117.903396,37.04802,其他,餐饮,中午,4.1
2024-12-05,淄博大众医院,118.04198,36.798201,其他,医院,凌晨,4.35
2024-12-05,墨羽羽毛球馆,117.975839,36.868265,其他,体育场馆,晚上,5.49
2024-12-05,淄博商厦(博山店),117.857579,36.511671,其他,商场,下午,5.18
2024-12-05,虾时代(沂源店),118.156895,36.185217,其他,餐饮,深夜,4.55
2024-12-05,虾时代(沂源店),118.156895,36.185217,其他,餐饮,下午,5.63
2024-12-05,面对面喜事汇,117.977589,36.640925,其他,餐饮,下午,5.67
2024-12-05,汇泉桃花岛,117.933869,36.117701,其他,旅游景点,晚上,4.07
2024-12-05,汇泉桃花岛,117.933869,36.117701,其他,旅游景点,深夜,4.75
2024-12-05,山东理工大学信息楼,118.004206,36.80863,其他,文化场馆,傍晚,5.45
2024-12-05,山东理工大学信息楼,118.004206,36.80863,其他,文化场馆,深夜,4.06
2024-12-05,稷下学宫遗址(不对外开放),118.332365,36.853936,其他,旅游景点,上午,6.3
2024-12-06,Mr.Sun凉皮铺子(天隆购物广场店),117.861202,36.503338,其他,餐饮,下午,6.16
2024-12-06,Mr.Sun凉皮铺子(天隆购物广场店),117.861202,36.503338,其他,餐饮,晚上,5.24
2024-12-06,淄博经济开发区实验学校,118.029182,36.77279,其他,学校,凌晨,2.83
2024-12-06,淄博经济开发区实验学校,118.029182,36.77279,其他,学校,上午,5.01
2024-12-06,富瑞特全民健身中心(富瑞特城市广场店),117.851331,36.808928,其他,体育场馆,凌晨,4.71
2024-12-06,富瑞特全民健身中心(富瑞特城市广场店),117.851331,36.808928,其他,体育场馆,晚上,4.78
2024-12-06,吉祥福第蚂蚱鸡,118.016031,36.848831,其他,餐饮,凌晨,4.18
2024-12-06,吉祥福第蚂蚱鸡,118.016031,36.848831,其他,餐饮,傍晚,5.14
2024-12-06,八仙阁,117.85769,36.544662,其他,旅游景点,下午,5.65
2024-12-06,八仙阁,117.85769,36.544662,其他,旅游景点,晚上,3.73
2024-12-06,权记洋行,118.061074,36.80042,其他,旅游景点,凌晨,3.8
2024-12-06,权记洋行,118.061074,36.80042,其他,旅游景点,中午,5.07
2024-12-06,金凯悦正阳路店,117.867168,36.817928,其他,餐饮,下午,5.58
2024-12-06,金凯悦正阳路店,117.867168,36.817928,其他,餐饮,上午,6.01
2024-12-06,乐华滋披萨(振兴路店),118.163299,36.186017,其他,餐饮,深夜,5.4
2024-12-06,淄博瑞生医院,118.040809,36.828672,其他,医院,中午,4.46
2024-12-06,五阳湖生态旅游度假区,117.88886,36.395126,其他,旅游景点,下午,6.9
2024-12-06,五阳湖生态旅游度假区,117.88886,36.395126,其他,旅游景点,傍晚,5.36
2024-12-06,山川禅寺,117.961374,36.616908,其他,旅游景点,傍晚,5.35
2024-12-06,淄建集团医院,118.064021,36.801248,其他,医院,深夜,5.18
2024-12-06,孟家炉神姑庙,118.187016,36.820819,其他,旅游景点,中午,6.65
2024-12-06,虾时代(沂源店),118.156895,36.185217,其他,餐饮,凌晨,3.08
2024-12-06,虾时代(沂源店),118.156895,36.185217,其他,餐饮,中午,4.05
2024-12-06,兰州杨记牛肉面,118.199968,36.792604,其他,餐饮,下午,6.94
2024-12-06,兰州杨记牛肉面,118.199968,36.792604,其他,餐饮,上午,5.37
2024-12-06,安澜湾,117.896269,37.260744,其他,旅游景点,凌晨,4.45
2024-12-06,海棠园,117.994754,36.839891,其他,旅游景点,凌晨,4.6
2024-12-06,海棠园,117.994754,36.839891,其他,旅游景点,上午,5.17
2024-12-06,小寨游园,117.864398,36.808559,其他,公园,晚上,6.31
2024-12-06,富丽商城,118.056526,36.805114,其他,商场,深夜,3.45
2024-12-06,富丽商城,118.056526,36.805114,其他,商场,中午,5.24
2024-12-06,雪宫小学,118.303573,36.818514,其他,学校,深夜,2.79
2024-12-06,雪宫小学,118.303573,36.818514,其他,学校,中午,4.54
2024-12-06,金牛山景区,117.905307,36.37245,其他,旅游景点,中午,5.0
2024-12-06,西部炭火(周村店),117.849038,36.81031,其他,餐饮,晚上,5.0
2024-12-06,西部炭火(周村店),117.849038,36.81031,其他,餐饮,下午,4.83
2024-12-06,天主教堂,118.020124,36.78171,其他,旅游景点,下午,7.93
2024-12-06,世纪篮球俱乐部(金筷子校区),118.063452,36.84307,其他,体育场馆,中午,4.28
2024-12-06,临淄杜郎口小学,118.284229,36.80673,其他,学校,上午,4.63
2024-12-06,火刻北京烤鸭(明清街店),118.043785,36.833541,其他,餐饮,晚上,4.94
2024-12-06,方和茂,118.300029,36.81432,其他,商场,下午,6.52
2024-12-06,方和茂,118.300029,36.81432,其他,商场,傍晚,7.1
2024-12-06,圣得利(巴黎假日·步行街店),117.852682,36.798157,其他,餐饮,晚上,6.44
2024-12-06,万隆大楼,117.849813,36.79747,其他,商场,傍晚,5.19
2024-12-06,万隆大楼,117.849813,36.79747,其他,商场,晚上,5.26
2024-12-06,鲁山国家森林公园,118.048565,36.309523,其他,旅游景点,晚上,5.32
2024-12-06,张店儿童公园,118.071556,36.801765,其他,公园,傍晚,7.02
2024-12-06,张店儿童公园,118.071556,36.801765,其他,公园,晚上,5.98
2024-12-06,张店区绿杉园小学,118.046686,36.832088,其他,学校,晚上,4.79
2024-12-06,淄川二中,117.978648,36.655917,其他,学校,凌晨,5.79
2024-12-06,齐盛湖公园,117.989284,36.841662,其他,公园,傍晚,4.49
2024-12-06,黄桑别院,118.025778,36.812851,其他,餐饮,晚上,4.78
2024-12-06,黄桑别院,118.025778,36.812851,其他,餐饮,深夜,3.94
2024-12-06,后厨金字塔(美达华庭店),118.018377,36.825519,其他,餐饮,中午,7.31
2024-12-06,后厨金字塔(美达华庭店),118.018377,36.825519,其他,餐饮,深夜,3.0
2024-12-06,中威中医院,117.949276,36.645747,其他,医院,上午,6.11
2024-12-06,野香蕉团课健身,118.078014,36.816783,其他,体育场馆,深夜,5.51
2024-12-06,野香蕉团课健身,118.078014,36.816783,其他,体育场馆,下午,5.13
2024-12-06,临淄区闻韶银山百货商场(方正2009小区店),118.331701,36.817583,其他,商场,上午,7.56
2024-12-06,临淄区闻韶银山百货商场(方正2009小区店),118.331701,36.817583,其他,商场,下午,7.51
2024-12-06,六点水新世界,118.177816,36.196675,其他,公园,傍晚,5.6
2024-12-06,六点水新世界,118.177816,36.196675,其他,公园,上午,7.6
2024-12-06,易达广场,117.837451,36.497742,其他,商场,上午,5.16
2024-12-06,易达广场,117.837451,36.497742,其他,商场,下午,5.91
2024-12-06,张店区第三中学,118.05725,36.807199,其他,学校,中午,7.68
2024-12-06,张店区第三中学,118.05725,36.807199,其他,学校,上午,6.51
2024-12-06,淄博实验中学,118.008153,36.801282,其他,学校,中午,4.77
2024-12-06,留仙湖公园-淄川健康主题公园,117.956814,36.634343,其他,公园,傍晚,6.52
2024-12-06,干锅鸭头老博山菜(白虎山路商业街店),117.86028,36.513678,其他,餐饮,凌晨,3.68
2024-12-06,干锅鸭头老博山菜(白虎山路商业街店),117.86028,36.513678,其他,餐饮,下午,6.52
2024-12-06,正觉寺,117.898886,36.526624,其他,旅游景点,晚上,3.0
2024-12-06,正觉寺,117.898886,36.526624,其他,旅游景点,上午,5.57
2024-12-06,清梅居食品厂(白虎店),117.851202,36.499334,其他,餐饮,中午,7.02
2024-12-06,淄博市中心医院住院一部,117.975604,36.809321,其他,医院,傍晚,5.82
2024-12-06,淄博市中心医院住院一部,117.975604,36.809321,其他,医院,中午,4.16
2024-12-06,梓橦山滑雪场,118.028732,36.666134,其他,体育场馆,晚上,5.0
2024-12-06,梓橦山滑雪场,118.028732,36.666134,其他,体育场馆,中午,4.63
2024-12-06,骑士台球棋牌俱乐部,118.020878,36.828858,其他,体育场馆,深夜,3.97
2024-12-06,骑士台球棋牌俱乐部,118.020878,36.828858,其他,体育场馆,上午,5.59
2024-12-06,观音古寺,118.161694,36.365494,其他,旅游景点,凌晨,5.57
2024-12-06,谈小娱24h自助台球(博山淄博商厦店),117.857884,36.511516,其他,体育场馆,傍晚,7.22
2024-12-06,谈小娱24h自助台球(博山淄博商厦店),117.857884,36.511516,其他,体育场馆,上午,6.03
2024-12-06,齐林公园,118.062031,36.860615,其他,公园,凌晨,4.52
2024-12-06,齐林公园,118.062031,36.860615,其他,公园,下午,6.68
2024-12-06,竹林寺,118.11276,36.55198,其他,旅游景点,上午,4.99
2024-12-06,金茵小学,118.318705,36.827676,其他,学校,凌晨,2.44
2024-12-06,光辉百货,117.859345,36.786782,其他,商场,中午,5.72
2024-12-06,沂河沂源源头水保护区,118.116224,36.167737,其他,旅游景点,深夜,4.57
2024-12-06,沂河沂源源头水保护区,118.116224,36.167737,其他,旅游景点,傍晚,5.82
2024-12-06,莲花庵,118.077052,36.684369,其他,旅游景点,晚上,4.57
2024-12-06,莲花庵,118.077052,36.684369,其他,旅游景点,中午,5.95
2024-12-06,张店区凯瑞园社区卫生服务中心,118.020489,36.813996,其他,医院,凌晨,4.18
2024-12-06,张店区凯瑞园社区卫生服务中心,118.020489,36.813996,其他,医院,中午,5.74
2024-12-07,淄博市高新区植物园,118.02744,36.859301,其他,公园,上午,5.82
2024-12-07,淄博市高新区植物园,118.02744,36.859301,其他,公园,中午,8.09
2024-12-07,蝴蝶峪,117.781106,36.513231,其他,旅游景点,凌晨,6.08
2024-12-07,银座新天地(银座购物广场),117.961975,36.650175,其他,商场,傍晚,6.62
2024-12-07,银座新天地(银座购物广场),117.961975,36.650175,其他,商场,凌晨,6.35
2024-12-07,淄博柳泉中学,117.977727,36.819203,其他,学校,晚上,5.36
2024-12-07,陶然香火锅居(将军路店),117.971523,36.629764,其他,餐饮,傍晚,6.21
2024-12-07,观音古寺,118.161694,36.365494,其他,旅游景点,凌晨,4.18
2024-12-07,茂业百货(泰客荣店),118.302802,36.813754,其他,商场,上午,7.17
2024-12-07,茂业百货(泰客荣店),118.302802,36.813754,其他,商场,晚上,4.65
2024-12-07,王渔洋故里景区,117.940854,36.950247,其他,旅游景点,下午,6.25
2024-12-07,华藏寺,117.950788,36.556576,其他,旅游景点,深夜,4.94
2024-12-07,华藏寺,117.950788,36.556576,其他,旅游景点,下午,9.18
2024-12-07,蒙之涮(植物园店),118.03324,36.789241,其他,餐饮,上午,4.76
2024-12-07,淄博市农业科学研究院(商场西街),118.030106,36.804568,其他,文化场馆,上午,7.37
2024-12-07,淄博市农业科学研究院(商场西街),118.030106,36.804568,其他,文化场馆,凌晨,3.9
2024-12-07,金惠丽百货,118.065748,37.06301,其他,商场,下午,6.8
2024-12-07,淄博建筑工程学校,118.106771,36.967138,其他,学校,晚上,6.23
2024-12-07,福润斯游泳健身会所,118.05429,36.805671,其他,体育场馆,傍晚,5.0
2024-12-07,淄博市第一医院北院区,117.877401,36.532754,其他,医院,凌晨,5.37
2024-12-07,由熙(尚美店),118.037704,36.810171,其他,餐饮,上午,7.62
2024-12-07,由熙(尚美店),118.037704,36.810171,其他,餐饮,凌晨,4.92
2024-12-07,杨寨卫生院,117.992947,36.710863,其他,医院,上午,7.65
2024-12-07,胜利山九九乐园,118.177256,36.18827,其他,公园,凌晨,4.88
2024-12-07,胜利山九九乐园,118.177256,36.18827,其他,公园,中午,5.63
2024-12-07,大管家,118.067791,36.843187,其他,餐饮,深夜,5.05
2024-12-07,大管家,118.067791,36.843187,其他,餐饮,傍晚,4.87
2024-12-07,圣佛山,118.362109,36.190447,其他,旅游景点,傍晚,5.62
2024-12-07,圣佛山,118.362109,36.190447,其他,旅游景点,上午,5.09
2024-12-07,公社炒鸡老菜馆(八大局店),118.075206,36.808527,其他,餐饮,凌晨,5.97
2024-12-07,人民公社湘菜馆(联通路),118.045252,36.827996,其他,餐饮,傍晚,6.71
2024-12-07,人民公社湘菜馆(联通路),118.045252,36.827996,其他,餐饮,上午,8.85
2024-12-07,猪龙河生态公园,118.04949,36.804743,其他,公园,凌晨,3.85
2024-12-07,淄川天主堂,118.001386,36.639336,其他,旅游景点,深夜,4.75
2024-12-07,淄川天主堂,118.001386,36.639336,其他,旅游景点,上午,5.33
2024-12-07,重庆饭店(华光路店),118.058445,36.819347,其他,餐饮,凌晨,5.12
2024-12-07,供销商场,118.048573,36.196962,其他,商场,晚上,4.98
2024-12-07,供销商场,118.048573,36.196962,其他,商场,傍晚,6.29
2024-12-07,典雅服装商场,117.988939,36.74058,其他,商场,中午,5.54
2024-12-07,淄博市红螺山公园,118.32544,36.789942,其他,公园,中午,6.7
2024-12-07,商家公园,118.097382,36.784934,其他,公园,下午,8.2
2024-12-07,淄江社区卫生服务中心,118.335599,36.814881,其他,医院,凌晨,4.78
2024-12-07,淄江社区卫生服务中心,118.335599,36.814881,其他,医院,傍晚,7.15
2024-12-07,七夕广场,117.977751,36.789213,其他,公园,深夜,3.69
2024-12-07,七夕广场,117.977751,36.789213,其他,公园,上午,7.25
2024-12-07,淄博市唐家山文化生态园,118.019602,36.752995,其他,公园,晚上,4.29
2024-12-07,青云大酒店(中共淄川区洪山镇委员会东),118.002062,36.623339,其他,餐饮,晚上,4.46
2024-12-07,张店区体育馆广场,118.036343,36.797352,其他,公园,上午,6.87
2024-12-07,淄博市建筑设计研究院有限公司,118.053384,36.812807,其他,文化场馆,下午,4.72
2024-12-07,淄博市建筑设计研究院有限公司,118.053384,36.812807,其他,文化场馆,傍晚,7.29
2024-12-07,山铝体育馆,118.044187,36.755264,其他,体育场馆,傍晚,4.83
2024-12-07,山铝体育馆,118.044187,36.755264,其他,体育场馆,晚上,5.87
2024-12-07,圣得利(巴黎假日·步行街店),117.852682,36.798157,其他,餐饮,上午,8.39
2024-12-07,桓台商厦,118.105225,36.959466,其他,商场,中午,5.07
2024-12-07,桓台商厦,118.105225,36.959466,其他,商场,傍晚,7.82
2024-12-07,六点水新世界,118.177816,36.196675,其他,公园,上午,6.22
2024-12-07,富丽商城,118.056526,36.805114,其他,商场,晚上,5.81
2024-12-07,富丽商城,118.056526,36.805114,其他,商场,中午,7.77
2024-12-07,天玑阁,117.945775,37.186481,其他,旅游景点,下午,7.65
2024-12-07,金沙健身(易达店),117.837132,36.497611,其他,体育场馆,凌晨,3.39
2024-12-07,金沙健身(易达店),117.837132,36.497611,其他,体育场馆,晚上,4.35
2024-12-07,黑旺卫生院,118.147953,36.626963,其他,医院,晚上,4.72
2024-12-07,淄博市周村夏源商贸有限公司,117.85205,36.798008,其他,商场,凌晨,5.82
2024-12-07,淄博市周村夏源商贸有限公司,117.85205,36.798008,其他,商场,下午,6.38
2024-12-07,陶然香火锅居(昆仑店),117.91889,36.58653,其他,餐饮,傍晚,5.79
2024-12-07,峨庄瀑布群风景区,118.190568,36.438902,其他,旅游景点,凌晨,4.07
2024-12-07,昆仑广场,117.91394,36.581689,其他,公园,上午,5.35
2024-12-07,昆仑广场,117.91394,36.581689,其他,公园,傍晚,5.61
2024-12-07,湖田医院-湖田卫生院,118.11723,36.790515,其他,医院,下午,5.2
2024-12-07,临淄区道德主题公园,118.303875,36.819506,其他,公园,傍晚,5.26
2024-12-07,淄博市第四人民医院,118.043297,36.76628,其他,医院,傍晚,7.26
2024-12-07,淄博市第四人民医院,118.043297,36.76628,其他,医院,深夜,4.41
2024-12-08,淄博市革命烈士陵园,117.88136,36.762238,其他,旅游景点,晚上,6.93
2024-12-08,淄博市革命烈士陵园,117.88136,36.762238,其他,旅游景点,上午,5.78
2024-12-08,银泰·金街,118.034913,36.84867,其他,商场,下午,5.58
2024-12-08,银泰·金街,118.034913,36.84867,其他,商场,晚上,6.57
2024-12-08,盛达商业广场B区,117.863716,36.504063,其他,商场,凌晨,3.97
2024-12-08,沂源四中,118.249974,36.217228,其他,学校,中午,6.93
2024-12-08,马桥植物园,117.917271,37.035436,其他,公园,深夜,3.94
2024-12-08,群星乒乓球俱乐部,118.302705,36.80855,其他,体育场馆,凌晨,4.67
2024-12-08,群星乒乓球俱乐部,118.302705,36.80855,其他,体育场馆,下午,6.75
2024-12-08,淄博市第六人民医院,118.011131,36.835829,其他,医院,凌晨,2.73
2024-12-08,阳光动力心武搏击健身工作室,117.859144,36.496395,其他,体育场馆,晚上,5.58
2024-12-08,阳光动力心武搏击健身工作室,117.859144,36.496395,其他,体育场馆,深夜,5.72
2024-12-08,淄博市张店区第六中学,117.99802,36.769038,其他,学校,中午,5.58
2024-12-08,桓台夏庄昭亮医院,118.119908,37.061022,其他,医院,傍晚,6.69
2024-12-08,淄博市周村夏源商贸有限公司,117.85205,36.798008,其他,商场,凌晨,5.22
2024-12-08,淄博市周村夏源商贸有限公司,117.85205,36.798008,其他,商场,中午,5.65
2024-12-08,足球主题公园,118.371633,36.804896,其他,公园,凌晨,6.35
2024-12-08,淄博中学,118.120439,36.831177,其他,学校,深夜,5.27
2024-12-08,山东农业工程学院(淄博校区),117.934861,36.845859,其他,学校,中午,4.74
2024-12-08,创濠体育健身综合体,118.048859,36.842444,其他,体育场馆,上午,8.57
2024-12-08,智德羽毛球馆,117.998564,36.792108,其他,体育场馆,深夜,4.12
2024-12-08,FlowPace(鼎成店),117.993628,36.822947,其他,体育场馆,下午,6.98
2024-12-08,FlowPace(鼎成店),117.993628,36.822947,其他,体育场馆,深夜,5.53
2024-12-08,鑫群购物中心超市,118.196422,36.800932,其他,商场,深夜,4.84
2024-12-08,鑫群购物中心超市,118.196422,36.800932,其他,商场,凌晨,5.11
2024-12-08,动力100游泳健身(吾悦广场店),117.866817,36.823078,其他,体育场馆,上午,4.23
2024-12-08,动力100游泳健身(吾悦广场店),117.866817,36.823078,其他,体育场馆,深夜,3.39
2024-12-08,奥朗特购物广场,118.012429,36.810507,其他,商场,凌晨,5.74
2024-12-08,法王院,118.032929,36.713602,其他,旅游景点,上午,5.71
2024-12-08,莲池法治文化公园,118.03423,36.823497,其他,公园,中午,4.41
2024-12-08,面对面喜事汇,117.977589,36.640925,其他,餐饮,晚上,5.62
2024-12-08,面对面喜事汇,117.977589,36.640925,其他,餐饮,凌晨,2.41
2024-12-08,王超·台球俱乐部(奥德隆家居店),118.307274,36.807644,其他,体育场馆,上午,7.57
2024-12-08,王超·台球俱乐部(奥德隆家居店),118.307274,36.807644,其他,体育场馆,深夜,6.04
2024-12-08,高青燕园学校,117.800862,37.170935,其他,学校,深夜,4.26
2024-12-08,鲁村中心卫生院,118.048379,36.195733,其他,医院,傍晚,4.3
2024-12-08,长龙灌汤包,117.852565,36.808305,其他,餐饮,深夜,5.32
2024-12-08,宁戚饭牛处,118.298465,36.863842,其他,旅游景点,凌晨,6.6
2024-12-08,宁戚饭牛处,118.298465,36.863842,其他,旅游景点,深夜,3.94
2024-12-08,国梁烧烤,117.957404,36.667691,其他,餐饮,下午,7.37
2024-12-08,国梁烧烤,117.957404,36.667691,其他,餐饮,傍晚,6.86
2024-12-08,太公小学,118.335491,36.816887,其他,学校,傍晚,6.42
2024-12-08,桓台一中附属学校,118.069779,36.959617,其他,学校,晚上,4.68
2024-12-08,沂源县人民医院悦庄分院,118.265979,36.206135,其他,医院,上午,5.2
2024-12-08,临淄拿铁健身俱乐部(棠悦店),118.326372,36.833733,其他,体育场馆,凌晨,4.72
2024-12-08,临淄拿铁健身俱乐部(棠悦店),118.326372,36.833733,其他,体育场馆,晚上,7.31
2024-12-08,重庆石锅鱼,118.001048,36.803795,其他,餐饮,晚上,5.19
2024-12-08,重庆石锅鱼,118.001048,36.803795,其他,餐饮,深夜,3.69
2024-12-08,沂源第一中学,118.202762,36.204404,其他,学校,上午,6.15
2024-12-08,茂业天地,118.050853,36.807477,其他,商场,晚上,5.75
2024-12-08,茂业天地,118.050853,36.807477,其他,商场,深夜,4.44
2024-12-08,新玛特名酒专柜(新玛特购物广场店),118.028595,36.837937,其他,商场,凌晨,3.76
2024-12-08,新玛特名酒专柜(新玛特购物广场店),118.028595,36.837937,其他,商场,晚上,4.81
2024-12-08,马鞍山旅游区,118.092432,36.47841,其他,旅游景点,凌晨,4.67
2024-12-08,马鞍山旅游区,118.092432,36.47841,其他,旅游景点,晚上,5.98
2024-12-08,淄博潭溪山旅游区,118.206054,36.497949,其他,旅游景点,傍晚,6.59
2024-12-08,淄博潭溪山旅游区,118.206054,36.497949,其他,旅游景点,晚上,4.51
2024-12-08,福德寺,118.233143,36.766972,其他,旅游景点,下午,5.8
2024-12-08,如月湖湿地公园,117.892587,36.442721,其他,旅游景点,下午,5.36
2024-12-08,石家班台球俱乐部,118.032648,36.836346,其他,体育场馆,下午,7.01
2024-12-08,齐鲁石化公司党委党校,118.284505,36.817216,其他,学校,深夜,5.82
2024-12-08,齐鲁石化公司党委党校,118.284505,36.817216,其他,学校,下午,6.84
2024-12-08,人民东路小学,118.064812,36.810418,其他,学校,中午,6.93
2024-12-08,人民东路小学,118.064812,36.810418,其他,学校,下午,7.19
2024-12-08,万隆大楼,117.849813,36.79747,其他,商场,下午,5.92
2024-12-08,万隆大楼,117.849813,36.79747,其他,商场,深夜,6.78
2024-12-08,桓台县鱼龙中学,118.101559,37.0654,其他,学校,晚上,6.02
2024-12-08,喜力私教健身(华润店),118.060887,36.803298,其他,体育场馆,上午,6.13
2024-12-08,喜力私教健身(华润店),118.060887,36.803298,其他,体育场馆,深夜,4.83
2024-12-08,大海商厦,117.958091,36.643402,其他,商场,傍晚,6.26
2024-12-08,大海商厦,117.958091,36.643402,其他,商场,凌晨,3.51
2024-12-08,黑咖空间健身馆,118.002446,36.841283,其他,体育场馆,中午,7.62
2024-12-08,黑咖空间健身馆,118.002446,36.841283,其他,体育场馆,深夜,5.22
2024-12-08,高青县第五中学,117.881124,37.151187,其他,学校,傍晚,6.75
2024-12-08,高青县第五中学,117.881124,37.151187,其他,学校,晚上,5.46
2024-12-08,淄博信息工程学校,118.067903,36.805023,其他,学校,上午,6.89
2024-12-08,张店区凯瑞园社区卫生服务中心,118.020489,36.813996,其他,医院,晚上,5.5
2024-12-08,张店区凯瑞园社区卫生服务中心,118.020489,36.813996,其他,医院,上午,6.69
2024-12-08,银座中心店2期,118.049828,36.804971,其他,商场,上午,8.77
2024-12-08,银座中心店2期,118.049828,36.804971,其他,商场,晚上,5.91
2024-12-08,博山区道德主题公园,117.855662,36.495119,其他,公园,中午,7.06
2024-12-08,博山区道德主题公园,117.855662,36.495119,其他,公园,傍晚,4.85
2024-12-08,方和茂,118.300029,36.81432,其他,商场,上午,7.42
2024-12-08,方和茂,118.300029,36.81432,其他,商场,凌晨,2.66
2024-12-08,黑旺卫生院,118.147953,36.626963,其他,医院,上午,6.84
2024-12-08,黑旺卫生院,118.147953,36.626963,其他,医院,凌晨,5.22
2024-12-08,安源蛋糕,118.166964,36.18527,其他,餐饮,深夜,5.32
2024-12-08,安源蛋糕,118.166964,36.18527,其他,餐饮,凌晨,3.52
2024-12-08,马勇烧烤,118.209615,36.799641,其他,餐饮,上午,6.25
2024-12-08,黄桑别院,118.025778,36.812851,其他,餐饮,中午,5.71
2024-12-09,老车家烧烤,117.971224,36.628883,其他,餐饮,深夜,3.41
2024-12-09,淄博益宁医院,118.077476,36.816863,其他,医院,下午,5.92
2024-12-09,张店区科苑街道科技苑社区卫生服务站,118.051755,36.833748,其他,医院,中午,5.44
2024-12-09,张店区科苑街道科技苑社区卫生服务站,118.051755,36.833748,其他,医院,晚上,5.3
2024-12-09,沂源县历山中学,118.161848,36.191321,其他,学校,上午,4.21
2024-12-09,沂源县历山中学,118.161848,36.191321,其他,学校,下午,4.44
2024-12-09,福瑞园蛋糕(邮政局宿舍店),118.098388,36.961395,其他,餐饮,下午,6.54
2024-12-09,福瑞园蛋糕(邮政局宿舍店),118.098388,36.961395,其他,餐饮,中午,7.9
2024-12-09,淄博第四中学,117.964349,36.648354,其他,学校,深夜,5.52
2024-12-09,淄博第四中学,117.964349,36.648354,其他,学校,中午,6.27
2024-12-09,淄川济民医院,117.977587,36.65291,其他,医院,晚上,4.3
2024-12-09,淄川济民医院,117.977587,36.65291,其他,医院,傍晚,5.6
2024-12-09,威斯曼健身搏击俱乐部(百脑汇店),118.048142,36.802401,其他,体育场馆,深夜,3.18
2024-12-09,大自然庄园,118.300918,36.859325,其他,餐饮,下午,7.01
2024-12-09,博山区八陡镇卫生院,117.915515,36.455647,其他,医院,上午,8.31
2024-12-09,博山区八陡镇卫生院,117.915515,36.455647,其他,医院,中午,3.83
2024-12-09,沂源县人民医院大张庄分院,118.028335,36.036198,其他,医院,下午,5.84
2024-12-09,经开区可奕羽毛球馆,118.089133,36.757848,其他,体育场馆,下午,6.39
2024-12-09,淄博博山鲁中中医院,117.846959,36.533807,其他,医院,上午,5.7
2024-12-09,淄博博山鲁中中医院,117.846959,36.533807,其他,医院,下午,5.08
2024-12-09,临淄人民广场,118.308885,36.824891,其他,公园,深夜,4.5
2024-12-09,新星商城,117.98305,36.665048,其他,商场,中午,6.91
2024-12-09,新星商城,117.98305,36.665048,其他,商场,凌晨,4.88
2024-12-09,鑫乔羽毛球馆,118.076222,36.817135,其他,体育场馆,凌晨,3.46
2024-12-09,加一桌,117.851289,36.776556,其他,餐饮,傍晚,6.74
2024-12-09,加一桌,117.851289,36.776556,其他,餐饮,上午,5.08
2024-12-09,莲花庵,118.077052,36.684369,其他,旅游景点,凌晨,2.86
2024-12-09,桓台县第二小学,118.093883,36.955014,其他,学校,傍晚,4.61
2024-12-09,西寨煎饼-猪头肉(西寨小区店),117.855764,36.499442,其他,餐饮,下午,5.49
2024-12-09,西寨煎饼-猪头肉(西寨小区店),117.855764,36.499442,其他,餐饮,晚上,3.7
2024-12-09,金三角亿峰台球,118.297741,36.821013,其他,体育场馆,凌晨,5.0
2024-12-09,礼拜堂,118.121455,36.962463,其他,旅游景点,下午,6.23
2024-12-09,礼拜堂,118.121455,36.962463,其他,旅游景点,傍晚,7.61
2024-12-09,南庙,117.987152,36.619724,其他,旅游景点,下午,5.32
2024-12-09,响袋24小时自助棋牌台球(淄博潘庄店),118.059775,36.819697,其他,体育场馆,凌晨,4.19
2024-12-09,金乔游园,118.076624,36.814346,其他,公园,凌晨,3.0
2024-12-09,成语公园,117.985906,36.696047,其他,公园,傍晚,7.49
2024-12-09,成语公园,117.985906,36.696047,其他,公园,凌晨,3.93
2024-12-09,动力100游泳健身(荣盛广场店),117.999996,36.825192,其他,体育场馆,晚上,4.41
2024-12-09,动力100游泳健身(荣盛广场店),117.999996,36.825192,其他,体育场馆,凌晨,2.92
2024-12-09,凯马健身俱乐部(遄台店),118.320304,36.813408,其他,体育场馆,凌晨,4.12
2024-12-09,滨州医学院淄博教学基地,118.055554,36.807226,其他,学校,晚上,4.46
2024-12-09,滨州医学院淄博教学基地,118.055554,36.807226,其他,学校,凌晨,3.75
2024-12-09,锅圈食汇火锅烧烤食材超市(齐都花园店),118.290581,36.827659,其他,餐饮,中午,5.68
2024-12-09,体育中心篮球馆,117.984709,36.815222,其他,体育场馆,晚上,4.42
2024-12-09,体育中心篮球馆,117.984709,36.815222,其他,体育场馆,深夜,3.92
2024-12-09,张店儿童公园,118.071556,36.801765,其他,公园,晚上,5.48
2024-12-09,圆心楼商城,117.844755,36.618944,其他,商场,凌晨,4.92
2024-12-09,山东省高青一中,117.849096,37.174481,其他,学校,下午,6.01
2024-12-09,山东省高青一中,117.849096,37.174481,其他,学校,上午,4.84
2024-12-09,庵头村健身广场,117.956615,36.735934,其他,公园,凌晨,6.23
2024-12-09,淄博张店东方双语学校,118.001771,36.799963,其他,学校,深夜,4.46
2024-12-09,淄博张店东方双语学校,118.001771,36.799963,其他,学校,晚上,6.2
2024-12-09,旺哥鸡公煲(北营店),118.065529,36.855725,其他,餐饮,下午,6.0
2024-12-09,淄博高新技术产业开发区卫固中心卫生院,118.144756,36.867151,其他,医院,中午,6.84
2024-12-09,淄博高新技术产业开发区卫固中心卫生院,118.144756,36.867151,其他,医院,下午,6.2
2024-12-09,琉璃园,117.85809,36.497154,其他,旅游景点,凌晨,5.7
2024-12-09,lv台球器材店,118.023503,36.793153,其他,体育场馆,深夜,5.82
2024-12-09,lv台球器材店,118.023503,36.793153,其他,体育场馆,凌晨,4.11
2024-12-09,张店区人民医院(主院区),118.057745,36.795784,其他,医院,晚上,5.13
2024-12-09,张店区人民医院(主院区),118.057745,36.795784,其他,医院,凌晨,4.54
2024-12-09,老字号段家煮锅(青年路店),117.84698,36.806725,其他,餐饮,晚上,6.01
2024-12-09,齐陵医院,118.377483,36.799623,其他,医院,深夜,4.54
2024-12-09,齐陵医院,118.377483,36.799623,其他,医院,晚上,4.19
2024-12-09,张店区南定镇卫生院,118.04596,36.745646,其他,医院,中午,7.17
2024-12-09,张店区南定镇卫生院,118.04596,36.745646,其他,医院,下午,6.11
2024-12-09,淄博市张店区第四中学,118.088207,36.753633,其他,学校,深夜,4.74
2024-12-09,忠亲王祠,117.967651,36.645975,其他,旅游景点,中午,5.62
2024-12-09,忠亲王祠,117.967651,36.645975,其他,旅游景点,深夜,4.81
2024-12-09,桓台县鱼龙中学,118.101559,37.0654,其他,学校,晚上,5.98
2024-12-09,淄博潭溪山旅游区,118.206054,36.497949,其他,旅游景点,傍晚,5.36
2024-12-09,孝妇河湿地公园喷泉广场,117.970314,36.801683,其他,公园,凌晨,4.85
2024-12-09,原山国家森林公园-吕祖庙,117.83522,36.478136,其他,旅游景点,中午,5.71
2024-12-09,泸溪河桃酥(淄博吾悦广场店),118.025209,36.78382,其他,餐饮,深夜,4.17
2024-12-09,泸溪河桃酥(淄博吾悦广场店),118.025209,36.78382,其他,餐饮,中午,5.6
2024-12-09,原山国家森林公园-文姜广场,117.856495,36.482443,其他,公园,上午,6.24
2024-12-09,原山国家森林公园-文姜广场,117.856495,36.482443,其他,公园,傍晚,5.8
2024-12-09,淄博北站南广场,118.02671,36.893317,其他,公园,深夜,3.68
2024-12-09,金凯悦正阳路店,117.867168,36.817928,其他,餐饮,中午,5.43
2024-12-09,淄博市体育场游泳馆,117.983437,36.813185,其他,体育场馆,凌晨,5.88
2024-12-09,淄博市体育场游泳馆,117.983437,36.813185,其他,体育场馆,下午,7.48
2024-12-09,春之光医院,118.073479,36.806474,其他,医院,中午,4.23
2024-12-09,春之光医院,118.073479,36.806474,其他,医院,上午,4.46
2024-12-09,临淄蹴鞠小镇,118.371823,36.805196,其他,体育场馆,晚上,6.13
2024-12-09,红莲湖公园,118.074569,36.934136,其他,公园,下午,5.87
2024-12-09,惠仟佳超市,118.08749,36.959884,其他,商场,下午,5.28
2024-12-09,张店区人民医院(南院区),118.059541,36.791552,其他,医院,深夜,5.14
2024-12-09,张店区人民医院(南院区),118.059541,36.791552,其他,医院,下午,5.72
2024-12-10,昆仑党建文化主题广场,117.913821,36.58224,其他,公园,凌晨,2.93
2024-12-10,昆仑党建文化主题广场,117.913821,36.58224,其他,公园,中午,5.18
2024-12-10,四季青医院西院区,117.972697,36.835747,其他,医院,深夜,5.08
2024-12-10,山东省生建八三医院,117.711653,36.664447,其他,医院,傍晚,5.07
2024-12-10,山东省生建八三医院,117.711653,36.664447,其他,医院,中午,5.21
2024-12-10,百家姓主题纪念公园,117.995852,36.885687,其他,公园,晚上,6.27
2024-12-10,百家姓主题纪念公园,117.995852,36.885687,其他,公园,傍晚,4.67
2024-12-10,淄川二中,117.978648,36.655917,其他,学校,上午,4.39
2024-12-10,淄川二中,117.978648,36.655917,其他,学校,中午,6.03
2024-12-10,梓潼关,117.887834,36.71048,其他,旅游景点,下午,4.99
2024-12-10,一家亲海鲜酒店(王舍路店),118.013831,36.791466,其他,餐饮,傍晚,4.48
2024-12-10,一家亲海鲜酒店(王舍路店),118.013831,36.791466,其他,餐饮,深夜,4.05
2024-12-10,富瑞特全民健身中心(富瑞特城市广场店),117.851331,36.808928,其他,体育场馆,下午,4.48
2024-12-10,鲁泰体育场,117.982651,36.639185,其他,体育场馆,凌晨,4.06
2024-12-10,鲁泰体育场,117.982651,36.639185,其他,体育场馆,中午,5.38
2024-12-10,山东齐鲁武校,118.160609,36.698077,其他,学校,深夜,4.45
2024-12-10,云水瑶风景区,118.230763,36.367618,其他,旅游景点,深夜,5.68
2024-12-10,新玛特购物广场(中润店),118.028591,36.837958,其他,商场,凌晨,4.79
2024-12-10,新玛特购物广场(中润店),118.028591,36.837958,其他,商场,傍晚,6.4
2024-12-10,张店区体育馆,118.036155,36.796165,其他,体育场馆,下午,6.21
2024-12-10,鑫乔羽毛球馆,118.076222,36.817135,其他,体育场馆,晚上,5.82
2024-12-10,鑫乔羽毛球馆,118.076222,36.817135,其他,体育场馆,上午,6.66
2024-12-10,广利来(步行街店),117.852554,36.80653,其他,餐饮,中午,4.81
2024-12-10,广利来(步行街店),117.852554,36.80653,其他,餐饮,下午,4.01
2024-12-10,流苏园,117.918142,36.823744,其他,公园,凌晨,4.18
2024-12-10,流苏园,117.918142,36.823744,其他,公园,晚上,5.91
2024-12-10,Top台球俱乐部(奥朗特购物广场店),118.012654,36.810435,其他,体育场馆,深夜,2.91
2024-12-10,淄川区医院,117.966577,36.655537,其他,医院,下午,6.14
2024-12-10,淄川区医院,117.966577,36.655537,其他,医院,上午,6.8
2024-12-10,行动力健身,118.294247,36.819368,其他,体育场馆,上午,5.9
2024-12-10,行动力健身,118.294247,36.819368,其他,体育场馆,下午,4.76
2024-12-10,淄博齐盛高级中学,117.976779,36.852334,其他,学校,下午,4.98
2024-12-10,淄博市中医医院东院区,117.934679,36.802417,其他,医院,下午,5.98
2024-12-10,淄博市中医医院东院区,117.934679,36.802417,其他,医院,上午,6.67
2024-12-10,锤子女子健身,117.991131,36.847568,其他,体育场馆,下午,5.01
2024-12-10,红樱桃时尚购物广场(振华商厦店),118.055728,36.802018,其他,商场,凌晨,3.15
2024-12-10,红樱桃时尚购物广场(振华商厦店),118.055728,36.802018,其他,商场,傍晚,6.0
2024-12-10,豹岩观,117.72937,36.651491,其他,旅游景点,上午,6.13
2024-12-10,豹岩观,117.72937,36.651491,其他,旅游景点,下午,6.61
2024-12-10,胶东肥蛤王小海鲜,117.871111,36.815465,其他,餐饮,深夜,6.02
2024-12-10,留仙湖公园-淄川健康主题公园,117.956814,36.634343,其他,公园,上午,7.09
2024-12-10,索镇供销大楼,118.114774,36.956654,其他,商场,上午,7.41
2024-12-10,第五季·玩库商业中心(博山旗舰店),117.859289,36.49598,其他,商场,凌晨,5.61
2024-12-10,吾悦广场(淄博周村店),117.866457,36.823203,其他,商场,深夜,2.22
2024-12-10,吾悦广场(淄博周村店),117.866457,36.823203,其他,商场,中午,5.4
2024-12-10,欧巴春川铁板鸡(吉祥路商业街店),117.971771,36.654814,其他,餐饮,下午,7.06
2024-12-10,欧巴春川铁板鸡(吉祥路商业街店),117.971771,36.654814,其他,餐饮,深夜,5.77
2024-12-10,张店区沣水中心卫生院,118.091631,36.752094,其他,医院,深夜,2.63
2024-12-10,淄博北站北广场,118.026254,36.898065,其他,公园,中午,7.27
2024-12-10,淄博北站北广场,118.026254,36.898065,其他,公园,晚上,6.4
2024-12-10,张店区盛湖小学,117.983951,36.845121,其他,学校,晚上,6.25
2024-12-10,西张游园,118.085153,36.796736,其他,公园,上午,5.37
2024-12-10,西张游园,118.085153,36.796736,其他,公园,凌晨,2.92
2024-12-10,湘满天下(沿河西路店),118.152484,36.191022,其他,餐饮,晚上,5.72
2024-12-10,中国体育彩票,117.959333,36.647242,其他,商场,深夜,5.97
2024-12-10,中国体育彩票,117.959333,36.647242,其他,商场,上午,5.53
2024-12-10,桓台县跷脚烧烤店,118.067602,36.917548,其他,餐饮,凌晨,4.56
2024-12-10,天明寺,118.065457,36.543319,其他,旅游景点,晚上,3.81
2024-12-10,天明寺,118.065457,36.543319,其他,旅游景点,凌晨,4.0
2024-12-10,淄博宝华中医医院,118.02428,36.816938,其他,医院,凌晨,3.76
2024-12-10,涌泉齐长城,118.134415,36.429842,其他,旅游景点,凌晨,2.08
2024-12-10,涌泉齐长城,118.134415,36.429842,其他,旅游景点,下午,5.21
2024-12-10,石家班台球俱乐部,118.032648,36.836346,其他,体育场馆,凌晨,4.9
2024-12-10,泰丰全羊火锅,118.041605,36.734476,其他,餐饮,下午,7.31
2024-12-10,泰丰全羊火锅,118.041605,36.734476,其他,餐饮,深夜,3.98
2024-12-10,莲池利群购物广场,118.036154,36.831436,其他,商场,凌晨,5.37
2024-12-10,复兴庵,117.900718,36.842181,其他,旅游景点,晚上,5.47
2024-12-10,五阳湖生态旅游度假区,117.88886,36.395126,其他,旅游景点,下午,6.6
2024-12-10,五阳湖生态旅游度假区,117.88886,36.395126,其他,旅游景点,深夜,3.28
2024-12-10,鲁山全羊烧烤,118.041147,36.84383,其他,餐饮,晚上,4.12
2024-12-10,鲁山全羊烧烤,118.041147,36.84383,其他,餐饮,中午,5.03
2024-12-10,胜利山九九乐园,118.177256,36.18827,其他,公园,上午,6.22
2024-12-10,中共淄博市委党校,117.922033,36.847674,其他,学校,下午,5.69
2024-12-10,中共淄博市委党校,117.922033,36.847674,其他,学校,上午,5.5
2024-12-10,青年公园,118.040537,36.760851,其他,公园,晚上,5.96
2024-12-10,万隆大楼,117.849813,36.79747,其他,商场,傍晚,5.05
2024-12-10,德润医院,117.884854,36.555597,其他,医院,深夜,3.56
2024-12-10,文昌湖萌宠动物园,117.86273,36.715628,其他,公园,中午,4.84
2024-12-10,广凯久久鸭脖王,118.103084,36.960928,其他,餐饮,凌晨,4.29
2024-12-10,广凯久久鸭脖王,118.103084,36.960928,其他,餐饮,晚上,5.75
2024-12-10,淘宝商城(鲁中国际商贸城店),117.953475,36.641625,其他,商场,上午,4.74
2024-12-10,石佛寺,117.862538,36.675462,其他,旅游景点,晚上,6.19
2024-12-10,石佛寺,117.862538,36.675462,其他,旅游景点,凌晨,2.41
2024-12-10,寇氏游泳健身馆,118.339486,36.814335,其他,体育场馆,傍晚,5.99
2024-12-10,寇氏游泳健身馆,118.339486,36.814335,其他,体育场馆,凌晨,2.36
2024-12-10,德扬学校,117.981468,36.911981,其他,学校,上午,4.0
2024-12-10,阿光正传重庆地摊火锅(博山店),117.865354,36.501459,其他,餐饮,深夜,4.43
2024-12-10,阿光正传重庆地摊火锅(博山店),117.865354,36.501459,其他,餐饮,上午,3.96
2024-12-10,彩世界精品皮草广场,118.029104,36.822275,其他,商场,中午,4.57
2024-12-10,天香公园,117.852515,36.813338,其他,公园,下午,7.47
2024-12-10,天香公园,117.852515,36.813338,其他,公园,傍晚,4.75
2024-12-10,和谐广场,117.879887,36.65397,其他,公园,下午,6.48
2024-12-10,和谐广场,117.879887,36.65397,其他,公园,上午,6.03
2024-12-11,淄博高新区华侨城小学,118.035677,36.839421,其他,学校,傍晚,7.44
2024-12-11,流苏园,117.918142,36.823744,其他,公园,中午,5.29
2024-12-11,人口文化广场,117.976909,36.635204,其他,公园,下午,5.02
2024-12-11,人口文化广场,117.976909,36.635204,其他,公园,傍晚,5.57
2024-12-11,欢乐城精品购物广场,118.023549,36.825043,其他,商场,中午,6.5
2024-12-11,莲花庵,118.077052,36.684369,其他,旅游景点,凌晨,4.41
2024-12-11,淄博高新区第五小学,118.10309,36.837509,其他,学校,傍晚,4.28
2024-12-11,淄博高新区第五小学,118.10309,36.837509,其他,学校,中午,5.22
2024-12-11,山东省桓台第二中学,118.07255,36.952882,其他,学校,中午,5.32
2024-12-11,山东省桓台第二中学,118.07255,36.952882,其他,学校,下午,4.21
2024-12-11,明德志愿服务主题公园,117.847624,36.795251,其他,公园,下午,6.92
2024-12-11,明德志愿服务主题公园,117.847624,36.795251,其他,公园,中午,5.43
2024-12-11,淄博修文外国语学校,117.975357,36.837448,其他,学校,中午,5.85
2024-12-11,旭阳灶台鱼,118.02153,36.765224,其他,餐饮,上午,6.01
2024-12-11,东陈公园,117.880225,36.791882,其他,公园,中午,6.55
2024-12-11,孙廷铨故居,117.856617,36.49113,其他,旅游景点,深夜,5.8
2024-12-11,福门商城(特色街区·西冶街店),117.858483,36.495995,其他,商场,中午,3.19
2024-12-11,福门商城(特色街区·西冶街店),117.858483,36.495995,其他,商场,下午,3.89
2024-12-11,富源商城,118.19445,36.189208,其他,商场,深夜,3.74
2024-12-11,富源商城,118.19445,36.189208,其他,商场,上午,6.53
2024-12-11,荣耀广场,117.9893,36.829735,其他,公园,深夜,4.09
2024-12-11,荣耀广场,117.9893,36.829735,其他,公园,晚上,5.88
2024-12-11,谈小娱24h自助台球(水晶街店),118.005781,36.81618,其他,体育场馆,中午,5.27
2024-12-11,谈小娱24h自助台球(水晶街店),118.005781,36.81618,其他,体育场馆,凌晨,2.62
2024-12-11,岁月烧烤,117.867159,36.816672,其他,餐饮,傍晚,6.74
2024-12-11,清梅居食品厂(白虎店),117.851202,36.499334,其他,餐饮,凌晨,3.89
2024-12-11,孙庄党建主题公园,118.123778,36.846458,其他,公园,凌晨,4.91
2024-12-11,沂源县第二人民医院,118.360611,36.019273,其他,医院,傍晚,3.52
2024-12-11,峨庄国家森林公园,118.150576,36.503571,其他,公园,傍晚,4.55
2024-12-11,816私教健身俱乐部(福园店),118.02634,36.8065,其他,体育场馆,下午,5.43
2024-12-11,的幸·强无敌张店羽球国际主题馆羽毛球馆,118.072624,36.780393,其他,体育场馆,中午,5.81
2024-12-11,的幸·强无敌张店羽球国际主题馆羽毛球馆,118.072624,36.780393,其他,体育场馆,深夜,4.56
2024-12-11,牛魔王烧烤海鲜城(商城小区店),118.095031,36.949874,其他,餐饮,深夜,4.92
2024-12-11,牛魔王烧烤海鲜城(商城小区店),118.095031,36.949874,其他,餐饮,凌晨,4.22
2024-12-11,高青县第二中学,117.826388,37.168863,其他,学校,傍晚,5.77
2024-12-11,高青县第二中学,117.826388,37.168863,其他,学校,下午,7.76
2024-12-11,颜山商城,117.862649,36.496325,其他,商场,傍晚,6.13
2024-12-11,银座商城(淄博店),118.050481,36.805504,其他,商场,深夜,3.29
2024-12-11,银座商城(淄博店),118.050481,36.805504,其他,商场,晚上,5.79
2024-12-11,光辉百货,117.859345,36.786782,其他,商场,上午,6.05
2024-12-11,光辉百货,117.859345,36.786782,其他,商场,晚上,6.66
2024-12-11,广凯久久鸭脖王,118.103084,36.960928,其他,餐饮,中午,4.86
2024-12-11,广凯久久鸭脖王,118.103084,36.960928,其他,餐饮,下午,5.74
2024-12-11,淄博市革命烈士陵园,117.88136,36.762238,其他,旅游景点,中午,4.52
2024-12-11,淄博工业学校梧台校区,118.302241,36.885074,其他,学校,傍晚,4.84
2024-12-11,淄川南部森林公园,117.967431,36.620843,其他,公园,凌晨,4.3
2024-12-11,淄博市淄川区淄河镇卫生院,118.085237,36.483345,其他,医院,傍晚,4.76
2024-12-11,淄博市淄川区淄河镇卫生院,118.085237,36.483345,其他,医院,晚上,7.38
2024-12-11,德润医院,117.884854,36.555597,其他,医院,中午,6.55
2024-12-11,桓台人民公园,118.09302,36.960254,其他,公园,凌晨,5.49
2024-12-11,桓台人民公园,118.09302,36.960254,其他,公园,中午,6.29
2024-12-11,星牌台球俱乐部,118.072495,36.815271,其他,体育场馆,中午,6.56
2024-12-11,桓台商厦,118.105225,36.959466,其他,商场,下午,6.32
2024-12-11,桓台商厦,118.105225,36.959466,其他,商场,上午,6.66
2024-12-11,十六台球器材,118.284746,36.814537,其他,体育场馆,中午,5.67
2024-12-11,十六台球器材,118.284746,36.814537,其他,体育场馆,傍晚,4.42
2024-12-11,小西湖公园,118.036667,36.808819,其他,公园,晚上,5.68
2024-12-11,月牙湾,118.386452,36.843008,其他,旅游景点,下午,7.31
2024-12-11,奎樱古寺,117.908429,36.553642,其他,旅游景点,傍晚,6.43
2024-12-11,淄川区实验小学南校区,117.964219,36.625985,其他,学校,晚上,5.23
2024-12-11,东方购物广场(沂源店),118.160871,36.184001,其他,商场,凌晨,3.81
2024-12-11,心福烤鱼店,118.014583,36.791268,其他,餐饮,凌晨,4.99
2024-12-11,桥下公园,117.968623,36.851769,其他,公园,晚上,4.45
2024-12-11,桥下公园,117.968623,36.851769,其他,公园,中午,5.56
2024-12-11,威斯曼健身搏击俱乐部(百脑汇店),118.048142,36.802401,其他,体育场馆,晚上,3.0
2024-12-11,威斯曼健身搏击俱乐部(百脑汇店),118.048142,36.802401,其他,体育场馆,中午,6.85
2024-12-11,瑷肯体育公园,118.06226,36.83922,其他,公园,傍晚,5.49
2024-12-11,小维度奶茶店,117.852553,36.800011,其他,餐饮,凌晨,5.15
2024-12-11,田庄中心卫生院,117.998333,36.979573,其他,医院,中午,5.97
2024-12-11,淄博天齐渊公园,118.336561,36.795289,其他,公园,晚上,3.92
2024-12-11,淄博天齐渊公园,118.336561,36.795289,其他,公园,中午,5.42
2024-12-11,淄博高新区实验小学,118.060463,36.831419,其他,学校,中午,4.46
2024-12-11,淄博高新区实验小学,118.060463,36.831419,其他,学校,下午,6.94
2024-12-12,典雅服装商场,117.988939,36.74058,其他,商场,下午,6.06
2024-12-12,山东省淄博第一中学,117.857863,36.507922,其他,学校,傍晚,5.73
2024-12-12,云水瑶风景区,118.230763,36.367618,其他,旅游景点,深夜,3.12
2024-12-12,零距离健身,118.077582,36.816188,其他,体育场馆,上午,6.04
2024-12-12,北极星羽毛球馆(新馆),118.273701,36.803555,其他,体育场馆,凌晨,2.64
2024-12-12,北极星羽毛球馆(新馆),118.273701,36.803555,其他,体育场馆,上午,6.54
2024-12-12,火刻北京烤鸭(明清街店),118.043785,36.833541,其他,餐饮,凌晨,2.98
2024-12-12,火刻北京烤鸭(明清街店),118.043785,36.833541,其他,餐饮,傍晚,5.6
2024-12-12,合易泓拌饭,118.051176,36.805032,其他,餐饮,傍晚,5.69
2024-12-12,张店区沣水中心卫生院,118.091631,36.752094,其他,医院,晚上,5.18
2024-12-12,高新区四宝山卫生院,118.099801,36.821775,其他,医院,凌晨,3.68
2024-12-12,高新区四宝山卫生院,118.099801,36.821775,其他,医院,下午,5.45
2024-12-12,孙泽涛辣豆腐(和平社区店),118.037766,36.799699,其他,餐饮,下午,6.79
2024-12-12,孙泽涛辣豆腐(和平社区店),118.037766,36.799699,其他,餐饮,傍晚,6.17
2024-12-12,淄博沂源唐山佛雕文化园,118.377407,36.004463,其他,旅游景点,深夜,3.84
2024-12-12,金银山公园,118.053645,36.424029,其他,公园,晚上,3.61
2024-12-12,金银山公园,118.053645,36.424029,其他,公园,傍晚,5.56
2024-12-12,李二鲜鱼火锅,118.311561,36.821384,其他,餐饮,深夜,5.93
2024-12-12,中共淄川区龙泉镇台头村委员会,117.969534,36.573948,其他,学校,凌晨,4.29
2024-12-12,立碑山游园,117.851301,36.507937,其他,旅游景点,凌晨,2.57
2024-12-12,立碑山游园,117.851301,36.507937,其他,旅游景点,中午,5.6
2024-12-12,山东农业工程学院(淄博校区),117.934861,36.845859,其他,学校,深夜,5.14
2024-12-12,周村区中小学生社会实践基地,117.859928,36.840135,其他,学校,傍晚,4.22
2024-12-12,周村区中小学生社会实践基地,117.859928,36.840135,其他,学校,深夜,5.01
2024-12-12,奎三广场,117.937206,36.563022,其他,公园,中午,5.83
2024-12-12,奎三广场,117.937206,36.563022,其他,公园,晚上,5.64
2024-12-12,九顶山公园,118.149906,36.825267,其他,公园,中午,6.45
2024-12-12,九顶山公园,118.149906,36.825267,其他,公园,凌晨,3.63
2024-12-12,月牙湾,118.386452,36.843008,其他,旅游景点,晚上,3.69
2024-12-12,沂河沂源源头水保护区,118.116224,36.167737,其他,旅游景点,凌晨,2.44
2024-12-12,沂河沂源源头水保护区,118.116224,36.167737,其他,旅游景点,深夜,4.27
2024-12-12,征服者越野俱乐部(淄博店),118.161408,36.495809,其他,体育场馆,晚上,5.04
2024-12-12,征服者越野俱乐部(淄博店),118.161408,36.495809,其他,体育场馆,中午,7.1
2024-12-12,黑铁山风景区,118.164113,36.842767,其他,旅游景点,中午,7.3
2024-12-12,黑铁山风景区,118.164113,36.842767,其他,旅游景点,凌晨,5.11
2024-12-12,桓台一中附属学校,118.069779,36.959617,其他,学校,中午,5.2
2024-12-12,齐鲁医药学院,117.917788,36.825047,其他,学校,中午,5.48
2024-12-12,优壹佳健身(东三路店),118.073359,36.797066,其他,体育场馆,晚上,4.88
2024-12-12,良乡体育运动公园,118.073226,36.777487,其他,公园,晚上,5.67
2024-12-12,彩世界精品皮草广场,118.029104,36.822275,其他,商场,上午,6.14
2024-12-12,彩世界精品皮草广场,118.029104,36.822275,其他,商场,傍晚,6.11
2024-12-12,淄博市中医医院老院区,117.850347,36.801442,其他,医院,上午,6.02
2024-12-12,临淄实验小学,118.30152,36.810601,其他,学校,上午,7.21
2024-12-12,临淄实验小学,118.30152,36.810601,其他,学校,傍晚,5.67
2024-12-12,东海鲜味园,117.849453,36.805836,其他,餐饮,下午,8.13
2024-12-12,桓台县新时代文明实践中心-健康主题公园,118.084407,36.946436,其他,公园,中午,5.51
2024-12-12,智德羽毛球馆,117.998564,36.792108,其他,体育场馆,下午,6.98
2024-12-12,智德羽毛球馆,117.998564,36.792108,其他,体育场馆,中午,6.5
2024-12-12,罗村中学,118.073269,36.679739,其他,学校,凌晨,5.48
2024-12-12,奕菡团购工作室,118.305537,36.821413,其他,商场,晚上,4.53
2024-12-12,奕菡团购工作室,118.305537,36.821413,其他,商场,上午,6.59
2024-12-12,陶然香火锅居(昆仑店),117.91889,36.58653,其他,餐饮,傍晚,4.65
2024-12-12,世博高新医院营养中心,118.105384,36.829265,其他,医院,下午,7.25
2024-12-12,世博高新医院营养中心,118.105384,36.829265,其他,医院,上午,5.13
2024-12-12,红宝龙购物商场(东里店),118.362609,36.018054,其他,商场,上午,5.78
2024-12-12,潘南印巷,118.080566,36.80708,其他,餐饮,凌晨,4.36
2024-12-12,潘南印巷,118.080566,36.80708,其他,餐饮,傍晚,7.95
2024-12-12,运粮河湿地公园,118.307362,36.892481,其他,公园,傍晚,6.88
2024-12-12,运粮河湿地公园,118.307362,36.892481,其他,公园,凌晨,3.51
2024-12-12,博山区道德主题公园,117.855662,36.495119,其他,公园,凌晨,5.66
2024-12-12,凤凰山广场,117.832022,36.741644,其他,公园,中午,6.13
2024-12-12,凤凰山广场,117.832022,36.741644,其他,公园,傍晚,5.41
2024-12-12,玉黛湖·中国淄博花灯艺术节,118.148659,36.804574,其他,文化场馆,上午,5.72
2024-12-12,淄博市第六人民医院,118.011131,36.835829,其他,医院,凌晨,2.72
2024-12-12,淄博市第六人民医院,118.011131,36.835829,其他,医院,晚上,6.93
2024-12-12,老华盛商场,117.830529,37.168815,其他,商场,下午,5.76
2024-12-12,老华盛商场,117.830529,37.168815,其他,商场,傍晚,5.09
2024-12-12,淄博田敏乒乓球俱乐部,118.061296,36.820468,其他,体育场馆,上午,5.59
2024-12-12,桓台县红莲湖学校,118.067082,36.942338,其他,学校,下午,5.22
2024-12-12,桓台县红莲湖学校,118.067082,36.942338,其他,学校,晚上,6.66
2024-12-12,铁冶炉神姑庙,118.183331,36.841161,其他,旅游景点,下午,4.82
2024-12-12,铁冶炉神姑庙,118.183331,36.841161,其他,旅游景点,深夜,5.16
2024-12-12,核心商城(鲁中装饰材料城店),118.02041,36.785217,其他,商场,下午,4.24
2024-12-12,核心商城(鲁中装饰材料城店),118.02041,36.785217,其他,商场,傍晚,5.82
2024-12-12,淄博市中医医院(院总部)(装修中),117.934625,36.802749,其他,医院,凌晨,2.99
2024-12-12,淄博市中医医院(院总部)(装修中),117.934625,36.802749,其他,医院,深夜,3.91
2024-12-12,银泰商城,117.851987,36.798059,其他,商场,中午,6.01
2024-12-12,八陡天主堂,117.928355,36.456887,其他,旅游景点,凌晨,3.5
2024-12-12,八陡天主堂,117.928355,36.456887,其他,旅游景点,傍晚,6.42
2024-12-12,山东沂源二中,118.149219,36.17686,其他,学校,深夜,5.13
2024-12-12,六点水法润自然主题公园,118.174965,36.199727,其他,公园,晚上,5.1
2024-12-12,六点水法润自然主题公园,118.174965,36.199727,其他,公园,下午,6.22
2024-12-12,青云大酒店(中共淄川区洪山镇委员会东),118.002062,36.623339,其他,餐饮,晚上,3.72
2024-12-12,滨州医学院淄博教学基地,118.055554,36.807226,其他,学校,晚上,5.0
2024-12-12,玉黛湖-慧圆寺,118.143872,36.808691,其他,旅游景点,晚上,3.76
2024-12-12,玉黛湖-慧圆寺,118.143872,36.808691,其他,旅游景点,凌晨,4.2
2024-12-12,淄博商厦(博山店),117.857579,36.511671,其他,商场,上午,6.48
2024-12-12,淄博商厦(博山店),117.857579,36.511671,其他,商场,傍晚,5.87
2024-12-12,名鲁中医院,118.05981,36.797687,其他,医院,下午,4.87
2024-12-12,名鲁中医院,118.05981,36.797687,其他,医院,傍晚,3.84
2024-12-12,淄博广电医院,118.048349,36.815733,其他,医院,傍晚,6.73
2024-12-12,淄博广电医院,118.048349,36.815733,其他,医院,晚上,5.16
2024-12-12,铁锅砖家·正宗东北铁锅炖(名士豪庭店),118.053772,36.85251,其他,餐饮,深夜,3.95
2024-12-12,长龙灌汤包,117.852565,36.808305,其他,餐饮,凌晨,5.09
2024-12-12,长龙灌汤包,117.852565,36.808305,其他,餐饮,上午,4.35
2024-12-13,雪乡灶台鱼(瑞泉阳光店),118.337229,36.808301,其他,餐饮,傍晚,6.15
2024-12-13,雪乡灶台鱼(瑞泉阳光店),118.337229,36.808301,其他,餐饮,深夜,4.5
2024-12-13,太阳山植物园,117.892555,36.534811,其他,公园,中午,6.22
2024-12-13,SOS台球俱乐部,118.029034,36.80782,其他,体育场馆,下午,4.94
2024-12-13,0533乔氏台球会所,118.052345,36.805821,其他,体育场馆,凌晨,4.05
2024-12-13,0533乔氏台球会所,118.052345,36.805821,其他,体育场馆,晚上,4.11
2024-12-13,湖田小学,118.113527,36.789104,其他,学校,中午,6.68
2024-12-13,湖田小学,118.113527,36.789104,其他,学校,上午,4.48
2024-12-13,淄博师专附属中学,118.004382,36.638287,其他,学校,深夜,3.3
2024-12-13,过桥缘过桥米线(水晶街店),118.003476,36.816582,其他,餐饮,深夜,5.52
2024-12-13,过桥缘过桥米线(水晶街店),118.003476,36.816582,其他,餐饮,傍晚,4.69
2024-12-13,花山公园,118.11949,36.824708,其他,旅游景点,上午,6.76
2024-12-13,花山公园,118.11949,36.824708,其他,旅游景点,下午,4.78
2024-12-13,星牌台球俱乐部,118.072495,36.815271,其他,体育场馆,上午,7.38
2024-12-13,创濠体育健身综合体,118.048859,36.842444,其他,体育场馆,上午,4.55
2024-12-13,创濠体育健身综合体,118.048859,36.842444,其他,体育场馆,凌晨,3.12
2024-12-13,乔氏桌球(晏婴路店),118.311476,36.819986,其他,体育场馆,上午,4.64
2024-12-13,乔氏桌球(晏婴路店),118.311476,36.819986,其他,体育场馆,傍晚,4.25
2024-12-13,响袋24h无人自助台球(吾悦广场店),118.023236,36.784281,其他,体育场馆,晚上,3.38
2024-12-13,淄博市高新区植物园,118.02744,36.859301,其他,公园,晚上,3.16
2024-12-13,淄博市高新区植物园,118.02744,36.859301,其他,公园,下午,8.38
2024-12-13,蒲松龄书馆,117.738211,36.677812,其他,旅游景点,深夜,4.49
2024-12-13,蒲松龄书馆,117.738211,36.677812,其他,旅游景点,下午,4.61
2024-12-13,宁戚饭牛处,118.298465,36.863842,其他,旅游景点,中午,4.31
2024-12-13,宁戚饭牛处,118.298465,36.863842,其他,旅游景点,晚上,4.08
2024-12-13,漫泗河湿地公园,118.058967,36.649746,其他,公园,下午,6.69
2024-12-13,青龙山公园,118.088849,36.826097,其他,公园,深夜,2.78
2024-12-13,海岱楼·钟书阁,117.98889,36.841714,其他,文化场馆,深夜,3.32
2024-12-13,飞龙台球会馆,118.05094,36.809874,其他,体育场馆,晚上,5.0
2024-12-13,众益商务广场,117.840236,37.171428,其他,公园,凌晨,4.03
2024-12-13,众益商务广场,117.840236,37.171428,其他,公园,上午,4.33
2024-12-13,来力台球俱乐部(文昌路店),117.890451,36.661357,其他,体育场馆,晚上,3.65
2024-12-13,K+桌球俱乐部(淄博鑫马吾悦广场店),118.003242,36.825405,其他,体育场馆,晚上,3.77
2024-12-13,星小奥少儿运动馆(福园校区),118.027301,36.808121,其他,体育场馆,凌晨,4.3
2024-12-13,天鹅商城,117.830523,37.167515,其他,商场,深夜,4.84
2024-12-13,天鹅商城,117.830523,37.167515,其他,商场,上午,4.73
2024-12-13,上地广场,118.295909,36.813781,其他,商场,傍晚,7.55
2024-12-13,老博山私房菜,118.070058,36.799784,其他,餐饮,中午,5.82
2024-12-13,老博山私房菜,118.070058,36.799784,其他,餐饮,傍晚,4.48
2024-12-13,淄博市第五人民医院,117.98262,36.632505,其他,医院,上午,6.84
2024-12-13,816私教健身俱乐部(福园店),118.02634,36.8065,其他,体育场馆,中午,6.2
2024-12-13,张店区人民医院(主院区),118.057745,36.795784,其他,医院,上午,4.77
2024-12-13,汇源绿色广场,118.149404,36.200553,其他,公园,傍晚,6.96
2024-12-13,临淄御马苑马术俱乐部,118.368429,36.802627,其他,体育场馆,傍晚,5.83
2024-12-13,速形特氧舱运动中心,118.048107,36.803525,其他,体育场馆,凌晨,4.88
2024-12-13,中国体育彩票,117.959333,36.647242,其他,商场,中午,5.16
2024-12-13,焦裕禄广场,117.862695,36.493876,其他,公园,深夜,2.81
2024-12-13,焦裕禄广场,117.862695,36.493876,其他,公园,中午,4.44
2024-12-13,张店区沣水中心卫生院,118.091631,36.752094,其他,医院,中午,5.72
2024-12-13,博山经济开发区卫生院,117.846082,36.522515,其他,医院,晚上,4.95
2024-12-13,雁阳小学,118.001471,36.653546,其他,学校,上午,7.0
2024-12-13,雁阳小学,118.001471,36.653546,其他,学校,中午,5.33
2024-12-13,张店儿童公园,118.071556,36.801765,其他,公园,晚上,5.31
2024-12-13,蓝溪国际滑雪场(暂停营业),118.358638,36.781914,其他,体育场馆,晚上,3.13
2024-12-13,淄博矿业集团公司双山医院,117.853711,36.498469,其他,医院,晚上,3.98
2024-12-13,淄博矿业集团公司双山医院,117.853711,36.498469,其他,医院,中午,5.21
2024-12-13,顺河羊肉馆,118.226861,36.20498,其他,餐饮,晚上,5.42
2024-12-13,淄川区实验小学,117.982993,36.639028,其他,学校,傍晚,5.67
2024-12-13,韶韵广场,117.98443,36.792311,其他,公园,傍晚,7.88
2024-12-13,韶韵广场,117.98443,36.792311,其他,公园,中午,5.9
2024-12-13,淄博高新区黉门文化艺术学校,118.052261,36.856862,其他,学校,下午,5.2
2024-12-13,温州商厦,117.958171,36.642203,其他,商场,傍晚,6.58
2024-12-13,温州商厦,117.958171,36.642203,其他,商场,中午,5.24
2024-12-13,淄博市中西医结合医院体检,118.058868,36.79356,其他,医院,凌晨,4.49
2024-12-13,幽幽谷,118.080758,36.323183,其他,旅游景点,晚上,4.75
2024-12-13,幽幽谷,118.080758,36.323183,其他,旅游景点,上午,6.6
2024-12-13,齐乐梦华嬉雪乐园,118.028288,36.665735,其他,体育场馆,晚上,3.36
2024-12-13,张店区肌因体育健康服务部,118.008977,36.840866,其他,医院,中午,5.62
2024-12-13,索镇供销大楼,118.114774,36.956654,其他,商场,凌晨,3.39
2024-12-13,索镇供销大楼,118.114774,36.956654,其他,商场,上午,6.63
2024-12-13,银座购物广场(淄川店),117.961902,36.649139,其他,商场,凌晨,3.14
2024-12-13,银座购物广场(淄川店),117.961902,36.649139,其他,商场,下午,5.29
2024-12-13,世博高新医院,118.105384,36.829265,其他,医院,下午,4.96
2024-12-13,谈小娱24h自助台球(迎春街店),118.060762,36.826108,其他,体育场馆,傍晚,4.91
2024-12-13,高青友好医院,117.860551,37.173783,其他,医院,深夜,5.6
2024-12-13,临淄拿铁健身俱乐部(棠悦店),118.326372,36.833733,其他,体育场馆,晚上,3.35
2024-12-13,临淄拿铁健身俱乐部(棠悦店),118.326372,36.833733,其他,体育场馆,傍晚,6.55
2024-12-13,沂源县普安禅寺,118.126756,36.195465,其他,旅游景点,凌晨,5.14
2024-12-13,沂源县普安禅寺,118.126756,36.195465,其他,旅游景点,晚上,3.37
2024-12-13,明医堂,118.037682,36.797434,其他,医院,晚上,5.59
2024-12-13,FlowPace(鼎成店),117.993628,36.822947,其他,体育场馆,深夜,4.77
2024-12-13,FlowPace(鼎成店),117.993628,36.822947,其他,体育场馆,上午,6.84
2024-12-13,米村拌饭(茂业百货时代店),118.295975,36.817475,其他,餐饮,傍晚,6.68
2024-12-13,又一村上善坊大酒店,118.064212,36.814454,其他,餐饮,凌晨,3.95
2024-12-13,淄博梓童山武术学校,118.031502,36.667658,其他,学校,中午,5.59
2024-12-13,淄博梓童山武术学校,118.031502,36.667658,其他,学校,凌晨,1.81
2024-12-13,滨州医学院淄博教学基地,118.055554,36.807226,其他,学校,傍晚,4.91
2024-12-13,喜乐佳,118.100012,36.958738,其他,商场,晚上,3.93
2024-12-13,喜乐佳,118.100012,36.958738,其他,商场,傍晚,5.1
2024-12-13,蒙山蚂蚱鸡(大顺路店),118.297962,36.82577,其他,餐饮,上午,5.57
2024-12-13,蒙山蚂蚱鸡(大顺路店),118.297962,36.82577,其他,餐饮,晚上,4.93
2024-12-13,启点健身(九宏大厦店),118.036119,36.838087,其他,体育场馆,下午,5.6
2024-12-13,淄博市中医医院(院总部)(装修中),117.934625,36.802749,其他,医院,下午,5.23
2024-12-13,淄博市中医医院(院总部)(装修中),117.934625,36.802749,其他,医院,深夜,5.25
2024-12-13,山东沂源二中,118.149219,36.17686,其他,学校,中午,5.29
2024-12-13,山东沂源二中,118.149219,36.17686,其他,学校,上午,6.01
2024-12-13,石佛堂寺,118.349201,36.885109,其他,旅游景点,晚上,4.76
2024-12-13,张家坡镇桃花坪村民生广场,118.476809,36.054105,其他,公园,下午,6.23
2024-12-13,张家坡镇桃花坪村民生广场,118.476809,36.054105,其他,公园,傍晚,5.36
2024-12-13,西张游园,118.085153,36.796736,其他,公园,凌晨,2.75
2024-12-13,云台山风景区,118.024326,36.606095,其他,旅游景点,下午,5.3
2024-12-13,云台山风景区,118.024326,36.606095,其他,旅游景点,晚上,3.06
2024-12-13,美瑞口腔,118.05072,36.808419,其他,公园,晚上,4.63
2024-12-13,美瑞口腔,118.05072,36.808419,其他,公园,上午,4.88
2024-12-13,河南村党建文化广场,117.9315,36.500416,其他,公园,傍晚,7.65
2024-12-13,文昌湖公园,117.870499,36.711934,其他,公园,晚上,6.26
2024-12-13,文昌湖公园,117.870499,36.711934,其他,公园,深夜,5.29
2024-12-13,泉河风景区,118.048141,36.410821,其他,公园,下午,6.08
2024-12-13,泉河风景区,118.048141,36.410821,其他,公园,傍晚,6.98
2024-12-13,淄川经济开发区卫生院,117.95904,36.662097,其他,医院,下午,4.14
2024-12-13,孝妇河湿地公园喷泉广场,117.970314,36.801683,其他,公园,凌晨,4.47
2024-12-13,孝妇河湿地公园喷泉广场,117.970314,36.801683,其他,公园,上午,6.29
2024-12-13,张店区第九中学,118.022021,36.815689,其他,学校,晚上,4.2
2024-12-13,张店区第九中学,118.022021,36.815689,其他,学校,凌晨,3.13
2024-12-14,东方购物广场(沂源店),118.160871,36.184001,其他,商场,下午,5.01
2024-12-14,东方购物广场(沂源店),118.160871,36.184001,其他,商场,中午,5.97
2024-12-14,牛记庵古村落,117.808905,36.579246,其他,旅游景点,中午,5.58
2024-12-14,银座新天地(银座购物广场),117.961975,36.650175,其他,商场,中午,6.92
2024-12-14,银座新天地(银座购物广场),117.961975,36.650175,其他,商场,凌晨,2.86
2024-12-14,金桥商厦(中和街),117.852231,36.797431,其他,商场,晚上,6.26
2024-12-14,金桥商厦(中和街),117.852231,36.797431,其他,商场,下午,5.49
2024-12-14,文昌湖深蓝台球俱乐部,117.866521,36.730761,其他,体育场馆,晚上,6.37
2024-12-14,遄台中学,118.316847,36.818062,其他,学校,凌晨,4.58
2024-12-14,齐赛园社区卫生服务站,118.026971,36.813954,其他,医院,晚上,4.71
2024-12-14,齐赛园社区卫生服务站,118.026971,36.813954,其他,医院,傍晚,5.94
2024-12-14,莲花庵,118.077052,36.684369,其他,旅游景点,傍晚,6.44
2024-12-14,莲花庵,118.077052,36.684369,其他,旅游景点,下午,6.99
2024-12-14,奥朗特购物广场,118.012429,36.810507,其他,商场,上午,7.1
2024-12-14,奥朗特购物广场,118.012429,36.810507,其他,商场,深夜,4.91
2024-12-14,老何牛肉面,118.186653,36.768356,其他,餐饮,晚上,5.33
2024-12-14,淄博市中心医院北病房楼,118.05276,36.808721,其他,医院,下午,6.58
2024-12-14,张亮麻辣烫(淄博马尚店),117.989055,36.801039,其他,餐饮,傍晚,6.67
2024-12-14,北金商场,118.192956,36.884658,其他,商场,凌晨,4.77
2024-12-14,北金商场,118.192956,36.884658,其他,商场,下午,4.99
2024-12-14,淄川经济开发区实验学校,117.933931,36.657577,其他,文化场馆,傍晚,5.51
2024-12-14,淄川经济开发区实验学校,117.933931,36.657577,其他,文化场馆,上午,5.19
2024-12-14,盛达商业广场,117.862789,36.504028,其他,商场,中午,5.24
2024-12-14,鲁中晨报,118.058442,36.837798,其他,文化场馆,傍晚,5.81
2024-12-14,天行健健身会所,118.004368,36.836872,其他,体育场馆,傍晚,4.7
2024-12-14,齐乐梦华嬉雪乐园,118.028288,36.665735,其他,体育场馆,凌晨,3.88
2024-12-14,齐乐梦华嬉雪乐园,118.028288,36.665735,其他,体育场馆,中午,8.33
2024-12-14,太公老刘烧烤(三星怡水名城店),118.322683,36.829206,其他,餐饮,晚上,6.03
2024-12-14,太公老刘烧烤(三星怡水名城店),118.322683,36.829206,其他,餐饮,深夜,4.79
2024-12-14,莲花山公园,117.894789,36.519279,其他,公园,下午,7.12
2024-12-14,千佛寺,117.84068,36.801278,其他,旅游景点,深夜,5.12
2024-12-14,千佛寺,117.84068,36.801278,其他,旅游景点,中午,6.65
2024-12-14,淄川区西河中心卫生院,117.942726,36.502452,其他,医院,傍晚,7.31
2024-12-14,淄博市文化馆,117.98608,36.827249,其他,文化场馆,傍晚,5.77
2024-12-14,张店区体育馆广场,118.036343,36.797352,其他,公园,凌晨,4.5
2024-12-14,张店区体育馆广场,118.036343,36.797352,其他,公园,傍晚,5.22
2024-12-14,李家疃明清建筑群,117.699341,36.661727,其他,旅游景点,下午,6.22
2024-12-14,李家疃明清建筑群,117.699341,36.661727,其他,旅游景点,晚上,6.38
2024-12-14,正觉寺,117.898886,36.526624,其他,旅游景点,上午,7.81
2024-12-14,正觉寺,117.898886,36.526624,其他,旅游景点,晚上,4.6
2024-12-14,沈家村哪吒墙画,117.847973,36.855279,其他,旅游景点,晚上,3.73
2024-12-14,边敏购物商场,118.360844,36.016546,其他,商场,傍晚,4.17
2024-12-14,友谊蛋糕(植物园店),118.022711,36.790473,其他,餐饮,晚上,6.69
2024-12-14,友谊蛋糕(植物园店),118.022711,36.790473,其他,餐饮,凌晨,3.71
2024-12-14,华盛商厦,117.829677,37.171987,其他,商场,晚上,5.86
2024-12-14,华盛商厦,117.829677,37.171987,其他,商场,深夜,6.02
2024-12-14,太公湖国家水利风景区,118.363994,36.80938,其他,旅游景点,中午,6.31
2024-12-14,速形特氧舱运动中心,118.048107,36.803525,其他,体育场馆,傍晚,6.05
2024-12-14,速形特氧舱运动中心,118.048107,36.803525,其他,体育场馆,上午,8.29
2024-12-14,张店区体育馆,118.036155,36.796165,其他,体育场馆,下午,7.02
2024-12-14,淄博市张店区和平喷泉公园,117.970292,36.802271,其他,公园,傍晚,4.64
2024-12-14,金地禅寺,117.914574,36.539096,其他,旅游景点,下午,6.68
2024-12-14,金地禅寺,117.914574,36.539096,其他,旅游景点,傍晚,6.78
2024-12-14,典雅服装商场,117.988939,36.74058,其他,商场,凌晨,2.73
2024-12-14,典雅服装商场,117.988939,36.74058,其他,商场,中午,6.19
2024-12-14,凯瑞教育(硕学校区),118.034936,36.862246,其他,体育场馆,深夜,5.01
2024-12-14,月牙湾,118.386452,36.843008,其他,旅游景点,晚上,6.36
2024-12-14,天玺24h台球俱乐部,118.037403,36.841989,其他,体育场馆,下午,7.27
2024-12-14,面对面喜事汇,117.977589,36.640925,其他,餐饮,上午,6.02
2024-12-14,碧霞祠,118.117578,36.822273,其他,旅游景点,晚上,6.45
2024-12-14,碧霞祠,118.117578,36.822273,其他,旅游景点,中午,6.03
2024-12-14,淄博高新区实验小学,118.060463,36.831419,其他,学校,凌晨,5.48
2024-12-14,金色之韵量贩KTV(龙御大厦店),118.024504,36.821458,其他,餐饮,凌晨,4.36
2024-12-14,金色之韵量贩KTV(龙御大厦店),118.024504,36.821458,其他,餐饮,下午,8.01
2024-12-14,瑷肯体育公园,118.06226,36.83922,其他,公园,傍晚,6.92
2024-12-14,瑷肯体育公园,118.06226,36.83922,其他,公园,晚上,5.72
2024-12-14,高青县革命历史纪念馆,117.792837,37.182566,其他,旅游景点,中午,4.75
2024-12-14,高青县革命历史纪念馆,117.792837,37.182566,其他,旅游景点,上午,7.24
2024-12-14,红叶柿岩古村广场,117.804885,36.509313,其他,公园,下午,7.53
2024-12-14,桓台博物馆,118.096944,36.959551,其他,文化场馆,中午,6.06
2024-12-14,淄博田敏乒乓球俱乐部,118.061296,36.820468,其他,体育场馆,下午,6.05
2024-12-14,淄博田敏乒乓球俱乐部,118.061296,36.820468,其他,体育场馆,傍晚,5.82
2024-12-14,张店区肌因体育健康服务部,118.008977,36.840866,其他,医院,凌晨,4.68
2024-12-14,张店区肌因体育健康服务部,118.008977,36.840866,其他,医院,傍晚,5.81
2024-12-14,红莲湖公园西湖区,118.065928,36.935049,其他,公园,晚上,5.34
2024-12-14,万通商城,118.050558,36.803583,其他,商场,晚上,5.06
2024-12-14,泉河风景区,118.048141,36.410821,其他,公园,深夜,5.7
2024-12-14,惠仟佳超市,118.08749,36.959884,其他,商场,下午,5.38
2024-12-14,惠仟佳超市,118.08749,36.959884,其他,商场,上午,5.6
2024-12-14,鲁山国家森林公园,118.048565,36.309523,其他,旅游景点,中午,8.48
2024-12-14,鲁山国家森林公园,118.048565,36.309523,其他,旅游景点,深夜,4.5
2024-12-14,法王院,118.032929,36.713602,其他,旅游景点,晚上,5.33
2024-12-14,炒米山生态风景区,118.131667,36.762922,其他,旅游景点,深夜,3.65
2024-12-14,淄博人民公园,118.048798,36.810627,其他,公园,凌晨,3.21
2024-12-14,淄博人民公园,118.048798,36.810627,其他,公园,深夜,4.82
2024-12-14,淄博师专,117.908464,36.66217,其他,学校,下午,7.6
2024-12-14,淄博师专,117.908464,36.66217,其他,学校,深夜,3.07
2024-12-14,淄博天齐渊公园,118.336561,36.795289,其他,公园,傍晚,5.99
2024-12-14,淄博天齐渊公园,118.336561,36.795289,其他,公园,晚上,4.23
2024-12-14,惊宇动力健康管理中心·游泳健身,117.997351,36.790241,其他,体育场馆,深夜,5.16
2024-12-14,惊宇动力健康管理中心·游泳健身,117.997351,36.790241,其他,体育场馆,下午,5.92
2024-12-14,清真寺,117.988974,36.630483,其他,旅游景点,中午,6.61
2024-12-14,清真寺,117.988974,36.630483,其他,旅游景点,凌晨,5.66
2024-12-14,淄博信息工程学校,118.067903,36.805023,其他,学校,中午,6.04
2024-12-14,淄博信息工程学校,118.067903,36.805023,其他,学校,傍晚,5.15
2024-12-14,淄博黉门中学,118.035602,36.806253,其他,学校,凌晨,3.88
2024-12-14,曼巴台球俱乐部(兴桓路店),118.099896,36.953136,其他,体育场馆,中午,5.45
2024-12-14,淄博师专附属中学,118.004382,36.638287,其他,学校,晚上,5.35
2024-12-14,淄博师专附属中学,118.004382,36.638287,其他,学校,中午,4.58
2024-12-14,淄博第十五中学,117.999981,36.621757,其他,学校,傍晚,5.78
2024-12-14,淄博第十五中学,117.999981,36.621757,其他,学校,凌晨,2.83
2024-12-14,淄博高新区黉门文化艺术学校,118.052261,36.856862,其他,学校,凌晨,4.88
2024-12-14,淄博高新区黉门文化艺术学校,118.052261,36.856862,其他,学校,傍晚,4.88
2024-12-15,TT台球俱乐部,117.97484,36.639349,其他,体育场馆,晚上,5.38
2024-12-15,大角牛烩牛肉(十七中北街店),118.035349,36.811637,其他,餐饮,晚上,5.13
2024-12-15,桓台县人民医院,118.093414,36.945519,其他,医院,傍晚,4.48
2024-12-15,桓台县人民医院,118.093414,36.945519,其他,医院,晚上,3.4
2024-12-15,小乔豆腐(富瑞特城市广场店),117.851204,36.807558,其他,餐饮,上午,7.48
2024-12-15,小乔豆腐(富瑞特城市广场店),117.851204,36.807558,其他,餐饮,下午,7.02
2024-12-15,银座购物广场,118.033203,36.849245,其他,商场,下午,6.89
2024-12-15,淄博市中心医院,118.053088,36.807533,其他,医院,傍晚,7.18
2024-12-15,潮庭健身(欧丽洛雅店),118.011354,36.828545,其他,体育场馆,傍晚,4.77
2024-12-15,潮庭健身(欧丽洛雅店),118.011354,36.828545,其他,体育场馆,晚上,5.49
2024-12-15,木香铁锅居(南麻六小店),118.155475,36.197135,其他,餐饮,深夜,6.57
2024-12-15,木香铁锅居(南麻六小店),118.155475,36.197135,其他,餐饮,下午,6.5
2024-12-15,淄江社区卫生服务中心,118.335599,36.814881,其他,医院,晚上,5.28
2024-12-15,淄江社区卫生服务中心,118.335599,36.814881,其他,医院,下午,5.66
2024-12-15,人和广场,117.970509,36.679533,其他,公园,晚上,4.29
2024-12-15,人和广场,117.970509,36.679533,其他,公园,下午,5.58
2024-12-15,王渔洋故里景区,117.940854,36.950247,其他,旅游景点,下午,7.22
2024-12-15,颜神文旅·九龙峪风景区,117.82119,36.498417,其他,旅游景点,傍晚,5.49
2024-12-15,天玺24h台球俱乐部,118.037403,36.841989,其他,体育场馆,下午,7.92
2024-12-15,天玺24h台球俱乐部,118.037403,36.841989,其他,体育场馆,上午,7.74
2024-12-15,周村区市南路小学,117.854538,36.788305,其他,学校,晚上,5.04
2024-12-15,周村区市南路小学,117.854538,36.788305,其他,学校,中午,7.78
2024-12-15,张店区南定镇卫生院,118.04596,36.745646,其他,医院,晚上,5.34
2024-12-15,张店区南定镇卫生院,118.04596,36.745646,其他,医院,上午,8.64
2024-12-15,博弈台球俱乐部天玺淄博旗舰店,118.032176,36.810442,其他,体育场馆,中午,7.74
2024-12-15,博弈台球俱乐部天玺淄博旗舰店,118.032176,36.810442,其他,体育场馆,深夜,3.68
2024-12-15,淄川济民医院,117.977587,36.65291,其他,医院,凌晨,2.62
2024-12-15,瓦萨里现烤披萨(新建中路店),117.852565,36.800467,其他,餐饮,下午,7.05
2024-12-15,瓦萨里现烤披萨(新建中路店),117.852565,36.800467,其他,餐饮,深夜,5.17
2024-12-15,大石头风景区,117.944959,36.593092,其他,旅游景点,下午,5.36
2024-12-15,鲁山国家森林公园,118.048565,36.309523,其他,旅游景点,中午,5.58
2024-12-15,鲁山国家森林公园,118.048565,36.309523,其他,旅游景点,上午,6.77
2024-12-15,流苏园,117.918142,36.823744,其他,公园,晚上,3.73
2024-12-15,流苏园,117.918142,36.823744,其他,公园,下午,7.08
2024-12-15,兰雁广场,118.040105,36.804364,其他,公园,傍晚,7.11
2024-12-15,老字号段家煮锅(青年路店),117.84698,36.806725,其他,餐饮,晚上,6.24
2024-12-15,老字号段家煮锅(青年路店),117.84698,36.806725,其他,餐饮,凌晨,4.97
2024-12-15,张店区中医院肛肠楼,118.052541,36.800414,其他,医院,上午,5.67
2024-12-15,淄博高新区石桥中心医院,118.045962,36.886421,其他,医院,深夜,4.36
2024-12-15,淄博高新区石桥中心医院,118.045962,36.886421,其他,医院,下午,5.58
2024-12-15,李家村四德文化广场,117.959985,36.76604,其他,公园,中午,7.49
2024-12-15,李家村四德文化广场,117.959985,36.76604,其他,公园,上午,5.72
2024-12-15,万益农业生态观光园,118.149011,36.531756,其他,公园,深夜,3.6
2024-12-15,万益农业生态观光园,118.149011,36.531756,其他,公园,上午,6.22
2024-12-15,龙泉寺,117.897724,36.524553,其他,旅游景点,下午,6.63
2024-12-15,晏婴公园,118.292655,36.820218,其他,公园,深夜,4.64
2024-12-15,XIK酷点台球俱乐部,118.104709,36.958861,其他,体育场馆,深夜,5.21
2024-12-15,XIK酷点台球俱乐部,118.104709,36.958861,其他,体育场馆,上午,6.22
2024-12-15,淄博市临淄三中,118.351663,36.846201,其他,学校,上午,5.82
2024-12-15,淄博市临淄三中,118.351663,36.846201,其他,学校,中午,6.26
2024-12-15,莲花山公园,117.894789,36.519279,其他,公园,晚上,6.45
2024-12-15,莲花山公园,117.894789,36.519279,其他,公园,中午,6.27
2024-12-15,淄博市体育中心综合体育馆,117.984612,36.814996,其他,体育场馆,上午,4.18
2024-12-15,岳庄医院,117.950743,36.448765,其他,医院,傍晚,6.55
2024-12-15,岳庄医院,117.950743,36.448765,其他,医院,深夜,5.85
2024-12-15,运粮河湿地公园,118.307362,36.892481,其他,公园,下午,7.74
2024-12-15,经开区可奕羽毛球馆,118.089133,36.757848,其他,体育场馆,深夜,6.52
2024-12-15,淄博市图书馆,117.986592,36.82889,其他,文化场馆,上午,5.63
2024-12-15,淄博市图书馆,117.986592,36.82889,其他,文化场馆,下午,6.39
2024-12-15,淄博恒太城(装修中),117.982957,36.823315,其他,商场,晚上,6.46
2024-12-15,康平乒乓球俱乐部,118.281593,36.805622,其他,体育场馆,凌晨,4.4
2024-12-15,淄博高新四季青医院,118.033077,36.8359,其他,医院,晚上,5.04
2024-12-15,淄博高新四季青医院,118.033077,36.8359,其他,医院,深夜,4.57
2024-12-15,翕善堂博山菜(金桥商务中心店),118.073342,36.817548,其他,餐饮,中午,4.9
2024-12-15,银座商城(人民店),117.860457,36.504428,其他,商场,下午,5.07
2024-12-15,银座商城(人民店),117.860457,36.504428,其他,商场,晚上,7.22
2024-12-15,淄博世茂广场,117.98579,36.820734,其他,商场,深夜,6.86
2024-12-15,淄博世茂广场,117.98579,36.820734,其他,商场,晚上,6.72
2024-12-15,博山篮球运动中心,117.832791,36.514627,其他,体育场馆,凌晨,3.63
2024-12-15,博山篮球运动中心,117.832791,36.514627,其他,体育场馆,晚上,4.24
2024-12-15,张店区第三中学,118.05725,36.807199,其他,学校,凌晨,3.71
2024-12-15,张店区第三中学,118.05725,36.807199,其他,学校,中午,7.4
2024-12-15,吾悦广场(淄博周村店),117.866457,36.823203,其他,商场,中午,7.44
2024-12-15,吾悦广场(淄博周村店),117.866457,36.823203,其他,商场,傍晚,7.43
2024-12-15,淄博市体育场游泳馆,117.983437,36.813185,其他,体育场馆,凌晨,3.3
2024-12-15,淄博市体育场游泳馆,117.983437,36.813185,其他,体育场馆,中午,5.18
2024-12-15,欧巴春川铁板鸡(吉祥路商业街店),117.971771,36.654814,其他,餐饮,中午,5.59
2024-12-15,欧巴春川铁板鸡(吉祥路商业街店),117.971771,36.654814,其他,餐饮,深夜,5.36
2024-12-15,山东省淄博第七中学,118.307753,36.801229,其他,学校,晚上,6.68
2024-12-15,山东省淄博第七中学,118.307753,36.801229,其他,学校,凌晨,3.04
2024-12-15,周村体育馆,117.847984,36.789105,其他,体育场馆,深夜,5.04
2024-12-15,金地禅寺,117.914574,36.539096,其他,旅游景点,傍晚,6.59
2024-12-15,金地禅寺,117.914574,36.539096,其他,旅游景点,上午,5.34
2024-12-15,孙泽涛辣豆腐(和平社区店),118.037766,36.799699,其他,餐饮,深夜,5.36
2024-12-15,边敏购物商场,118.360844,36.016546,其他,商场,深夜,7.19
2024-12-15,淄博延强医院,117.944326,36.665657,其他,医院,深夜,6.1
2024-12-15,希尔顿国际广场(建设中),117.869006,36.821829,其他,公园,下午,5.77
2024-12-15,希尔顿国际广场(建设中),117.869006,36.821829,其他,公园,上午,6.77
2024-12-15,萌山水库公园,117.861283,36.697633,其他,公园,深夜,4.67
2024-12-15,萌山水库公园,117.861283,36.697633,其他,公园,上午,6.77
2024-12-15,木和烤肉饭-重庆一绝渝香米线,117.852712,36.799754,其他,餐饮,中午,5.47
2024-12-15,仁缘博山菜(青龙山路店),117.872268,36.505538,其他,餐饮,下午,5.1
2024-12-15,淄博第四中学,117.964349,36.648354,其他,学校,深夜,4.54
2024-12-15,淄博第四中学,117.964349,36.648354,其他,学校,上午,7.87
2024-12-16,自由界健身游泳俱乐部,118.32318,36.812518,其他,体育场馆,凌晨,3.65
2024-12-16,淄博沂源九天洞景区,118.073101,36.271766,其他,旅游景点,中午,4.08
2024-12-16,淄博沂源九天洞景区,118.073101,36.271766,其他,旅游景点,晚上,4.44
2024-12-16,优购商城,118.330515,36.805331,其他,商场,下午,5.64
2024-12-16,流苏园,117.918142,36.823744,其他,公园,晚上,6.21
2024-12-16,流苏园,117.918142,36.823744,其他,公园,深夜,4.77
2024-12-16,博山区博山镇中心卫生院,117.963515,36.382327,其他,医院,深夜,6.1
2024-12-16,博山区博山镇中心卫生院,117.963515,36.382327,其他,医院,中午,4.41
2024-12-16,九级村新时代文化广场,118.021111,36.817354,其他,公园,傍晚,4.93
2024-12-16,九级村新时代文化广场,118.021111,36.817354,其他,公园,下午,7.23
2024-12-16,乔氏桌球(晏婴路店),118.311476,36.819986,其他,体育场馆,中午,7.28
2024-12-16,乔氏桌球(晏婴路店),118.311476,36.819986,其他,体育场馆,下午,4.77
2024-12-16,蝴蝶峪,117.781106,36.513231,其他,旅游景点,中午,5.97
2024-12-16,文昌湖区总体国家安全观主题公园,117.873194,36.713743,其他,公园,下午,4.65
2024-12-16,文昌湖区总体国家安全观主题公园,117.873194,36.713743,其他,公园,傍晚,6.4
2024-12-16,青龙山公园,118.088849,36.826097,其他,公园,上午,6.99
2024-12-16,齐长城遗址--风门道关,117.76158,36.517788,其他,旅游景点,晚上,5.16
2024-12-16,齐长城遗址--风门道关,117.76158,36.517788,其他,旅游景点,傍晚,6.85
2024-12-16,黑里寨中心卫生院,117.668376,37.108143,其他,医院,中午,6.05
2024-12-16,黑里寨中心卫生院,117.668376,37.108143,其他,医院,深夜,3.22
2024-12-16,桓台实验学校,118.082203,36.967572,其他,学校,凌晨,4.02
2024-12-16,淄博市植物园,118.029484,36.792359,其他,公园,凌晨,3.79
2024-12-16,萌山水库公园,117.861283,36.697633,其他,公园,傍晚,6.21
2024-12-16,萌山水库公园,117.861283,36.697633,其他,公园,下午,7.84
2024-12-16,齐鲁化工区金山安全实训中心,118.275895,36.756892,其他,文化场馆,傍晚,5.99
2024-12-16,君爵桌球俱乐部,117.974739,36.638948,其他,体育场馆,中午,7.57
2024-12-16,君爵桌球俱乐部,117.974739,36.638948,其他,体育场馆,上午,5.77
2024-12-16,留仙湖公园,117.957398,36.6373,其他,公园,中午,4.63
2024-12-16,文昌湖西马桥景点,117.85869,36.690796,其他,旅游景点,上午,6.03
2024-12-16,淄博市张店区铝城第一中学,118.040937,36.748754,其他,学校,深夜,3.25
2024-12-16,淄博建筑工程学校,118.106771,36.967138,其他,学校,下午,4.88
2024-12-16,聚合购物,118.102169,36.819988,其他,商场,晚上,3.82
2024-12-16,聚合购物,118.102169,36.819988,其他,商场,深夜,5.18
2024-12-16,中国课本博物馆,118.107847,36.831431,其他,文化场馆,上午,8.12
2024-12-16,中国课本博物馆,118.107847,36.831431,其他,文化场馆,中午,4.45
2024-12-16,西边有个院,117.982107,36.830791,其他,旅游景点,深夜,4.77
2024-12-16,八仙阁,117.85769,36.544662,其他,旅游景点,中午,5.89
2024-12-16,福记小馆(朝阳花苑凯旋城店),117.871797,36.811256,其他,餐饮,上午,7.39
2024-12-16,福记小馆(朝阳花苑凯旋城店),117.871797,36.811256,其他,餐饮,晚上,6.76
2024-12-16,沐羽高端羽毛球俱乐部,118.058909,36.878093,其他,体育场馆,深夜,5.56
2024-12-16,沐羽高端羽毛球俱乐部,118.058909,36.878093,其他,体育场馆,中午,4.74
2024-12-16,华齐私教健身中心(华侨店),117.992958,36.819546,其他,体育场馆,晚上,2.76
2024-12-16,大角牛烩牛肉(十七中北街店),118.035349,36.811637,其他,餐饮,傍晚,4.97
2024-12-16,禹山湖,117.792707,36.482443,其他,旅游景点,中午,6.17
2024-12-16,山东淄博机电工程学校,117.856807,36.839902,其他,学校,中午,5.64
2024-12-16,牛魔王烧烤海鲜城(商城小区店),118.095031,36.949874,其他,餐饮,凌晨,2.99
2024-12-16,八宝灵山寺,118.125937,36.352686,其他,旅游景点,中午,7.75
2024-12-16,八宝灵山寺,118.125937,36.352686,其他,旅游景点,凌晨,4.09
2024-12-16,淄博市唐家山文化生态园,118.019602,36.752995,其他,公园,傍晚,4.21
2024-12-16,五阳湖生态旅游度假区,117.88886,36.395126,其他,旅游景点,下午,7.28
2024-12-16,五阳湖生态旅游度假区,117.88886,36.395126,其他,旅游景点,上午,4.66
2024-12-16,三官庙,118.192014,36.453194,其他,旅游景点,上午,7.38
2024-12-16,焦裕禄故居,117.989833,36.434347,其他,旅游景点,傍晚,5.22
2024-12-16,焦裕禄故居,117.989833,36.434347,其他,旅游景点,凌晨,2.15
2024-12-16,国梁烧烤,117.957404,36.667691,其他,餐饮,凌晨,3.72
2024-12-16,速形特氧舱运动中心,118.048107,36.803525,其他,体育场馆,深夜,3.67
2024-12-16,天行健健身会所,118.004368,36.836872,其他,体育场馆,傍晚,4.76
2024-12-16,天行健健身会所,118.004368,36.836872,其他,体育场馆,下午,6.31
2024-12-16,金沙健身(易达店),117.837132,36.497611,其他,体育场馆,中午,4.33
2024-12-16,金沙健身(易达店),117.837132,36.497611,其他,体育场馆,下午,7.5
2024-12-16,淄建集团医院,118.064021,36.801248,其他,医院,傍晚,4.28
2024-12-16,淄建集团医院,118.064021,36.801248,其他,医院,凌晨,5.68
2024-12-16,淄博市体育运动学校,117.919092,36.80832,其他,文化场馆,凌晨,3.3
2024-12-16,淄博市体育运动学校,117.919092,36.80832,其他,文化场馆,深夜,3.55
2024-12-16,淄博大众医院,118.04198,36.798201,其他,医院,上午,6.39
2024-12-16,淄博大众医院,118.04198,36.798201,其他,医院,下午,6.41
2024-12-16,石门景区,117.775426,36.53953,其他,旅游景点,晚上,5.14
2024-12-16,石门景区,117.775426,36.53953,其他,旅游景点,傍晚,5.67
2024-12-16,和平大酒店(和平路店),117.820731,36.795699,其他,餐饮,上午,4.47
2024-12-16,和平大酒店(和平路店),117.820731,36.795699,其他,餐饮,凌晨,4.89
2024-12-16,南定镇崔军纪念堂,118.049097,36.739534,其他,旅游景点,中午,4.1
2024-12-16,矾沟肉油饼,117.863953,36.476117,其他,餐饮,上午,6.14
2024-12-16,毕自严故居,117.738277,36.677793,其他,旅游景点,傍晚,5.53
2024-12-16,毕自严故居,117.738277,36.677793,其他,旅游景点,晚上,3.77
2024-12-16,昆仑山玉皇宫,117.899978,36.591192,其他,旅游景点,凌晨,4.51
2024-12-16,昆仑山玉皇宫,117.899978,36.591192,其他,旅游景点,中午,5.07
2024-12-16,零距离健身,118.077582,36.816188,其他,体育场馆,中午,4.39
2024-12-16,零距离健身,118.077582,36.816188,其他,体育场馆,下午,5.2
2024-12-16,桉树披萨(淄川店),117.976008,36.644428,其他,餐饮,中午,5.27
2024-12-16,祥瑞园小学,118.010582,36.824284,其他,学校,凌晨,4.5
2024-12-16,祥瑞园小学,118.010582,36.824284,其他,学校,下午,8.0
2024-12-16,漫巴台球,117.926954,36.83419,其他,体育场馆,深夜,4.95
2024-12-16,鲁山全羊烧烤,118.041147,36.84383,其他,餐饮,晚上,4.13
2024-12-16,鲁山全羊烧烤,118.041147,36.84383,其他,餐饮,傍晚,4.88
2024-12-16,太公植物园,118.36359,36.811137,其他,公园,凌晨,4.76
2024-12-16,太公植物园,118.36359,36.811137,其他,公园,晚上,4.77
2024-12-16,北苑小学,118.018256,36.844471,其他,学校,上午,5.88
2024-12-16,北苑小学,118.018256,36.844471,其他,学校,中午,5.02
2024-12-16,高青县中医院,117.830285,37.184154,其他,医院,晚上,4.21
2024-12-16,高青县中医院,117.830285,37.184154,其他,医院,深夜,4.82
2024-12-16,圣元商厦,117.908667,37.038908,其他,商场,中午,3.83
2024-12-16,虾时代(沂源店),118.156895,36.185217,其他,餐饮,深夜,3.77
2024-12-16,虾时代(沂源店),118.156895,36.185217,其他,餐饮,凌晨,3.15
2024-12-16,星牌台球俱乐部,118.072495,36.815271,其他,体育场馆,上午,7.65
2024-12-16,淄博市技师学院经开校区,118.051685,36.770831,其他,学校,上午,7.89
2024-12-16,淄博市技师学院经开校区,118.051685,36.770831,其他,学校,傍晚,4.63
2024-12-16,张店区人民医院,118.072384,36.817652,其他,医院,傍晚,4.77
2024-12-16,张店区人民医院,118.072384,36.817652,其他,医院,凌晨,4.13
2024-12-16,龙二村文化广场,117.98276,36.579372,其他,公园,中午,5.41
2024-12-16,龙二村文化广场,117.98276,36.579372,其他,公园,凌晨,4.49
2024-12-16,老刺参酒楼,118.321585,36.817706,其他,餐饮,傍晚,5.15
2024-12-16,老刺参酒楼,118.321585,36.817706,其他,餐饮,晚上,5.47
2024-12-16,光辉百货,117.859345,36.786782,其他,商场,下午,6.79
2024-12-16,淄博化建医院,118.233028,36.735297,其他,医院,下午,6.18
2024-12-16,淄博化建医院,118.233028,36.735297,其他,医院,上午,6.78
2024-12-16,高青县高城中心卫生院,117.954429,37.104193,其他,医院,晚上,4.83
2024-12-16,高青县高城中心卫生院,117.954429,37.104193,其他,医院,凌晨,3.08
2024-12-16,奥朗特购物广场,118.012429,36.810507,其他,商场,深夜,5.57
2024-12-16,奥朗特购物广场,118.012429,36.810507,其他,商场,晚上,5.21
2024-12-16,淄博稷下实验学校,117.965198,36.816474,其他,学校,中午,5.84
2024-12-16,淄博稷下实验学校,117.965198,36.816474,其他,学校,上午,5.01
2024-12-16,步步高鸽子府,118.314622,36.806359,其他,餐饮,中午,6.03
2024-12-16,步步高鸽子府,118.314622,36.806359,其他,餐饮,下午,6.45
2024-12-16,友谊蛋糕(植物园店),118.022711,36.790473,其他,餐饮,凌晨,3.38
2024-12-16,傅山自然地质博物馆,118.132336,36.878484,其他,文化场馆,傍晚,3.63
2024-12-16,山铝西山社区卫生服务站,118.037141,36.752962,其他,医院,深夜,4.7
2024-12-16,马踏湖鲜鱼馆香和院,118.059533,37.062755,其他,餐饮,下午,5.66
2024-12-17,图乐台球俱乐部,118.043981,36.829208,其他,体育场馆,中午,6.63
2024-12-17,山东健康集团淄博医院,117.995154,36.632548,其他,医院,下午,7.72
2024-12-17,山东健康集团淄博医院,117.995154,36.632548,其他,医院,深夜,4.54
2024-12-17,红樱桃时尚购物广场(振华商厦店),118.055728,36.802018,其他,商场,凌晨,4.13
2024-12-17,红樱桃时尚购物广场(振华商厦店),118.055728,36.802018,其他,商场,下午,6.28
2024-12-17,淄博高新区实验中学,118.128522,36.830556,其他,学校,晚上,4.5
2024-12-17,玉龙商场,118.295926,36.814766,其他,商场,凌晨,4.59
2024-12-17,玉龙商场,118.295926,36.814766,其他,商场,下午,5.62
2024-12-17,辛店街道中体体育公园,118.309062,36.798078,其他,公园,中午,4.64
2024-12-17,凯瑞小学,118.014388,36.810389,其他,学校,凌晨,4.72
2024-12-17,凯瑞小学,118.014388,36.810389,其他,学校,晚上,4.45
2024-12-17,张店区齐润小学,118.002303,36.81991,其他,学校,凌晨,4.25
2024-12-17,张店区齐润小学,118.002303,36.81991,其他,学校,晚上,4.86
2024-12-17,抡8台球俱乐部,118.10774,36.962169,其他,体育场馆,凌晨,3.33
2024-12-17,抡8台球俱乐部,118.10774,36.962169,其他,体育场馆,晚上,5.93
2024-12-17,博山篮球运动中心,117.832791,36.514627,其他,体育场馆,傍晚,4.58
2024-12-17,沂源县第二人民医院,118.360611,36.019273,其他,医院,深夜,3.9
2024-12-17,孙庄党建主题公园,118.123778,36.846458,其他,公园,下午,5.69
2024-12-17,孙庄党建主题公园,118.123778,36.846458,其他,公园,深夜,4.54
2024-12-17,银座商城(沂源店),118.155451,36.186046,其他,商场,上午,6.58
2024-12-17,中濠饭店(海岱楼店),117.998939,36.844294,其他,餐饮,上午,7.42
2024-12-17,中濠饭店(海岱楼店),117.998939,36.844294,其他,餐饮,中午,6.7
2024-12-17,淄博市黉山风景名胜旅游区,118.033871,36.659632,其他,旅游景点,傍晚,6.37
2024-12-17,淄博市黉山风景名胜旅游区,118.033871,36.659632,其他,旅游景点,下午,6.7
2024-12-17,青年路街道办事处社区卫生服务中心,117.84943,36.806324,其他,医院,深夜,5.76
2024-12-17,清梅居食品厂(白虎店),117.851202,36.499334,其他,餐饮,深夜,5.48
2024-12-17,东方实验学校,118.078156,36.821028,其他,文化场馆,深夜,6.69
2024-12-17,欧巴春川铁板鸡(吉祥路商业街店),117.971771,36.654814,其他,餐饮,上午,7.18
2024-12-17,英森国际台球俱乐部,118.166412,36.183542,其他,体育场馆,傍晚,5.51
2024-12-17,典雅服装商场,117.988939,36.74058,其他,商场,深夜,2.3
2024-12-17,文昌湖萌宠动物园,117.86273,36.715628,其他,公园,下午,4.4
2024-12-17,文昌湖萌宠动物园,117.86273,36.715628,其他,公园,深夜,5.24
2024-12-17,桓台县第二小学,118.093883,36.955014,其他,学校,凌晨,4.15
2024-12-17,黑铁山风景区,118.164113,36.842767,其他,旅游景点,深夜,2.83
2024-12-17,鸿盛购物商场,117.851029,36.797485,其他,商场,凌晨,4.9
2024-12-17,六点水新世界,118.177816,36.196675,其他,公园,下午,5.58
2024-12-17,张店区第一中学,118.043795,36.795111,其他,学校,上午,5.87
2024-12-17,张店区第一中学,118.043795,36.795111,其他,学校,凌晨,5.62
2024-12-17,淄博会展中心,117.988167,36.833619,其他,文化场馆,上午,5.58
2024-12-17,惊宇动力健康管理中心·游泳健身,117.997351,36.790241,其他,体育场馆,上午,5.36
2024-12-17,高青县中心路小学,117.835773,37.157631,其他,学校,中午,4.64
2024-12-17,高青县中心路小学,117.835773,37.157631,其他,学校,凌晨,2.78
2024-12-17,山东新华制药股份有限公司职工培训中心技工学校,118.063076,36.794698,其他,学校,凌晨,4.56
2024-12-17,塞外春肥羊府(沿河西路店),118.152762,36.190755,其他,餐饮,中午,5.45
2024-12-17,火炬公园,118.053802,36.837551,其他,公园,深夜,4.21
2024-12-17,火炬公园,118.053802,36.837551,其他,公园,下午,6.06
2024-12-17,欢乐新街,117.848859,36.793297,其他,商场,中午,5.63
2024-12-17,张店区人民医院,118.072384,36.817652,其他,医院,晚上,4.61
2024-12-17,高青县实验中学,117.819735,37.165726,其他,学校,上午,4.73
2024-12-17,复兴庵,117.900718,36.842181,其他,旅游景点,傍晚,6.14
2024-12-17,高青县第二人民医院,117.797966,37.178006,其他,医院,中午,4.98
2024-12-17,高青县第二人民医院,117.797966,37.178006,其他,医院,傍晚,7.16
2024-12-17,锤子女子健身,117.991131,36.847568,其他,体育场馆,深夜,4.45
2024-12-17,瓦萨里现烤披萨(新建中路店),117.852565,36.800467,其他,餐饮,深夜,5.72
2024-12-17,瓦萨里现烤披萨(新建中路店),117.852565,36.800467,其他,餐饮,凌晨,3.11
2024-12-17,南博山中村文化广场,117.964417,36.35139,其他,公园,下午,6.18
2024-12-17,桓台实验学校,118.082203,36.967572,其他,学校,傍晚,6.11
2024-12-17,桓台实验学校,118.082203,36.967572,其他,学校,上午,5.84
2024-12-17,崔军广场,118.050063,36.744185,其他,公园,上午,4.97
2024-12-17,吉祥广场,117.973527,36.655065,其他,公园,深夜,3.8
2024-12-17,淄博商厦,118.058471,36.802055,其他,商场,中午,5.27
2024-12-17,淄博市张店区融媒体中心,118.0451,36.796042,其他,文化场馆,上午,5.62
2024-12-17,喜力私教健身(华润店),118.060887,36.803298,其他,体育场馆,上午,4.1
2024-12-17,北营公园,118.076584,36.860381,其他,公园,傍晚,4.91
2024-12-17,北营公园,118.076584,36.860381,其他,公园,晚上,4.85
2024-12-17,黄河楼广场,117.889658,37.259927,其他,公园,下午,5.18
2024-12-17,老朱烧烤,118.072546,36.856499,其他,餐饮,深夜,4.05
2024-12-17,老朱烧烤,118.072546,36.856499,其他,餐饮,上午,5.41
2024-12-17,金桥商厦(中和街),117.852231,36.797431,其他,商场,深夜,5.32
2024-12-17,金桥商厦(中和街),117.852231,36.797431,其他,商场,中午,6.22
2024-12-17,利群时代(柳泉路店),118.047509,36.801921,其他,商场,傍晚,4.91
2024-12-17,利群时代(柳泉路店),118.047509,36.801921,其他,商场,中午,5.72
2024-12-17,淄博沂源南鲁山风景区,118.073872,36.272734,其他,旅游景点,晚上,5.21
2024-12-17,中华武馆(张桓路),118.044124,36.824793,其他,体育场馆,凌晨,4.05
2024-12-17,海棠居(农广大厦店),118.01476,36.829155,其他,餐饮,中午,5.05
2024-12-17,海棠居(农广大厦店),118.01476,36.829155,其他,餐饮,下午,4.78
2024-12-17,平安殿,117.855097,36.542447,其他,旅游景点,下午,7.57
2024-12-17,太公湖公园,118.364861,36.810869,其他,公园,中午,5.09
2024-12-17,淘宝商城(鲁中国际商贸城店),117.953475,36.641625,其他,商场,凌晨,5.05
2024-12-17,淄博益宁医院,118.077476,36.816863,其他,医院,中午,6.7
2024-12-17,安源蛋糕,118.166964,36.18527,其他,餐饮,上午,7.37
2024-12-17,安源蛋糕,118.166964,36.18527,其他,餐饮,傍晚,6.2
2024-12-17,老鸭汤,118.022446,36.76349,其他,餐饮,深夜,3.72
2024-12-17,悦味坊酒店,118.0079,36.832232,其他,餐饮,上午,5.51
2024-12-17,悦味坊酒店,118.0079,36.832232,其他,餐饮,深夜,6.76
2024-12-18,海棠居(农广大厦店),118.01476,36.829155,其他,餐饮,中午,5.34
2024-12-18,海棠居(农广大厦店),118.01476,36.829155,其他,餐饮,上午,5.97
2024-12-18,和平小区小学,118.039303,36.799736,其他,学校,深夜,3.66
2024-12-18,博山区中医院-门诊住院,117.826869,36.489714,其他,医院,下午,7.66
2024-12-18,博山区中医院-门诊住院,117.826869,36.489714,其他,医院,傍晚,6.32
2024-12-18,颜文姜祠,117.855514,36.481729,其他,旅游景点,中午,6.14
2024-12-18,颜文姜祠,117.855514,36.481729,其他,旅游景点,凌晨,5.5
2024-12-18,淄博市高新区第一中学,118.036423,36.855487,其他,学校,中午,5.17
2024-12-18,淄博市高新区第一中学,118.036423,36.855487,其他,学校,凌晨,5.18
2024-12-18,华仁中医医院,118.042517,36.807609,其他,医院,下午,5.64
2024-12-18,华仁中医医院,118.042517,36.807609,其他,医院,中午,6.32
2024-12-18,磁村中学,117.83889,36.62076,其他,学校,凌晨,3.74
2024-12-18,磁村中学,117.83889,36.62076,其他,学校,下午,5.5
2024-12-18,齐陵医院,118.377483,36.799623,其他,医院,下午,5.83
2024-12-18,齐陵医院,118.377483,36.799623,其他,医院,凌晨,4.07
2024-12-18,民法典主题公园,117.828674,36.796596,其他,公园,中午,4.93
2024-12-18,山东健康集团淄博医院,117.995154,36.632548,其他,医院,中午,5.54
2024-12-18,淄博市张店区第六中学,117.99802,36.769038,其他,学校,傍晚,4.36
2024-12-18,临淄人民广场,118.308885,36.824891,其他,公园,下午,4.32
2024-12-18,淄博市淄川区淄河镇卫生院,118.085237,36.483345,其他,医院,晚上,3.69
2024-12-18,淄博市淄川区淄河镇卫生院,118.085237,36.483345,其他,医院,下午,7.09
2024-12-18,桓台县人民医院,118.093414,36.945519,其他,医院,下午,6.95
2024-12-18,博弈台球俱乐部天玺淄博旗舰店,118.032176,36.810442,其他,体育场馆,下午,7.63
2024-12-18,博弈台球俱乐部天玺淄博旗舰店,118.032176,36.810442,其他,体育场馆,凌晨,3.7
2024-12-18,鲁青商城,117.694342,37.184669,其他,商场,晚上,5.67
2024-12-18,鲁青商城,117.694342,37.184669,其他,商场,傍晚,5.08
2024-12-18,淘宝商城(鲁中国际商贸城店),117.953475,36.641625,其他,商场,深夜,5.41
2024-12-18,淘宝商城(鲁中国际商贸城店),117.953475,36.641625,其他,商场,晚上,3.32
2024-12-18,博山区山头街道卫生院,117.862367,36.476361,其他,医院,凌晨,3.75
2024-12-18,博山区山头街道卫生院,117.862367,36.476361,其他,医院,上午,5.37
2024-12-18,星牌台球俱乐部,118.072495,36.815271,其他,体育场馆,傍晚,7.62
2024-12-18,福瑞园蛋糕(邮政局宿舍店),118.098388,36.961395,其他,餐饮,深夜,3.8
2024-12-18,福瑞园蛋糕(邮政局宿舍店),118.098388,36.961395,其他,餐饮,凌晨,2.4
2024-12-18,三玉文化广场,118.075151,36.869877,其他,公园,凌晨,4.68
2024-12-18,三玉文化广场,118.075151,36.869877,其他,公园,深夜,6.86
2024-12-18,唐山镇文体公园,118.049167,36.963014,其他,公园,深夜,3.19
2024-12-18,八月美食小馆(银泰时代广场店),118.035926,36.849517,其他,餐饮,深夜,5.99
2024-12-18,八月美食小馆(银泰时代广场店),118.035926,36.849517,其他,餐饮,中午,6.69
2024-12-18,临淄齐国故城考古遗址公园,118.344057,36.890173,其他,公园,凌晨,4.46
2024-12-18,张店区科苑街道科技苑社区卫生服务站,118.051755,36.833748,其他,医院,下午,5.27
2024-12-18,惠仟佳超市,118.08749,36.959884,其他,商场,凌晨,3.74
2024-12-18,君爵桌球俱乐部,117.974739,36.638948,其他,体育场馆,上午,6.62
2024-12-18,淄博市第一医院总院,117.86452,36.490278,其他,医院,凌晨,3.42
2024-12-18,淄博市第一医院总院,117.86452,36.490278,其他,医院,中午,5.43
2024-12-18,鲁泰文苑公园,117.994721,36.643395,其他,公园,晚上,2.95
2024-12-18,清梅居食品厂(白虎店),117.851202,36.499334,其他,餐饮,下午,6.35
2024-12-18,TOP-1私教健身(东岳店),118.076828,36.948274,其他,体育场馆,上午,6.01
2024-12-18,TOP-1私教健身(东岳店),118.076828,36.948274,其他,体育场馆,晚上,5.9
2024-12-18,杏园社区卫生服务中心,118.080025,36.785047,其他,医院,傍晚,5.2
2024-12-18,银泰商城,117.851987,36.798059,其他,商场,傍晚,7.72
2024-12-18,淄博人民公园,118.048798,36.810627,其他,公园,晚上,3.99
2024-12-18,骑士台球棋牌俱乐部,118.020878,36.828858,其他,体育场馆,深夜,3.85
2024-12-18,骑士台球棋牌俱乐部,118.020878,36.828858,其他,体育场馆,上午,5.93
2024-12-18,希尔顿国际广场(建设中),117.869006,36.821829,其他,公园,中午,5.31
2024-12-18,希尔顿国际广场(建设中),117.869006,36.821829,其他,公园,晚上,5.29
2024-12-18,淄博师范高等专科学校,117.89617,36.661055,其他,学校,上午,6.99
2024-12-18,西山公园,117.990818,36.634296,其他,公园,晚上,4.64
2024-12-18,西山公园,117.990818,36.634296,其他,公园,凌晨,3.75
2024-12-18,月牙湾,118.386452,36.843008,其他,旅游景点,下午,6.29
2024-12-18,月牙湾,118.386452,36.843008,其他,旅游景点,中午,5.21
2024-12-18,桓台县中医院,118.098618,36.968299,其他,医院,深夜,5.01
2024-12-18,俏神州大酒店,117.875879,36.507295,其他,餐饮,深夜,5.01
2024-12-18,自由界健身游泳俱乐部,118.32318,36.812518,其他,体育场馆,傍晚,5.91
2024-12-18,淄博齐乐网球俱乐部,118.051554,36.84441,其他,体育场馆,中午,7.1
2024-12-18,淄博齐乐网球俱乐部,118.051554,36.84441,其他,体育场馆,晚上,6.16
2024-12-18,中埠镇卫生院,118.18759,36.846438,其他,医院,深夜,5.65
2024-12-18,中埠镇卫生院,118.18759,36.846438,其他,医院,上午,5.39
2024-12-18,山东淄博鲁才高级中学,117.753424,37.13738,其他,学校,深夜,5.53
2024-12-18,淄博公园,117.977602,36.785251,其他,公园,下午,6.02
2024-12-18,张店区中医院康复楼,118.052783,36.800109,其他,医院,晚上,5.69
2024-12-18,华齐私教健身中心(银泰店),118.033449,36.849891,其他,体育场馆,晚上,5.58
2024-12-18,博山风景名胜区,117.820186,36.513045,其他,旅游景点,中午,3.28
2024-12-18,商家公园,118.097382,36.784934,其他,公园,凌晨,5.37
2024-12-18,茂岭公园,117.914827,36.480506,其他,公园,凌晨,4.61
2024-12-18,茂岭公园,117.914827,36.480506,其他,公园,晚上,5.46
2024-12-18,淄博高新区第三小学,118.032424,36.868789,其他,学校,傍晚,6.19
2024-12-18,淄博市中西医结合医院体检,118.058868,36.79356,其他,医院,晚上,4.47
2024-12-18,淄博市中西医结合医院体检,118.058868,36.79356,其他,医院,下午,4.48
2024-12-18,淄博天誉佳惠购物广场,118.062769,36.916257,其他,商场,晚上,4.33
2024-12-18,淄博天誉佳惠购物广场,118.062769,36.916257,其他,商场,中午,4.53
2024-12-18,东良进口商品(桓台店),118.093213,36.952988,其他,商场,中午,5.06
2024-12-18,东良进口商品(桓台店),118.093213,36.952988,其他,商场,深夜,3.43
2024-12-18,陶涛羽毛球训练营(利群时代广场店),118.047869,36.80187,其他,体育场馆,上午,7.42
2024-12-18,盛华尚都广场,118.309909,36.811202,其他,商场,晚上,4.08
2024-12-18,TK彤德捞时尚火锅(星河街店),117.989331,36.799807,其他,餐饮,晚上,5.48
2024-12-18,天玑阁,117.945775,37.186481,其他,旅游景点,深夜,2.47
2024-12-18,食香阁(广青路店),117.694597,37.179924,其他,餐饮,傍晚,4.71
2024-12-18,食香阁(广青路店),117.694597,37.179924,其他,餐饮,深夜,4.63
2024-12-18,淄博市张店区实验中学,118.025832,36.799455,其他,学校,晚上,5.78
2024-12-18,淄博市张店区实验中学,118.025832,36.799455,其他,学校,上午,7.63
2024-12-18,花山坊,118.112959,36.821252,其他,旅游景点,晚上,4.75
2024-12-18,花山坊,118.112959,36.821252,其他,旅游景点,深夜,2.25
2024-12-18,淄川区西河中心卫生院,117.942726,36.502452,其他,医院,傍晚,6.54
2024-12-18,张店区齐润小学,118.002303,36.81991,其他,学校,上午,7.4
2024-12-18,张店区齐润小学,118.002303,36.81991,其他,学校,深夜,4.85
2024-12-18,茂业百货(广场店),118.296332,36.819241,其他,商场,下午,4.81
2024-12-18,茂业百货(广场店),118.296332,36.819241,其他,商场,晚上,4.71
2024-12-18,淄博大众医院,118.04198,36.798201,其他,医院,上午,5.44
2024-12-18,沂河源,118.150174,36.196341,其他,公园,中午,6.25
2024-12-18,沂源县中医医院,118.161907,36.19553,其他,医院,深夜,3.45
2024-12-18,沂源县中医医院,118.161907,36.19553,其他,医院,晚上,4.95
2024-12-19,孝妇河湿地公园喷泉广场,117.970314,36.801683,其他,公园,中午,5.39
2024-12-19,皇后餐厅,118.036899,36.850457,其他,餐饮,上午,4.62
2024-12-19,皇后餐厅,118.036899,36.850457,其他,餐饮,中午,5.61
2024-12-19,遄台中学,118.316847,36.818062,其他,学校,凌晨,4.75
2024-12-19,遄台中学,118.316847,36.818062,其他,学校,中午,6.64
2024-12-19,南博山中村文化广场,117.964417,36.35139,其他,公园,深夜,6.01
2024-12-19,博山实验中学,117.859332,36.509801,其他,学校,下午,5.9
2024-12-19,博山实验中学,117.859332,36.509801,其他,学校,上午,5.59
2024-12-19,青云大酒店(中共淄川区洪山镇委员会东),118.002062,36.623339,其他,餐饮,傍晚,6.15
2024-12-19,炒米山生态风景区,118.131667,36.762922,其他,旅游景点,下午,4.49
2024-12-19,炒米山生态风景区,118.131667,36.762922,其他,旅游景点,傍晚,6.25
2024-12-19,沂河源省级湿地公园,118.150174,36.196341,其他,公园,傍晚,4.13
2024-12-19,沂河源省级湿地公园,118.150174,36.196341,其他,公园,晚上,4.66
2024-12-19,九合台球俱乐部(凤阳大厦店),118.042796,36.801969,其他,体育场馆,晚上,3.35
2024-12-19,湖田小学,118.113527,36.789104,其他,学校,傍晚,5.2
2024-12-19,临淄青年学生抗日志愿军训团纪念碑,118.343774,36.856906,其他,旅游景点,中午,6.48
2024-12-19,味老香菜馆(万象汇店),118.063505,36.801539,其他,餐饮,凌晨,5.06
2024-12-19,味老香菜馆(万象汇店),118.063505,36.801539,其他,餐饮,深夜,3.86
2024-12-19,太公湖公园,118.364861,36.810869,其他,公园,中午,6.19
2024-12-19,山旺村健身广场,117.89136,36.76054,其他,公园,晚上,3.65
2024-12-19,山东理工大学,118.000702,36.81037,其他,学校,深夜,4.26
2024-12-19,金惠丽百货,118.065748,37.06301,其他,商场,晚上,5.09
2024-12-19,金惠丽百货,118.065748,37.06301,其他,商场,深夜,3.67
2024-12-19,商家公园,118.097382,36.784934,其他,公园,傍晚,5.74
2024-12-19,银泰城,118.034922,36.848671,其他,商场,晚上,5.24
2024-12-19,怡园,118.333677,36.815041,其他,公园,中午,4.77
2024-12-19,柳泉潜流湿地,117.937449,36.621568,其他,旅游景点,中午,5.57
2024-12-19,柳泉潜流湿地,117.937449,36.621568,其他,旅游景点,深夜,3.58
2024-12-19,张店天主教堂,118.059974,36.789464,其他,旅游景点,下午,5.27
2024-12-19,赵执信纪念馆,117.869469,36.492849,其他,旅游景点,晚上,6.2
2024-12-19,赵执信纪念馆,117.869469,36.492849,其他,旅游景点,下午,4.72
2024-12-19,周村人民广场,117.856114,36.799587,其他,公园,中午,5.81
2024-12-19,刘春村文化广场,117.885178,37.255864,其他,公园,傍晚,5.2
2024-12-19,沂源县人民医院,118.170794,36.188628,其他,医院,凌晨,6.2
2024-12-19,博山财神庙,117.897121,36.52617,其他,旅游景点,下午,8.07
2024-12-19,博山财神庙,117.897121,36.52617,其他,旅游景点,中午,5.82
2024-12-19,恒泰游泳健身会馆,117.855636,36.479015,其他,体育场馆,下午,7.49
2024-12-19,桓台县新时代文明实践中心-健康主题公园,118.084407,36.946436,其他,公园,下午,6.65
